{
"type": "FeatureCollection",
"crs": { "type": "name", "properties": { "name": "urn:ogc:def:crs:OGC:1.3:CRS84" } },
"features": [
{ "type": "Feature", "properties": { "addr": "奉贤区 光辉村  " }, "geometry": { "type": "Point", "coordinates": [ 121.566696419605108, 30.995599446779515 ] } },
{ "type": "Feature", "properties": { "addr": "奉贤区 青伟路111号  " }, "geometry": { "type": "Point", "coordinates": [ 121.61133304073482, 30.940485843493274 ] } },
{ "type": "Feature", "properties": { "addr": "奉贤区 西吴村  " }, "geometry": { "type": "Point", "coordinates": [ 121.587532975231241, 30.946815636476845 ] } },
{ "type": "Feature", "properties": { "addr": "奉贤区 和中村  " }, "geometry": { "type": "Point", "coordinates": [ 121.55874659550291, 30.940927836256158 ] } },
{ "type": "Feature", "properties": { "addr": "奉贤区 姚家村  " }, "geometry": { "type": "Point", "coordinates": [ 121.585977738901832, 30.923133983473207 ] } },
{ "type": "Feature", "properties": { "addr": "奉贤区 泰青公路619弄  " }, "geometry": { "type": "Point", "coordinates": [ 121.573767972269707, 30.983230855921263 ] } },
{ "type": "Feature", "properties": { "addr": "奉贤区 湾张村  " }, "geometry": { "type": "Point", "coordinates": [ 121.536684032516746, 30.926285379228656 ] } },
{ "type": "Feature", "properties": { "addr": "奉贤区 江南路151号  " }, "geometry": { "type": "Point", "coordinates": [ 121.467426474308468, 30.907866456820855 ] } },
{ "type": "Feature", "properties": { "addr": "奉贤区 燎原三组  " }, "geometry": { "type": "Point", "coordinates": [ 121.648677846548381, 30.867903073714629 ] } },
{ "type": "Feature", "properties": { "addr": "奉贤区 南陈村  " }, "geometry": { "type": "Point", "coordinates": [ 121.554163440791001, 30.974136662793573 ] } },
{ "type": "Feature", "properties": { "addr": "奉贤区 新群路54弄  " }, "geometry": { "type": "Point", "coordinates": [ 121.590612321604169, 30.929201591190516 ] } },
{ "type": "Feature", "properties": { "addr": "奉贤区 北塘村  " }, "geometry": { "type": "Point", "coordinates": [ 121.581860804749596, 30.934365719623909 ] } },
{ "type": "Feature", "properties": { "addr": "奉贤区 南行村  " }, "geometry": { "type": "Point", "coordinates": [ 121.516791865473252, 30.979601329438392 ] } },
{ "type": "Feature", "properties": { "addr": "奉贤区 朱店村  " }, "geometry": { "type": "Point", "coordinates": [ 121.553095804692404, 30.932788581800068 ] } },
{ "type": "Feature", "properties": { "addr": "奉贤区 南奉公路3111弄  " }, "geometry": { "type": "Point", "coordinates": [ 121.581473994397001, 30.930073870042108 ] } },
{ "type": "Feature", "properties": { "addr": "奉贤区 奉柘公路3288弄  " }, "geometry": { "type": "Point", "coordinates": [ 121.545442601069581, 30.874853358842586 ] } },
{ "type": "Feature", "properties": { "addr": "奉贤区 工农村  " }, "geometry": { "type": "Point", "coordinates": [ 121.543057420279496, 30.91796246535046 ] } },
{ "type": "Feature", "properties": { "addr": "奉贤区 贤政路333弄  " }, "geometry": { "type": "Point", "coordinates": [ 121.489333001627543, 30.9263649159377 ] } },
{ "type": "Feature", "properties": { "addr": "奉贤区 振浦路106弄  " }, "geometry": { "type": "Point", "coordinates": [ 121.583976763378345, 30.931234574745616 ] } },
{ "type": "Feature", "properties": { "addr": "奉贤区 解放村  " }, "geometry": { "type": "Point", "coordinates": [ 121.459841991057175, 30.918963843619391 ] } },
{ "type": "Feature", "properties": { "addr": "奉贤区 金碧路1980弄  " }, "geometry": { "type": "Point", "coordinates": [ 121.512796472056522, 30.980284787232577 ] } },
{ "type": "Feature", "properties": { "addr": "奉贤区 广福路29号  " }, "geometry": { "type": "Point", "coordinates": [ 121.650780600086136, 30.956563743958007 ] } },
{ "type": "Feature", "properties": { "addr": "奉贤区 蔡桥村  " }, "geometry": { "type": "Point", "coordinates": [ 121.648020556406735, 30.980413583255384 ] } },
{ "type": "Feature", "properties": { "addr": "奉贤区 明星村  " }, "geometry": { "type": "Point", "coordinates": [ 121.547546612235067, 30.990383364157328 ] } },
{ "type": "Feature", "properties": { "addr": "奉贤区 北丁村  " }, "geometry": { "type": "Point", "coordinates": [ 121.575445286458432, 30.963283719632894 ] } },
{ "type": "Feature", "properties": { "addr": "奉贤区 周家村  " }, "geometry": { "type": "Point", "coordinates": [ 121.605390749786309, 30.993286107625714 ] } },
{ "type": "Feature", "properties": { "addr": "奉贤区 吴塘路529弄  " }, "geometry": { "type": "Point", "coordinates": [ 121.451461519293488, 30.967372249850776 ] } },
{ "type": "Feature", "properties": { "addr": "奉贤区 港佳路515弄  " }, "geometry": { "type": "Point", "coordinates": [ 121.738713031541337, 30.938348793304435 ] } },
{ "type": "Feature", "properties": { "addr": "奉贤区 军民村  " }, "geometry": { "type": "Point", "coordinates": [ 121.456507481004138, 30.902486034002525 ] } },
{ "type": "Feature", "properties": { "addr": "奉贤区 博丰路158弄  " }, "geometry": { "type": "Point", "coordinates": [ 121.497783271729347, 30.969483795688909 ] } },
{ "type": "Feature", "properties": { "addr": "奉贤区 文明街2号  " }, "geometry": { "type": "Point", "coordinates": [ 121.517722509981581, 30.959684530290872 ] } },
{ "type": "Feature", "properties": { "addr": "奉贤区 杨溇村  " }, "geometry": { "type": "Point", "coordinates": [ 121.382549988367643, 30.902290744116041 ] } },
{ "type": "Feature", "properties": { "addr": "奉贤区 浦秀村  " }, "geometry": { "type": "Point", "coordinates": [ 121.417502067624838, 30.985957915297785 ] } },
{ "type": "Feature", "properties": { "addr": "奉贤区 农商路16弄  " }, "geometry": { "type": "Point", "coordinates": [ 121.688415828071072, 30.930866259507692 ] } },
{ "type": "Feature", "properties": { "addr": "奉贤区 奉城村  " }, "geometry": { "type": "Point", "coordinates": [ 121.651090515487084, 30.922265009721169 ] } },
{ "type": "Feature", "properties": { "addr": "奉贤区 路口村  " }, "geometry": { "type": "Point", "coordinates": [ 121.623073534428016, 30.940186327952869 ] } },
{ "type": "Feature", "properties": { "addr": "奉贤区 肖塘路146号  " }, "geometry": { "type": "Point", "coordinates": [ 121.445329146899084, 30.969416371245586 ] } },
{ "type": "Feature", "properties": { "addr": "奉贤区 金闸公路225弄  " }, "geometry": { "type": "Point", "coordinates": [ 121.50923172630128, 30.987632304154136 ] } },
{ "type": "Feature", "properties": { "addr": "奉贤区 朱新村  " }, "geometry": { "type": "Point", "coordinates": [ 121.695624370466433, 30.909921313816039 ] } },
{ "type": "Feature", "properties": { "addr": "奉贤区 南明路191号  " }, "geometry": { "type": "Point", "coordinates": [ 121.582375893129012, 30.934188461360822 ] } },
{ "type": "Feature", "properties": { "addr": "奉贤区 南奉公路999号  " }, "geometry": { "type": "Point", "coordinates": [ 121.626271502043537, 30.919771583911189 ] } },
{ "type": "Feature", "properties": { "addr": "奉贤区 大叶公路6719弄  " }, "geometry": { "type": "Point", "coordinates": [ 121.572732134326657, 30.985706762149288 ] } },
{ "type": "Feature", "properties": { "addr": "奉贤区 梅园村  " }, "geometry": { "type": "Point", "coordinates": [ 121.603550750610225, 30.996276133429198 ] } },
{ "type": "Feature", "properties": { "addr": "奉贤区 泰叶路159弄  " }, "geometry": { "type": "Point", "coordinates": [ 121.567865654056902, 30.982792175839457 ] } },
{ "type": "Feature", "properties": { "addr": "奉贤区 大叶公路6288弄  " }, "geometry": { "type": "Point", "coordinates": [ 121.560759248998025, 30.981951149620905 ] } },
{ "type": "Feature", "properties": { "addr": "奉贤区 环城东路885弄  " }, "geometry": { "type": "Point", "coordinates": [ 121.477354906126948, 30.934217346194359 ] } },
{ "type": "Feature", "properties": { "addr": "奉贤区 江海二村  " }, "geometry": { "type": "Point", "coordinates": [ 121.462528104193112, 30.906437294858701 ] } },
{ "type": "Feature", "properties": { "addr": "奉贤区 星火21连  " }, "geometry": { "type": "Point", "coordinates": [ 121.637356502206117, 30.853041307604315 ] } },
{ "type": "Feature", "properties": { "addr": "奉贤区 长丰路176号  " }, "geometry": { "type": "Point", "coordinates": [ 121.549818247208677, 30.879991431916327 ] } },
{ "type": "Feature", "properties": { "addr": "奉贤区 金齐路348弄  " }, "geometry": { "type": "Point", "coordinates": [ 121.500104493167143, 30.958232847131885 ] } },
{ "type": "Feature", "properties": { "addr": "奉贤区 李窑村  " }, "geometry": { "type": "Point", "coordinates": [ 121.59935997574506, 30.92267463657684 ] } },
{ "type": "Feature", "properties": { "addr": "奉贤区 民乐路28弄  " }, "geometry": { "type": "Point", "coordinates": [ 121.480503736431075, 30.923720110285377 ] } },
{ "type": "Feature", "properties": { "addr": "奉贤区 新叶村  " }, "geometry": { "type": "Point", "coordinates": [ 121.382978749587565, 30.964071882859919 ] } },
{ "type": "Feature", "properties": { "addr": "奉贤区 陆家桥村  " }, "geometry": { "type": "Point", "coordinates": [ 121.553631284606894, 30.873937681771345 ] } },
{ "type": "Feature", "properties": { "addr": "奉贤区 高桥村  " }, "geometry": { "type": "Point", "coordinates": [ 121.638074787291899, 30.920796797717358 ] } },
{ "type": "Feature", "properties": { "addr": "奉贤区 陆桥村  " }, "geometry": { "type": "Point", "coordinates": [ 121.623113958175963, 30.946512811517348 ] } },
{ "type": "Feature", "properties": { "addr": "奉贤区 和平村  " }, "geometry": { "type": "Point", "coordinates": [ 121.631384926497986, 30.972621107905894 ] } },
{ "type": "Feature", "properties": { "addr": "奉贤区 城乡东路5弄  " }, "geometry": { "type": "Point", "coordinates": [ 121.480503736431075, 30.923720110285377 ] } },
{ "type": "Feature", "properties": { "addr": "奉贤区 西闸公路1678号  " }, "geometry": { "type": "Point", "coordinates": [ 121.437295600723331, 30.992174613601648 ] } },
{ "type": "Feature", "properties": { "addr": "奉贤区 西校村  " }, "geometry": { "type": "Point", "coordinates": [ 121.409551435047675, 30.941525158164154 ] } },
{ "type": "Feature", "properties": { "addr": "奉贤区 上塑路965弄  " }, "geometry": { "type": "Point", "coordinates": [ 121.589665621406382, 30.923590580524731 ] } },
{ "type": "Feature", "properties": { "addr": "奉贤区 青工路588号  " }, "geometry": { "type": "Point", "coordinates": [ 121.600005138762327, 30.937716217812312 ] } },
{ "type": "Feature", "properties": { "addr": "奉贤区 沪杭公路66弄  " }, "geometry": { "type": "Point", "coordinates": [ 121.435779710175254, 30.997105346562432 ] } },
{ "type": "Feature", "properties": { "addr": "奉贤区 汇安小区  " }, "geometry": { "type": "Point", "coordinates": [ 121.40657696584303, 30.968925742791871 ] } },
{ "type": "Feature", "properties": { "addr": "奉贤区 朱家港东村  " }, "geometry": { "type": "Point", "coordinates": [ 121.72795546373716, 30.953326332223678 ] } },
{ "type": "Feature", "properties": { "addr": "奉贤区 国光村  " }, "geometry": { "type": "Point", "coordinates": [ 121.550157177877608, 30.98205122795375 ] } },
{ "type": "Feature", "properties": { "addr": "奉贤区 五宅村  " }, "geometry": { "type": "Point", "coordinates": [ 121.494202176813843, 30.998508375625288 ] } },
{ "type": "Feature", "properties": { "addr": "奉贤区 蔡家桥村  " }, "geometry": { "type": "Point", "coordinates": [ 121.648020556406735, 30.980413583255384 ] } },
{ "type": "Feature", "properties": { "addr": "奉贤区 农民街505弄  " }, "geometry": { "type": "Point", "coordinates": [ 121.522433666318619, 30.95804916009773 ] } },
{ "type": "Feature", "properties": { "addr": "奉贤区 大叶公路6712弄  " }, "geometry": { "type": "Point", "coordinates": [ 121.437636597494929, 30.970553368514114 ] } },
{ "type": "Feature", "properties": { "addr": "奉贤区 广丰路100弄  " }, "geometry": { "type": "Point", "coordinates": [ 121.503338033680862, 30.964723867944397 ] } },
{ "type": "Feature", "properties": { "addr": "奉贤区 航南公路2880号  " }, "geometry": { "type": "Point", "coordinates": [ 121.530789082268612, 30.967720990646772 ] } },
{ "type": "Feature", "properties": { "addr": "奉贤区 金海公路2898弄  " }, "geometry": { "type": "Point", "coordinates": [ 121.50719562703236, 30.905433615224908 ] } }
]
}
