{
"type": "FeatureCollection",
"crs": { "type": "name", "properties": { "name": "urn:ogc:def:crs:OGC:1.3:CRS84" } },
"features": [
{ "type": "Feature", "properties": { "addr": "奉贤区 解放二村  " }, "geometry": { "type": "Point", "coordinates": [ 121.460157206460636, 30.91911781746558 ] } },
{ "type": "Feature", "properties": { "addr": "奉贤区 九华路908弄  " }, "geometry": { "type": "Point", "coordinates": [ 121.456474423361371, 30.930496473419581 ] } },
{ "type": "Feature", "properties": { "addr": "奉贤区 八字桥路288弄  " }, "geometry": { "type": "Point", "coordinates": [ 121.468520161266866, 30.943778670951339 ] } },
{ "type": "Feature", "properties": { "addr": "奉贤区 嘉园路361弄  " }, "geometry": { "type": "Point", "coordinates": [ 121.500117967749787, 30.965675826217709 ] } },
{ "type": "Feature", "properties": { "addr": "奉贤区 金海公路99弄  " }, "geometry": { "type": "Point", "coordinates": [ 121.519496696628039, 30.855841906998446 ] } },
{ "type": "Feature", "properties": { "addr": "奉贤区 八字桥路829弄  " }, "geometry": { "type": "Point", "coordinates": [ 121.460301204833868, 30.940571175823777 ] } },
{ "type": "Feature", "properties": { "addr": "奉贤区 川南奉公路8029号  " }, "geometry": { "type": "Point", "coordinates": [ 121.722902537282437, 30.943209744910469 ] } },
{ "type": "Feature", "properties": { "addr": "奉贤区 南奉公路142号  " }, "geometry": { "type": "Point", "coordinates": [ 121.642509002950248, 30.91794689739373 ] } },
{ "type": "Feature", "properties": { "addr": "奉贤区 蔡家桥村  " }, "geometry": { "type": "Point", "coordinates": [ 121.648020556406735, 30.980413583255384 ] } },
{ "type": "Feature", "properties": { "addr": "奉贤区 新奉公路2013号  " }, "geometry": { "type": "Point", "coordinates": [ 121.654503986594435, 30.998956520228599 ] } },
{ "type": "Feature", "properties": { "addr": "奉贤区 墩头村  " }, "geometry": { "type": "Point", "coordinates": [ 121.623288858258761, 30.986374696476016 ] } },
{ "type": "Feature", "properties": { "addr": "奉贤区 大宅小区  " }, "geometry": { "type": "Point", "coordinates": [ 121.650780600086136, 30.956563743958007 ] } },
{ "type": "Feature", "properties": { "addr": "奉贤区 八字桥路158弄  " }, "geometry": { "type": "Point", "coordinates": [ 121.472800529287809, 30.943508966711956 ] } },
{ "type": "Feature", "properties": { "addr": "奉贤区 环城东路885弄  " }, "geometry": { "type": "Point", "coordinates": [ 121.477354906126948, 30.934217346194359 ] } },
{ "type": "Feature", "properties": { "addr": "奉贤区 泰青公路119弄  " }, "geometry": { "type": "Point", "coordinates": [ 121.570927528387656, 30.991865046024383 ] } },
{ "type": "Feature", "properties": { "addr": "奉贤区 国顺路369弄  " }, "geometry": { "type": "Point", "coordinates": [ 121.464325613518568, 30.937566688087479 ] } },
{ "type": "Feature", "properties": { "addr": "奉贤区 江海村  " }, "geometry": { "type": "Point", "coordinates": [ 121.43911395073664, 30.89622121894309 ] } },
{ "type": "Feature", "properties": { "addr": "奉贤区 明星村  " }, "geometry": { "type": "Point", "coordinates": [ 121.547546612235067, 30.990383364157328 ] } },
{ "type": "Feature", "properties": { "addr": "奉贤区 肖塘路146弄  " }, "geometry": { "type": "Point", "coordinates": [ 121.443720730883456, 30.96905122563496 ] } },
{ "type": "Feature", "properties": { "addr": "奉贤区 大叶公路6288弄  " }, "geometry": { "type": "Point", "coordinates": [ 121.560759248998025, 30.981951149620905 ] } },
{ "type": "Feature", "properties": { "addr": "奉贤区 富竹路39弄  " }, "geometry": { "type": "Point", "coordinates": [ 121.46829486624496, 30.935382566968421 ] } },
{ "type": "Feature", "properties": { "addr": "奉贤区 八字桥路218弄  " }, "geometry": { "type": "Point", "coordinates": [ 121.432160796597756, 30.93275845748397 ] } },
{ "type": "Feature", "properties": { "addr": "奉贤区 港极路568号  " }, "geometry": { "type": "Point", "coordinates": [ 121.728364821558046, 30.904583380184707 ] } },
{ "type": "Feature", "properties": { "addr": "奉贤区 育秀路209号  " }, "geometry": { "type": "Point", "coordinates": [ 121.472434437696037, 30.914824424740942 ] } },
{ "type": "Feature", "properties": { "addr": "奉贤区 航南公路5388弄  " }, "geometry": { "type": "Point", "coordinates": [ 121.470794311495922, 30.939800704170459 ] } },
{ "type": "Feature", "properties": { "addr": "奉贤区 贤百路260弄  " }, "geometry": { "type": "Point", "coordinates": [ 121.52120200654393, 30.958838575884311 ] } },
{ "type": "Feature", "properties": { "addr": "奉贤区 肖南路1268号  " }, "geometry": { "type": "Point", "coordinates": [ 121.452043980586168, 30.937566842960443 ] } },
{ "type": "Feature", "properties": { "addr": "奉贤区 泰叶路159弄  " }, "geometry": { "type": "Point", "coordinates": [ 121.567865654056902, 30.982792175839457 ] } },
{ "type": "Feature", "properties": { "addr": "奉贤区 环城西路3311号  " }, "geometry": { "type": "Point", "coordinates": [ 121.438886409950953, 30.964531725573881 ] } },
{ "type": "Feature", "properties": { "addr": "奉贤区 周家村  " }, "geometry": { "type": "Point", "coordinates": [ 121.605390749786309, 30.993286107625714 ] } },
{ "type": "Feature", "properties": { "addr": "奉贤区 西门港一村  " }, "geometry": { "type": "Point", "coordinates": [ 121.647284215380196, 30.91826313553522 ] } },
{ "type": "Feature", "properties": { "addr": "奉贤区 工农村  " }, "geometry": { "type": "Point", "coordinates": [ 121.543057420279496, 30.91796246535046 ] } },
{ "type": "Feature", "properties": { "addr": "奉贤区 汇安小区  " }, "geometry": { "type": "Point", "coordinates": [ 121.40657696584303, 30.968925742791871 ] } },
{ "type": "Feature", "properties": { "addr": "奉贤区 万顺路2475弄  " }, "geometry": { "type": "Point", "coordinates": [ 121.521987844204062, 30.971779681528744 ] } },
{ "type": "Feature", "properties": { "addr": "奉贤区 湾张村  " }, "geometry": { "type": "Point", "coordinates": [ 121.536684032516746, 30.926285379228656 ] } },
{ "type": "Feature", "properties": { "addr": "奉贤区 联民村  " }, "geometry": { "type": "Point", "coordinates": [ 121.686282532145967, 30.889258708643801 ] } },
{ "type": "Feature", "properties": { "addr": "奉贤区 朱店村  " }, "geometry": { "type": "Point", "coordinates": [ 121.553095804692404, 30.932788581800068 ] } },
{ "type": "Feature", "properties": { "addr": "奉贤区 西吴村  " }, "geometry": { "type": "Point", "coordinates": [ 121.587532975231241, 30.946815636476845 ] } },
{ "type": "Feature", "properties": { "addr": "奉贤区 沈陆村  " }, "geometry": { "type": "Point", "coordinates": [ 121.459975209764309, 30.900885822545451 ] } },
{ "type": "Feature", "properties": { "addr": "奉贤区 德政路299弄  " }, "geometry": { "type": "Point", "coordinates": [ 121.491512290794745, 30.927216969071399 ] } },
{ "type": "Feature", "properties": { "addr": "奉贤区 青村人民路445弄  " }, "geometry": { "type": "Point", "coordinates": [ 121.586984290225757, 30.933720804612381 ] } },
{ "type": "Feature", "properties": { "addr": "奉贤区 振泰路76弄  " }, "geometry": { "type": "Point", "coordinates": [ 121.569958032166028, 30.987097886788316 ] } },
{ "type": "Feature", "properties": { "addr": "奉贤区 梅园村  " }, "geometry": { "type": "Point", "coordinates": [ 121.603550750610225, 30.996276133429198 ] } },
{ "type": "Feature", "properties": { "addr": "奉贤区 吴塘路799弄  " }, "geometry": { "type": "Point", "coordinates": [ 121.444549507546952, 30.965441263102743 ] } },
{ "type": "Feature", "properties": { "addr": "奉贤区 东门村  " }, "geometry": { "type": "Point", "coordinates": [ 121.666240797235048, 30.920937602070808 ] } },
{ "type": "Feature", "properties": { "addr": "奉贤区 国顺路318弄  " }, "geometry": { "type": "Point", "coordinates": [ 121.467579365906275, 30.939538045465643 ] } },
{ "type": "Feature", "properties": { "addr": "奉贤区 北唐新苑  " }, "geometry": { "type": "Point", "coordinates": [ 121.582073523494358, 30.934846537767111 ] } },
{ "type": "Feature", "properties": { "addr": "奉贤区 集贤村  " }, "geometry": { "type": "Point", "coordinates": [ 121.70410132024189, 30.921614900614706 ] } },
{ "type": "Feature", "properties": { "addr": "奉贤区 育秀路1288弄  " }, "geometry": { "type": "Point", "coordinates": [ 121.454930505681375, 30.912188049483483 ] } },
{ "type": "Feature", "properties": { "addr": "奉贤区 姚家村  " }, "geometry": { "type": "Point", "coordinates": [ 121.585977738901832, 30.923133983473207 ] } },
{ "type": "Feature", "properties": { "addr": "奉贤区 沪杭公路113号  " }, "geometry": { "type": "Point", "coordinates": [ 121.437966686271025, 30.998793765834357 ] } },
{ "type": "Feature", "properties": { "addr": "奉贤区 清宁路359弄  " }, "geometry": { "type": "Point", "coordinates": [ 121.520811063985988, 30.947524495510873 ] } },
{ "type": "Feature", "properties": { "addr": "奉贤区 吴塘路527弄  " }, "geometry": { "type": "Point", "coordinates": [ 121.452125816218114, 30.966947179140909 ] } },
{ "type": "Feature", "properties": { "addr": "奉贤区 陆家桥村  " }, "geometry": { "type": "Point", "coordinates": [ 121.553631284606894, 30.873937681771345 ] } },
{ "type": "Feature", "properties": { "addr": "奉贤区 江海二村  " }, "geometry": { "type": "Point", "coordinates": [ 121.462528104193112, 30.906437294858701 ] } },
{ "type": "Feature", "properties": { "addr": "奉贤区 万顺路2088弄  " }, "geometry": { "type": "Point", "coordinates": [ 121.524089879097403, 30.965122318263607 ] } },
{ "type": "Feature", "properties": { "addr": "奉贤区 永欣新村  " }, "geometry": { "type": "Point", "coordinates": [ 121.456703717612442, 30.919545344643609 ] } },
{ "type": "Feature", "properties": { "addr": "奉贤区 闸园路136号  " }, "geometry": { "type": "Point", "coordinates": [ 121.439177999919508, 30.999156099052232 ] } },
{ "type": "Feature", "properties": { "addr": "奉贤区 正环路158弄  " }, "geometry": { "type": "Point", "coordinates": [ 121.486441895174238, 30.918019702741514 ] } },
{ "type": "Feature", "properties": { "addr": "奉贤区 育秀九区  " }, "geometry": { "type": "Point", "coordinates": [ 121.476641909491477, 30.915331529920682 ] } },
{ "type": "Feature", "properties": { "addr": "奉贤区 灯塔村  " }, "geometry": { "type": "Point", "coordinates": [ 121.431253687693783, 30.99071050479623 ] } },
{ "type": "Feature", "properties": { "addr": "奉贤区 清宁路488弄  " }, "geometry": { "type": "Point", "coordinates": [ 121.52805257419358, 30.945685477327388 ] } },
{ "type": "Feature", "properties": { "addr": "奉贤区 北宋村  " }, "geometry": { "type": "Point", "coordinates": [ 121.679017935486769, 30.983282500112978 ] } },
{ "type": "Feature", "properties": { "addr": "奉贤区 定康路205弄  " }, "geometry": { "type": "Point", "coordinates": [ 121.511217161139427, 30.928970848528166 ] } },
{ "type": "Feature", "properties": { "addr": "奉贤区 永南路1688号  " }, "geometry": { "type": "Point", "coordinates": [ 121.521732006794807, 31.011926873470607 ] } },
{ "type": "Feature", "properties": { "addr": "奉贤区 南渡村  " }, "geometry": { "type": "Point", "coordinates": [ 121.457826955507372, 31.005599100715568 ] } },
{ "type": "Feature", "properties": { "addr": "奉贤区 解放村  " }, "geometry": { "type": "Point", "coordinates": [ 121.459841991057175, 30.918963843619391 ] } },
{ "type": "Feature", "properties": { "addr": "奉贤区 航南公路1981弄  " }, "geometry": { "type": "Point", "coordinates": [ 121.561261761100297, 30.990216581588093 ] } },
{ "type": "Feature", "properties": { "addr": "奉贤区 金碧路1980弄  " }, "geometry": { "type": "Point", "coordinates": [ 121.512796472056522, 30.980284787232577 ] } },
{ "type": "Feature", "properties": { "addr": "奉贤区 北唐村  " }, "geometry": { "type": "Point", "coordinates": [ 121.581860804749596, 30.934365719623909 ] } },
{ "type": "Feature", "properties": { "addr": "奉贤区 西闸公路1827号  " }, "geometry": { "type": "Point", "coordinates": [ 121.436663103813757, 30.992448347886548 ] } },
{ "type": "Feature", "properties": { "addr": "奉贤区 鸿乐路155弄  " }, "geometry": { "type": "Point", "coordinates": [ 121.437559163559968, 30.994008393728954 ] } },
{ "type": "Feature", "properties": { "addr": "奉贤区 扶港路629弄  " }, "geometry": { "type": "Point", "coordinates": [ 121.450976883470844, 30.993820799540817 ] } },
{ "type": "Feature", "properties": { "addr": "奉贤区 西闸公路1678号  " }, "geometry": { "type": "Point", "coordinates": [ 121.437295600723331, 30.992174613601648 ] } },
{ "type": "Feature", "properties": { "addr": "奉贤区 北行路555号  " }, "geometry": { "type": "Point", "coordinates": [ 121.514275809736759, 30.976653650850395 ] } },
{ "type": "Feature", "properties": { "addr": "奉贤区 立新路136弄  " }, "geometry": { "type": "Point", "coordinates": [ 121.466901953721219, 30.920326906206636 ] } },
{ "type": "Feature", "properties": { "addr": "奉贤区 二桥村  " }, "geometry": { "type": "Point", "coordinates": [ 121.66048948603796, 30.964795553515252 ] } },
{ "type": "Feature", "properties": { "addr": "奉贤区 育秀六区  " }, "geometry": { "type": "Point", "coordinates": [ 121.470040273850856, 30.912509728838248 ] } },
{ "type": "Feature", "properties": { "addr": "奉贤区 航南公路2880号  " }, "geometry": { "type": "Point", "coordinates": [ 121.530789082268612, 30.967720990646772 ] } },
{ "type": "Feature", "properties": { "addr": "奉贤区 张弄村  " }, "geometry": { "type": "Point", "coordinates": [ 121.528976391580045, 30.91331551030121 ] } },
{ "type": "Feature", "properties": { "addr": "奉贤区 夏家村  " }, "geometry": { "type": "Point", "coordinates": [ 121.730899300723905, 30.971624322591893 ] } },
{ "type": "Feature", "properties": { "addr": "奉贤区 镇西路1058号  " }, "geometry": { "type": "Point", "coordinates": [ 121.279242698786959, 30.936395454080305 ] } },
{ "type": "Feature", "properties": { "addr": "奉贤区 百富路388弄  " }, "geometry": { "type": "Point", "coordinates": [ 121.49872658234537, 30.917737775338903 ] } },
{ "type": "Feature", "properties": { "addr": "奉贤区 沪杭公路66弄  " }, "geometry": { "type": "Point", "coordinates": [ 121.435779710175254, 30.997105346562432 ] } },
{ "type": "Feature", "properties": { "addr": "奉贤区 陶宅村  " }, "geometry": { "type": "Point", "coordinates": [ 121.558590380174721, 30.954423495460489 ] } },
{ "type": "Feature", "properties": { "addr": "奉贤区 国顺路668弄  " }, "geometry": { "type": "Point", "coordinates": [ 121.459997308079849, 30.937107256336372 ] } },
{ "type": "Feature", "properties": { "addr": "奉贤区 运河北路1351弄  " }, "geometry": { "type": "Point", "coordinates": [ 121.445689277578026, 30.924687893128159 ] } },
{ "type": "Feature", "properties": { "addr": "奉贤区 六墩村  " }, "geometry": { "type": "Point", "coordinates": [ 121.479480027471908, 30.9042318503855 ] } },
{ "type": "Feature", "properties": { "addr": "奉贤区 曙光村  " }, "geometry": { "type": "Point", "coordinates": [ 121.497491142777506, 30.909940756045394 ] } }
]
}
