{
"type": "FeatureCollection",
"crs": { "type": "name", "properties": { "name": "urn:ogc:def:crs:OGC:1.3:CRS84" } },
"features": [
{ "type": "Feature", "properties": { "addr": "奉贤区 邮电路188号  " }, "geometry": { "type": "Point", "coordinates": [ 121.647345659477068, 30.913169117754325 ] } },
{ "type": "Feature", "properties": { "addr": "奉贤区 南渡村  " }, "geometry": { "type": "Point", "coordinates": [ 121.457826955507372, 31.005599100715568 ] } },
{ "type": "Feature", "properties": { "addr": "奉贤区 海光路168弄  " }, "geometry": { "type": "Point", "coordinates": [ 121.574403431727958, 30.869316853102269 ] } },
{ "type": "Feature", "properties": { "addr": "奉贤区 张弄村  " }, "geometry": { "type": "Point", "coordinates": [ 121.528976391580045, 30.91331551030121 ] } },
{ "type": "Feature", "properties": { "addr": "奉贤区 八字桥路158弄  " }, "geometry": { "type": "Point", "coordinates": [ 121.472800529287809, 30.943508966711956 ] } },
{ "type": "Feature", "properties": { "addr": "奉贤区 扶港路388弄  " }, "geometry": { "type": "Point", "coordinates": [ 121.448239477090297, 30.997622295162245 ] } },
{ "type": "Feature", "properties": { "addr": "奉贤区 大叶公路6288弄  " }, "geometry": { "type": "Point", "coordinates": [ 121.560759248998025, 30.981951149620905 ] } },
{ "type": "Feature", "properties": { "addr": "奉贤区 大门村  " }, "geometry": { "type": "Point", "coordinates": [ 121.617125314663141, 30.899777348279365 ] } },
{ "type": "Feature", "properties": { "addr": "奉贤区 湖堤路199弄  " }, "geometry": { "type": "Point", "coordinates": [ 121.498941007870613, 30.940014810741648 ] } },
{ "type": "Feature", "properties": { "addr": "奉贤区 八字桥路599弄  " }, "geometry": { "type": "Point", "coordinates": [ 121.46757864726186, 30.942127431997939 ] } },
{ "type": "Feature", "properties": { "addr": "奉贤区 韩村路173弄  " }, "geometry": { "type": "Point", "coordinates": [ 121.468880022454158, 30.946463721417285 ] } },
{ "type": "Feature", "properties": { "addr": "奉贤区 东新市村  " }, "geometry": { "type": "Point", "coordinates": [ 121.658072774724474, 30.983281571324341 ] } },
{ "type": "Feature", "properties": { "addr": "奉贤区 扶港路629弄  " }, "geometry": { "type": "Point", "coordinates": [ 121.450976883470844, 30.993820799540817 ] } },
{ "type": "Feature", "properties": { "addr": "奉贤区 北宋村  " }, "geometry": { "type": "Point", "coordinates": [ 121.679017935486769, 30.983282500112978 ] } },
{ "type": "Feature", "properties": { "addr": "奉贤区 清宁路488弄  " }, "geometry": { "type": "Point", "coordinates": [ 121.52805257419358, 30.945685477327388 ] } },
{ "type": "Feature", "properties": { "addr": "奉贤区 朱店村  " }, "geometry": { "type": "Point", "coordinates": [ 121.553095804692404, 30.932788581800068 ] } },
{ "type": "Feature", "properties": { "addr": "奉贤区 洪西村  " }, "geometry": { "type": "Point", "coordinates": [ 121.677748539970636, 30.93318724408304 ] } },
{ "type": "Feature", "properties": { "addr": "奉贤区 吴塘路527弄  " }, "geometry": { "type": "Point", "coordinates": [ 121.452125816218114, 30.966947179140909 ] } },
{ "type": "Feature", "properties": { "addr": "奉贤区 沪杭公路303弄  " }, "geometry": { "type": "Point", "coordinates": [ 121.421953440918415, 31.008759528445516 ] } },
{ "type": "Feature", "properties": { "addr": "奉贤区 万顺路2088弄  " }, "geometry": { "type": "Point", "coordinates": [ 121.524089879097403, 30.965122318263607 ] } },
{ "type": "Feature", "properties": { "addr": "奉贤区 四团东海路106号    " }, "geometry": { "type": "Point", "coordinates": [ 121.763841331571953, 30.910947098979626 ] } },
{ "type": "Feature", "properties": { "addr": "奉贤区 解放西路538号  " }, "geometry": { "type": "Point", "coordinates": [ 121.448555051815958, 30.91689988834182 ] } },
{ "type": "Feature", "properties": { "addr": "奉贤区 南陈村  " }, "geometry": { "type": "Point", "coordinates": [ 121.554163440791001, 30.974136662793573 ] } },
{ "type": "Feature", "properties": { "addr": "奉贤区 沪杭公路66弄  " }, "geometry": { "type": "Point", "coordinates": [ 121.435779710175254, 30.997105346562432 ] } },
{ "type": "Feature", "properties": { "addr": "奉贤区 浦秀村  " }, "geometry": { "type": "Point", "coordinates": [ 121.417502067624838, 30.985957915297785 ] } },
{ "type": "Feature", "properties": { "addr": "奉贤区 明星村  " }, "geometry": { "type": "Point", "coordinates": [ 121.547546612235067, 30.990383364157328 ] } },
{ "type": "Feature", "properties": { "addr": "奉贤区 红庄村  " }, "geometry": { "type": "Point", "coordinates": [ 121.73214965216323, 30.903602455409832 ] } },
{ "type": "Feature", "properties": { "addr": "奉贤区 平海村  " }, "geometry": { "type": "Point", "coordinates": [ 121.746596021713586, 30.889908264998759 ] } },
{ "type": "Feature", "properties": { "addr": "奉贤区 育秀九区  " }, "geometry": { "type": "Point", "coordinates": [ 121.476641909491477, 30.915331529920682 ] } },
{ "type": "Feature", "properties": { "addr": "奉贤区 泰叶路159弄  " }, "geometry": { "type": "Point", "coordinates": [ 121.567865654056902, 30.982792175839457 ] } },
{ "type": "Feature", "properties": { "addr": "奉贤区 环城东路562号  " }, "geometry": { "type": "Point", "coordinates": [ 121.467211599630474, 30.944466801276619 ] } },
{ "type": "Feature", "properties": { "addr": "奉贤区 正旭路1058号  " }, "geometry": { "type": "Point", "coordinates": [ 121.755038925710238, 30.887993207614006 ] } },
{ "type": "Feature", "properties": { "addr": "奉贤区 南街村  " }, "geometry": { "type": "Point", "coordinates": [ 121.651424685136789, 30.917133100192501 ] } },
{ "type": "Feature", "properties": { "addr": "奉贤区 金汇村  " }, "geometry": { "type": "Point", "coordinates": [ 121.506375294440645, 30.98968411368843 ] } },
{ "type": "Feature", "properties": { "addr": "奉贤区 沪杭公路397弄  " }, "geometry": { "type": "Point", "coordinates": [ 121.440852203603356, 30.991726004327326 ] } },
{ "type": "Feature", "properties": { "addr": "奉贤区 国顺路369弄  " }, "geometry": { "type": "Point", "coordinates": [ 121.464325613518568, 30.937566688087479 ] } },
{ "type": "Feature", "properties": { "addr": "奉贤区 环城东路885弄  " }, "geometry": { "type": "Point", "coordinates": [ 121.477354906126948, 30.934217346194359 ] } },
{ "type": "Feature", "properties": { "addr": "奉贤区 泰青公路119弄128支弄  " }, "geometry": { "type": "Point", "coordinates": [ 121.570927528387656, 30.991865046024383 ] } },
{ "type": "Feature", "properties": { "addr": "奉贤区 发展村  " }, "geometry": { "type": "Point", "coordinates": [ 121.438458726697661, 30.971154141573003 ] } },
{ "type": "Feature", "properties": { "addr": "奉贤区 冯家村  " }, "geometry": { "type": "Point", "coordinates": [ 121.647386173055565, 30.96126439394536 ] } },
{ "type": "Feature", "properties": { "addr": "奉贤区 西闸公路1678弄  " }, "geometry": { "type": "Point", "coordinates": [ 121.437326322771781, 30.992128333313353 ] } },
{ "type": "Feature", "properties": { "addr": "奉贤区 新四平公路468弄  " }, "geometry": { "type": "Point", "coordinates": [ 121.746766789591049, 30.898106672029094 ] } },
{ "type": "Feature", "properties": { "addr": "奉贤区 青伟路111号  " }, "geometry": { "type": "Point", "coordinates": [ 121.61133304073482, 30.940485843493274 ] } },
{ "type": "Feature", "properties": { "addr": "奉贤区 沪杭公路967弄  " }, "geometry": { "type": "Point", "coordinates": [ 121.450178918686333, 30.970242336714971 ] } },
{ "type": "Feature", "properties": { "addr": "奉贤区 高桥村  " }, "geometry": { "type": "Point", "coordinates": [ 121.638074787291899, 30.920796797717358 ] } },
{ "type": "Feature", "properties": { "addr": "奉贤区 金齐路348弄  " }, "geometry": { "type": "Point", "coordinates": [ 121.500104493167143, 30.958232847131885 ] } },
{ "type": "Feature", "properties": { "addr": "奉贤区 奉城村北街52弄  " }, "geometry": { "type": "Point", "coordinates": [ 121.653075950325231, 30.923846814811782 ] } },
{ "type": "Feature", "properties": { "addr": "奉贤区 肖南路68弄  " }, "geometry": { "type": "Point", "coordinates": [ 121.444243993843017, 30.96523487804571 ] } },
{ "type": "Feature", "properties": { "addr": "奉贤区 金碧路1980弄  " }, "geometry": { "type": "Point", "coordinates": [ 121.512796472056522, 30.980284787232577 ] } },
{ "type": "Feature", "properties": { "addr": "奉贤区 肖塘路146弄  " }, "geometry": { "type": "Point", "coordinates": [ 121.443720730883456, 30.96905122563496 ] } },
{ "type": "Feature", "properties": { "addr": "奉贤区 港极路568弄  " }, "geometry": { "type": "Point", "coordinates": [ 121.728954559125341, 30.903259830394081 ] } },
{ "type": "Feature", "properties": { "addr": "奉贤区 汇安村  " }, "geometry": { "type": "Point", "coordinates": [ 121.407059535562993, 30.962106455831396 ] } },
{ "type": "Feature", "properties": { "addr": "奉贤区 湖堤路399弄  " }, "geometry": { "type": "Point", "coordinates": [ 121.506168836538137, 30.945709295660958 ] } },
{ "type": "Feature", "properties": { "addr": "奉贤区 江海村  " }, "geometry": { "type": "Point", "coordinates": [ 121.43911395073664, 30.89622121894309 ] } },
{ "type": "Feature", "properties": { "addr": "奉贤区 西闸公路1827号  " }, "geometry": { "type": "Point", "coordinates": [ 121.436663103813757, 30.992448347886548 ] } },
{ "type": "Feature", "properties": { "addr": "奉贤区 奉浦大道95弄  " }, "geometry": { "type": "Point", "coordinates": [ 121.467578467600745, 30.948958689632065 ] } },
{ "type": "Feature", "properties": { "addr": "奉贤区 清宁路359弄  " }, "geometry": { "type": "Point", "coordinates": [ 121.520811063985988, 30.947524495510873 ] } },
{ "type": "Feature", "properties": { "addr": "奉贤区 博丰路158弄  " }, "geometry": { "type": "Point", "coordinates": [ 121.497783271729347, 30.969483795688909 ] } },
{ "type": "Feature", "properties": { "addr": "奉贤区 新寺村  " }, "geometry": { "type": "Point", "coordinates": [ 121.465198496982623, 30.868475050909286 ] } },
{ "type": "Feature", "properties": { "addr": "奉贤区 新粮路755弄  " }, "geometry": { "type": "Point", "coordinates": [ 121.470898155612886, 30.871721872520766 ] } },
{ "type": "Feature", "properties": { "addr": "奉贤区 明城路1088弄  " }, "geometry": { "type": "Point", "coordinates": [ 121.566032122680468, 30.869346997588035 ] } },
{ "type": "Feature", "properties": { "addr": "奉贤区 卫季村  " }, "geometry": { "type": "Point", "coordinates": [ 121.612328632731533, 30.910018679840942 ] } },
{ "type": "Feature", "properties": { "addr": "奉贤区 金港村  " }, "geometry": { "type": "Point", "coordinates": [ 121.4616617783593, 30.986046921646249 ] } },
{ "type": "Feature", "properties": { "addr": "奉贤区 星中路131号  " }, "geometry": { "type": "Point", "coordinates": [ 121.575037186265263, 30.866305843436731 ] } },
{ "type": "Feature", "properties": { "addr": "奉贤区 望园路1526号  " }, "geometry": { "type": "Point", "coordinates": [ 121.481231723216354, 30.961925069042152 ] } },
{ "type": "Feature", "properties": { "addr": "奉贤区 永南路1688号  " }, "geometry": { "type": "Point", "coordinates": [ 121.521732006794807, 31.011926873470607 ] } },
{ "type": "Feature", "properties": { "addr": "奉贤区 庄北路  " }, "geometry": { "type": "Point", "coordinates": [ 121.397685897227461, 30.913760573237028 ] } },
{ "type": "Feature", "properties": { "addr": "奉贤区 鸿乐路155弄  " }, "geometry": { "type": "Point", "coordinates": [ 121.437559163559968, 30.994008393728954 ] } },
{ "type": "Feature", "properties": { "addr": "奉贤区 大宅小区  " }, "geometry": { "type": "Point", "coordinates": [ 121.650780600086136, 30.956563743958007 ] } },
{ "type": "Feature", "properties": { "addr": "奉贤区 星火19连  " }, "geometry": { "type": "Point", "coordinates": [ 121.576422014039437, 30.866188826334209 ] } },
{ "type": "Feature", "properties": { "addr": "奉贤区 蔡家桥村  " }, "geometry": { "type": "Point", "coordinates": [ 121.648020556406735, 30.980413583255384 ] } },
{ "type": "Feature", "properties": { "addr": "奉贤区 新叶村  " }, "geometry": { "type": "Point", "coordinates": [ 121.382978749587565, 30.964071882859919 ] } }
]
}
