{
"type": "FeatureCollection",
"crs": { "type": "name", "properties": { "name": "urn:ogc:def:crs:OGC:1.3:CRS84" } },
"features": [
{ "type": "Feature", "properties": { "addr": "上海市 浦东新区 光明村  " }, "geometry": { "type": "Point", "coordinates": [ 121.664900525414168, 31.296640292704971 ] } },
{ "type": "Feature", "properties": { "addr": "上海市 浦东新区 通济路328弄  " }, "geometry": { "type": "Point", "coordinates": [ 121.752532473676297, 31.05774885424886 ] } },
{ "type": "Feature", "properties": { "addr": "上海市 浦东新区 工农南路201弄  " }, "geometry": { "type": "Point", "coordinates": [ 121.774859587635135, 31.060910455271795 ] } },
{ "type": "Feature", "properties": { "addr": "上海市 浦东新区 佳乐路225弄  " }, "geometry": { "type": "Point", "coordinates": [ 121.58962611690005, 31.28158489894264 ] } },
{ "type": "Feature", "properties": { "addr": "上海市 浦东新区 松林路333弄  " }, "geometry": { "type": "Point", "coordinates": [ 121.540645649646308, 31.232864650767048 ] } },
{ "type": "Feature", "properties": { "addr": "上海市 浦东新区 五莲路1047弄  " }, "geometry": { "type": "Point", "coordinates": [ 121.601390415689281, 31.277745809783077 ] } },
{ "type": "Feature", "properties": { "addr": "上海市 浦东新区 微山二村  " }, "geometry": { "type": "Point", "coordinates": [ 121.519896858468485, 31.214418673428547 ] } },
{ "type": "Feature", "properties": { "addr": "上海市 浦东新区 环龙路263弄  " }, "geometry": { "type": "Point", "coordinates": [ 121.532363272844307, 31.208913890879952 ] } },
{ "type": "Feature", "properties": { "addr": "上海市 浦东新区 张杨路1050弄  " }, "geometry": { "type": "Point", "coordinates": [ 121.537039761498704, 31.236817818967825 ] } },
{ "type": "Feature", "properties": { "addr": "上海市 浦东新区 羽山路1445弄  " }, "geometry": { "type": "Point", "coordinates": [ 121.567132277438546, 31.246777885619089 ] } },
{ "type": "Feature", "properties": { "addr": "上海市 浦东新区 北洋泾路601号  " }, "geometry": { "type": "Point", "coordinates": [ 121.55725531852579, 31.249575627614259 ] } },
{ "type": "Feature", "properties": { "addr": "上海市 浦东新区 陈春东路99弄  " }, "geometry": { "type": "Point", "coordinates": [ 121.565897017531782, 31.181856496573577 ] } },
{ "type": "Feature", "properties": { "addr": "上海市 浦东新区 下南路370弄  " }, "geometry": { "type": "Point", "coordinates": [ 121.536884264814915, 31.189702255537771 ] } },
{ "type": "Feature", "properties": { "addr": "上海市 浦东新区 沪南路2518弄  " }, "geometry": { "type": "Point", "coordinates": [ 121.536884264814915, 31.189702255537771 ] } },
{ "type": "Feature", "properties": { "addr": "上海市 浦东新区 浦电路328号  " }, "geometry": { "type": "Point", "coordinates": [ 121.533476273371164, 31.226282793962028 ] } },
{ "type": "Feature", "properties": { "addr": "上海市 浦东新区 御衡路68弄  " }, "geometry": { "type": "Point", "coordinates": [ 121.588337407815445, 31.159592610343985 ] } },
{ "type": "Feature", "properties": { "addr": "上海市 浦东新区 浦三路741弄  " }, "geometry": { "type": "Point", "coordinates": [ 121.526881722791856, 31.19210877143124 ] } },
{ "type": "Feature", "properties": { "addr": "上海市 浦东新区 下南路551弄  " }, "geometry": { "type": "Point", "coordinates": [ 121.546799042389651, 31.179016875274282 ] } },
{ "type": "Feature", "properties": { "addr": "上海市 浦东新区 浦东南路1700弄  " }, "geometry": { "type": "Point", "coordinates": [ 121.525060767692594, 31.223784977741762 ] } },
{ "type": "Feature", "properties": { "addr": "上海市 浦东新区 东明路560号  " }, "geometry": { "type": "Point", "coordinates": [ 121.516129454990192, 31.185246551145298 ] } },
{ "type": "Feature", "properties": { "addr": "上海市 浦东新区 浦电路29弄  " }, "geometry": { "type": "Point", "coordinates": [ 121.521798301741455, 31.221982772166619 ] } },
{ "type": "Feature", "properties": { "addr": "上海市 浦东新区 成山路300弄  " }, "geometry": { "type": "Point", "coordinates": [ 121.507887861258354, 31.176840044371215 ] } },
{ "type": "Feature", "properties": { "addr": "上海市 浦东新区 东建新村  " }, "geometry": { "type": "Point", "coordinates": [ 121.526861421087332, 31.222713416923376 ] } },
{ "type": "Feature", "properties": { "addr": "上海市 浦东新区 齐河路438弄  " }, "geometry": { "type": "Point", "coordinates": [ 121.514954830705335, 31.185495627621506 ] } },
{ "type": "Feature", "properties": { "addr": "上海市 浦东新区 五莲路108弄  " }, "geometry": { "type": "Point", "coordinates": [ 121.588773624971083, 31.277157873113886 ] } },
{ "type": "Feature", "properties": { "addr": "上海市 浦东新区 昌里东路80弄  " }, "geometry": { "type": "Point", "coordinates": [ 121.512747873728429, 31.180374404948385 ] } },
{ "type": "Feature", "properties": { "addr": "上海市 浦东新区 峨山路500弄  " }, "geometry": { "type": "Point", "coordinates": [ 121.530728716138341, 31.219497888809606 ] } },
{ "type": "Feature", "properties": { "addr": "上海市 浦东新区 下南路339弄  " }, "geometry": { "type": "Point", "coordinates": [ 121.550641274716938, 31.176791074170239 ] } },
{ "type": "Feature", "properties": { "addr": "上海市 浦东新区 上南路3300号  " }, "geometry": { "type": "Point", "coordinates": [ 121.505045802285878, 31.164360930441298 ] } },
{ "type": "Feature", "properties": { "addr": "上海市 浦东新区 下南路320弄  " }, "geometry": { "type": "Point", "coordinates": [ 121.547891741211998, 31.175548813657176 ] } },
{ "type": "Feature", "properties": { "addr": "上海市 浦东新区 云台路183弄  " }, "geometry": { "type": "Point", "coordinates": [ 121.510618530347571, 31.18339896227592 ] } },
{ "type": "Feature", "properties": { "addr": "上海市 浦东新区 下南路500弄  " }, "geometry": { "type": "Point", "coordinates": [ 121.543720818898606, 31.177967587760506 ] } },
{ "type": "Feature", "properties": { "addr": "上海市 浦东新区 德州路230弄  " }, "geometry": { "type": "Point", "coordinates": [ 121.497516205501242, 31.171941661770408 ] } },
{ "type": "Feature", "properties": { "addr": "上海市 浦东新区 杨莲路311弄  " }, "geometry": { "type": "Point", "coordinates": [ 121.536884264814915, 31.189702255537771 ] } },
{ "type": "Feature", "properties": { "addr": "上海市 浦东新区 新浦路673弄  " }, "geometry": { "type": "Point", "coordinates": [ 121.536884264814915, 31.189702255537771 ] } },
{ "type": "Feature", "properties": { "addr": "上海市 浦东新区 崂山路644弄  " }, "geometry": { "type": "Point", "coordinates": [ 121.531738321701013, 31.228772746593648 ] } },
{ "type": "Feature", "properties": { "addr": "上海市 浦东新区 浦电路53弄  " }, "geometry": { "type": "Point", "coordinates": [ 121.52290115141605, 31.222145824407239 ] } },
{ "type": "Feature", "properties": { "addr": "上海市 浦东新区 昌里东路71弄  " }, "geometry": { "type": "Point", "coordinates": [ 121.510706923609746, 31.182664380728731 ] } },
{ "type": "Feature", "properties": { "addr": "上海市 浦东新区 下南路276弄  " }, "geometry": { "type": "Point", "coordinates": [ 121.536884264814915, 31.189702255537771 ] } },
{ "type": "Feature", "properties": { "addr": "上海市 浦东新区 博华路999弄  " }, "geometry": { "type": "Point", "coordinates": [ 121.557113925238525, 31.176806290465709 ] } },
{ "type": "Feature", "properties": { "addr": "上海市 浦东新区 东明路355弄  " }, "geometry": { "type": "Point", "coordinates": [ 121.516695117969832, 31.189455661589559 ] } },
{ "type": "Feature", "properties": { "addr": "上海市 浦东新区 下南路526弄  " }, "geometry": { "type": "Point", "coordinates": [ 121.544402003966823, 31.17804189176027 ] } },
{ "type": "Feature", "properties": { "addr": "上海市 浦东新区 蓝村路471弄  " }, "geometry": { "type": "Point", "coordinates": [ 121.533601586989803, 31.217902204702717 ] } },
{ "type": "Feature", "properties": { "addr": "上海市 浦东新区 德州路255弄  " }, "geometry": { "type": "Point", "coordinates": [ 121.497632266573135, 31.176228764666757 ] } },
{ "type": "Feature", "properties": { "addr": "上海市 浦东新区 下南路50弄  " }, "geometry": { "type": "Point", "coordinates": [ 121.536884264814915, 31.189702255537771 ] } },
{ "type": "Feature", "properties": { "addr": "上海市 浦东新区 洪山路237弄  " }, "geometry": { "type": "Point", "coordinates": [ 121.50688247773158, 31.178985516539065 ] } },
{ "type": "Feature", "properties": { "addr": "上海市 浦东新区 板泉路2101弄  " }, "geometry": { "type": "Point", "coordinates": [ 121.539604693221335, 31.168815850763366 ] } },
{ "type": "Feature", "properties": { "addr": "上海市 浦东新区 上南路929弄  " }, "geometry": { "type": "Point", "coordinates": [ 121.50767882556616, 31.186093717393579 ] } },
{ "type": "Feature", "properties": { "addr": "上海市 浦东新区 昌里路80弄  " }, "geometry": { "type": "Point", "coordinates": [ 121.536884264814915, 31.189702255537771 ] } },
{ "type": "Feature", "properties": { "addr": "上海市 浦东新区 下南路501弄  " }, "geometry": { "type": "Point", "coordinates": [ 121.536884264814915, 31.189702255537771 ] } },
{ "type": "Feature", "properties": { "addr": "上海市 浦东新区 三旋路506弄  " }, "geometry": { "type": "Point", "coordinates": [ 121.525530311982649, 31.139159418419815 ] } },
{ "type": "Feature", "properties": { "addr": "上海市 浦东新区 上南路6500弄  " }, "geometry": { "type": "Point", "coordinates": [ 121.584859707864112, 31.120077939878794 ] } },
{ "type": "Feature", "properties": { "addr": "上海市 浦东新区 云莲路398弄  " }, "geometry": { "type": "Point", "coordinates": [ 121.536884264814915, 31.189702255537771 ] } },
{ "type": "Feature", "properties": { "addr": "上海市 浦东新区 博兴路616弄  " }, "geometry": { "type": "Point", "coordinates": [ 121.59050564782487, 31.26885013299071 ] } },
{ "type": "Feature", "properties": { "addr": "上海市 浦东新区 东明路660弄  " }, "geometry": { "type": "Point", "coordinates": [ 121.529696185109415, 31.207201251711854 ] } },
{ "type": "Feature", "properties": { "addr": "上海市 浦东新区 莱阳路350弄  " }, "geometry": { "type": "Point", "coordinates": [ 121.588321507807919, 31.280456057381212 ] } },
{ "type": "Feature", "properties": { "addr": "上海市 浦东新区 张杨路1734弄  " }, "geometry": { "type": "Point", "coordinates": [ 121.554515217228712, 31.242822359690496 ] } },
{ "type": "Feature", "properties": { "addr": "上海市 浦东新区 东靖路669弄  " }, "geometry": { "type": "Point", "coordinates": [ 121.58962611690005, 31.28158489894264 ] } },
{ "type": "Feature", "properties": { "addr": "上海市 浦东新区 德平路100弄  " }, "geometry": { "type": "Point", "coordinates": [ 121.568682662918221, 31.253939981179144 ] } },
{ "type": "Feature", "properties": { "addr": "上海市 浦东新区 周园路1800弄  " }, "geometry": { "type": "Point", "coordinates": [ 121.602734101071107, 31.099526610695357 ] } },
{ "type": "Feature", "properties": { "addr": "上海市 浦东新区 金高路988弄  " }, "geometry": { "type": "Point", "coordinates": [ 121.616205270159824, 31.292764484741046 ] } },
{ "type": "Feature", "properties": { "addr": "上海市 浦东新区 浦城路580弄  " }, "geometry": { "type": "Point", "coordinates": [ 121.521080555638974, 31.230158967011022 ] } },
{ "type": "Feature", "properties": { "addr": "上海市 浦东新区 卫民村  " }, "geometry": { "type": "Point", "coordinates": [ 121.747808195168773, 31.104011353108682 ] } },
{ "type": "Feature", "properties": { "addr": "上海市 浦东新区 高青路4567弄  " }, "geometry": { "type": "Point", "coordinates": [ 121.536884264814915, 31.189702255537771 ] } },
{ "type": "Feature", "properties": { "addr": "上海市 浦东新区 潍坊路168弄  " }, "geometry": { "type": "Point", "coordinates": [ 121.534009238030237, 31.231918712480383 ] } },
{ "type": "Feature", "properties": { "addr": "上海市 浦东新区 南码头路1120弄  " }, "geometry": { "type": "Point", "coordinates": [ 121.520170572157369, 31.191446543590878 ] } },
{ "type": "Feature", "properties": { "addr": "上海市 浦东新区 五星村陈家队陈家宅  " }, "geometry": { "type": "Point", "coordinates": [ 121.578579474382749, 31.194413133383005 ] } },
{ "type": "Feature", "properties": { "addr": "上海市 浦东新区 崂山路502号  " }, "geometry": { "type": "Point", "coordinates": [ 121.523565268679576, 31.242727884421647 ] } },
{ "type": "Feature", "properties": { "addr": "上海市 浦东新区 康沈路400弄  " }, "geometry": { "type": "Point", "coordinates": [ 121.584859707864112, 31.120077939878794 ] } },
{ "type": "Feature", "properties": { "addr": "上海市 浦东新区 南团公路858弄  " }, "geometry": { "type": "Point", "coordinates": [ 121.768831328849316, 31.029976482139237 ] } },
{ "type": "Feature", "properties": { "addr": "上海市 浦东新区 立新村  " }, "geometry": { "type": "Point", "coordinates": [ 121.76391813669305, 31.177471711327076 ] } },
{ "type": "Feature", "properties": { "addr": "上海市 浦东新区 鹿溪村  " }, "geometry": { "type": "Point", "coordinates": [ 121.702793387419362, 31.124679790400943 ] } },
{ "type": "Feature", "properties": { "addr": "上海市 浦东新区 国展路1776号工地生活区  " }, "geometry": { "type": "Point", "coordinates": [ 121.496566767972951, 31.188922647488646 ] } },
{ "type": "Feature", "properties": { "addr": "上海市 浦东新区 懿行路971弄  " }, "geometry": { "type": "Point", "coordinates": [ 121.519394975180049, 31.131133547765522 ] } },
{ "type": "Feature", "properties": { "addr": "上海市 浦东新区 上南路2779号  " }, "geometry": { "type": "Point", "coordinates": [ 121.503728976238804, 31.173002834929044 ] } },
{ "type": "Feature", "properties": { "addr": "上海市 浦东新区 潍坊路606号  " }, "geometry": { "type": "Point", "coordinates": [ 121.528018797906384, 31.229204895697556 ] } },
{ "type": "Feature", "properties": { "addr": "上海市 浦东新区 张杨路1000弄  " }, "geometry": { "type": "Point", "coordinates": [ 121.536220866195805, 31.235578129821725 ] } },
{ "type": "Feature", "properties": { "addr": "上海市 浦东新区 成山路475弄  " }, "geometry": { "type": "Point", "coordinates": [ 121.513497240184847, 31.178313077688014 ] } },
{ "type": "Feature", "properties": { "addr": "上海市 浦东新区 绿林路320弄  " }, "geometry": { "type": "Point", "coordinates": [ 121.554834744498592, 31.176162646734344 ] } },
{ "type": "Feature", "properties": { "addr": "上海市 浦东新区 赵家厍  " }, "geometry": { "type": "Point", "coordinates": [ 121.54343515774643, 31.176791383130574 ] } },
{ "type": "Feature", "properties": { "addr": "上海市 浦东新区 浦电路218弄  " }, "geometry": { "type": "Point", "coordinates": [ 121.530391582080455, 31.226031741548418 ] } },
{ "type": "Feature", "properties": { "addr": "上海市 浦东新区 杨思路855弄  " }, "geometry": { "type": "Point", "coordinates": [ 121.506597265732168, 31.168965631905674 ] } },
{ "type": "Feature", "properties": { "addr": "上海市 浦东新区 上南路5588号  " }, "geometry": { "type": "Point", "coordinates": [ 121.534100685531158, 31.12914416758575 ] } },
{ "type": "Feature", "properties": { "addr": "上海市 浦东新区 张杨路310弄  " }, "geometry": { "type": "Point", "coordinates": [ 121.51973938551258, 31.230805867990643 ] } },
{ "type": "Feature", "properties": { "addr": "上海市 浦东新区 耀华路200弄  " }, "geometry": { "type": "Point", "coordinates": [ 121.500795020612671, 31.177528559599587 ] } },
{ "type": "Feature", "properties": { "addr": "上海市 浦东新区 联勤村张家队张家宅  " }, "geometry": { "type": "Point", "coordinates": [ 121.691947606014082, 31.236233793114234 ] } },
{ "type": "Feature", "properties": { "addr": "上海市 浦东新区 林展路267弄  " }, "geometry": { "type": "Point", "coordinates": [ 121.513993014995805, 31.13367888524202 ] } },
{ "type": "Feature", "properties": { "addr": "上海市 浦东新区 上南路5600号  " }, "geometry": { "type": "Point", "coordinates": [ 121.533819246414879, 31.131871701189322 ] } },
{ "type": "Feature", "properties": { "addr": "上海市 浦东新区 杨高南路5055弄  " }, "geometry": { "type": "Point", "coordinates": [ 121.537526104101801, 31.15615318813709 ] } },
{ "type": "Feature", "properties": { "addr": "上海市 浦东新区 南新村吴家宅  " }, "geometry": { "type": "Point", "coordinates": [ 121.526625615890964, 31.360191454559764 ] } },
{ "type": "Feature", "properties": { "addr": "上海市 浦东新区 庆利路185弄  " }, "geometry": { "type": "Point", "coordinates": [ 121.731212180533021, 31.241479088382583 ] } },
{ "type": "Feature", "properties": { "addr": "上海市 浦东新区 成山路350弄  " }, "geometry": { "type": "Point", "coordinates": [ 121.510295409855644, 31.177370295777077 ] } },
{ "type": "Feature", "properties": { "addr": "上海市 浦东新区 成山路1728弄  " }, "geometry": { "type": "Point", "coordinates": [ 121.535534201463975, 31.181824984316307 ] } },
{ "type": "Feature", "properties": { "addr": "上海市 浦东新区 成山路210号  " }, "geometry": { "type": "Point", "coordinates": [ 121.500842001990819, 31.176626707125713 ] } },
{ "type": "Feature", "properties": { "addr": "上海市 浦东新区 康士路15弄  " }, "geometry": { "type": "Point", "coordinates": [ 121.56951673958423, 31.155668398702119 ] } },
{ "type": "Feature", "properties": { "addr": "上海市 浦东新区 昌里路98弄  " }, "geometry": { "type": "Point", "coordinates": [ 121.509564638323255, 31.180671999148611 ] } },
{ "type": "Feature", "properties": { "addr": "上海市 浦东新区 天花庵村  " }, "geometry": { "type": "Point", "coordinates": [ 121.531939542135248, 31.128535900177152 ] } },
{ "type": "Feature", "properties": { "addr": "上海市 浦东新区 祝西村  " }, "geometry": { "type": "Point", "coordinates": [ 121.757781632093298, 31.111643333887514 ] } },
{ "type": "Feature", "properties": { "addr": "上海市 浦东新区 耀华路421弄  " }, "geometry": { "type": "Point", "coordinates": [ 121.489669776363229, 31.181385819746097 ] } },
{ "type": "Feature", "properties": { "addr": "上海市 浦东新区 五星村徐家队奚家宅  " }, "geometry": { "type": "Point", "coordinates": [ 121.567395660614082, 31.191014451882285 ] } },
{ "type": "Feature", "properties": { "addr": "上海市 浦东新区 莱阳路451弄  " }, "geometry": { "type": "Point", "coordinates": [ 121.589291857419795, 31.282158997327386 ] } },
{ "type": "Feature", "properties": { "addr": "上海市 浦东新区 东方路1523号  " }, "geometry": { "type": "Point", "coordinates": [ 121.533517325932976, 31.214995423414116 ] } },
{ "type": "Feature", "properties": { "addr": "上海市 浦东新区 康沈路465弄  " }, "geometry": { "type": "Point", "coordinates": [ 121.584859707864112, 31.120077939878794 ] } },
{ "type": "Feature", "properties": { "addr": "上海市 浦东新区 巨野路大陆家宅  " }, "geometry": { "type": "Point", "coordinates": [ 121.553185994565595, 31.244897858469482 ] } },
{ "type": "Feature", "properties": { "addr": "上海市 浦东新区 南码头路1696弄  " }, "geometry": { "type": "Point", "coordinates": [ 121.521437362587548, 31.182629933802659 ] } },
{ "type": "Feature", "properties": { "addr": "上海市 浦东新区 康桥路90弄  " }, "geometry": { "type": "Point", "coordinates": [ 121.584859707864112, 31.120077939878794 ] } },
{ "type": "Feature", "properties": { "addr": "上海市 浦东新区 高科西路961号  " }, "geometry": { "type": "Point", "coordinates": [ 121.518744961313033, 31.192336823853758 ] } },
{ "type": "Feature", "properties": { "addr": "上海市 浦东新区 崂山路640号  " }, "geometry": { "type": "Point", "coordinates": [ 121.531273448599592, 31.229082847358661 ] } },
{ "type": "Feature", "properties": { "addr": "上海市 浦东新区 曹路镇顾家宅  " }, "geometry": { "type": "Point", "coordinates": [ 121.673574204096298, 31.287578000463697 ] } },
{ "type": "Feature", "properties": { "addr": "上海市 浦东新区 新浦路587弄  " }, "geometry": { "type": "Point", "coordinates": [ 121.532965137535996, 31.192722959436448 ] } },
{ "type": "Feature", "properties": { "addr": "上海市 浦东新区 上南路1251弄  " }, "geometry": { "type": "Point", "coordinates": [ 121.502606274012422, 31.178521236106434 ] } },
{ "type": "Feature", "properties": { "addr": "上海市 浦东新区 一六村金桥队南赵家宅  " }, "geometry": { "type": "Point", "coordinates": [ 121.602726734965927, 31.173188295681612 ] } },
{ "type": "Feature", "properties": { "addr": "上海市 浦东新区 浦电路330弄  " }, "geometry": { "type": "Point", "coordinates": [ 121.534528817937215, 31.22662717934152 ] } },
{ "type": "Feature", "properties": { "addr": "上海市 浦东新区 昌里东路550弄  " }, "geometry": { "type": "Point", "coordinates": [ 121.521399004942268, 31.183535899194091 ] } },
{ "type": "Feature", "properties": { "addr": "上海市 浦东新区 卫行村朱家队朱家宅  " }, "geometry": { "type": "Point", "coordinates": [ 121.587201410667518, 31.166665202015878 ] } },
{ "type": "Feature", "properties": { "addr": "上海市 浦东新区 上南路3521号  " }, "geometry": { "type": "Point", "coordinates": [ 121.511585466398515, 31.161595328123152 ] } },
{ "type": "Feature", "properties": { "addr": "上海市 浦东新区 上南新村  " }, "geometry": { "type": "Point", "coordinates": [ 121.51009481823526, 31.17883266186427 ] } },
{ "type": "Feature", "properties": { "addr": "上海市 浦东新区 羽山路780号  " }, "geometry": { "type": "Point", "coordinates": [ 121.557249389709426, 31.241251078454592 ] } },
{ "type": "Feature", "properties": { "addr": "上海市 浦东新区 三灶村  " }, "geometry": { "type": "Point", "coordinates": [ 121.712526347958885, 31.075053958120254 ] } },
{ "type": "Feature", "properties": { "addr": "上海市 浦东新区 蓝村路470弄  " }, "geometry": { "type": "Point", "coordinates": [ 121.531604025027278, 31.217482896900499 ] } },
{ "type": "Feature", "properties": { "addr": "上海市 浦东新区 齐河路909弄  " }, "geometry": { "type": "Point", "coordinates": [ 121.523275115999866, 31.189269615177899 ] } },
{ "type": "Feature", "properties": { "addr": "上海市 浦东新区 浦电路305弄  " }, "geometry": { "type": "Point", "coordinates": [ 121.531913940428211, 31.225381642362095 ] } },
{ "type": "Feature", "properties": { "addr": "上海市 浦东新区 牌楼村  " }, "geometry": { "type": "Point", "coordinates": [ 121.565577580092423, 31.05914827465531 ] } },
{ "type": "Feature", "properties": { "addr": "上海市 浦东新区 昌里路340弄  " }, "geometry": { "type": "Point", "coordinates": [ 121.500968393576088, 31.178239082858738 ] } },
{ "type": "Feature", "properties": { "addr": "上海市 浦东新区 通济路47弄  " }, "geometry": { "type": "Point", "coordinates": [ 121.752185907410549, 31.048884576351551 ] } },
{ "type": "Feature", "properties": { "addr": "上海市 浦东新区 昌里东路650弄  " }, "geometry": { "type": "Point", "coordinates": [ 121.521399004942268, 31.183535899194091 ] } },
{ "type": "Feature", "properties": { "addr": "上海市 浦东新区 御桥村姚家队姚家宅  " }, "geometry": { "type": "Point", "coordinates": [ 121.564117833638718, 31.162329302205315 ] } },
{ "type": "Feature", "properties": { "addr": "上海市 浦东新区 浦电路155号  " }, "geometry": { "type": "Point", "coordinates": [ 121.528051406396415, 31.224429992765849 ] } },
{ "type": "Feature", "properties": { "addr": "上海市 浦东新区 沪南路2000号  " }, "geometry": { "type": "Point", "coordinates": [ 121.56787580490915, 31.170008145287881 ] } },
{ "type": "Feature", "properties": { "addr": "上海市 浦东新区 芳华路916弄  " }, "geometry": { "type": "Point", "coordinates": [ 121.574598004701429, 31.202853893456744 ] } },
{ "type": "Feature", "properties": { "addr": "上海市 浦东新区 光辉村  " }, "geometry": { "type": "Point", "coordinates": [ 121.718709384784049, 31.069857889206379 ] } },
{ "type": "Feature", "properties": { "addr": "上海市 浦东新区 浦电路331弄  " }, "geometry": { "type": "Point", "coordinates": [ 121.535182335195714, 31.225922581402024 ] } },
{ "type": "Feature", "properties": { "addr": "上海市 浦东新区 康桥路1633弄  " }, "geometry": { "type": "Point", "coordinates": [ 121.584859707864112, 31.120077939878794 ] } },
{ "type": "Feature", "properties": { "addr": "上海市 浦东新区 龙居路179号  " }, "geometry": { "type": "Point", "coordinates": [ 121.569740956639535, 31.25818806294194 ] } },
{ "type": "Feature", "properties": { "addr": "上海市 浦东新区 浦东南路1475弄  " }, "geometry": { "type": "Point", "coordinates": [ 121.525751744290872, 31.228549414736456 ] } },
{ "type": "Feature", "properties": { "addr": "上海市 浦东新区 黄路村  " }, "geometry": { "type": "Point", "coordinates": [ 121.771168540125203, 31.03629734180501 ] } },
{ "type": "Feature", "properties": { "addr": "上海市 浦东新区 鹤驰路99弄  " }, "geometry": { "type": "Point", "coordinates": [ 121.599741665756255, 31.084967271555595 ] } },
{ "type": "Feature", "properties": { "addr": "上海市 浦东新区 苗圃路266号  " }, "geometry": { "type": "Point", "coordinates": [ 121.554695147822358, 31.247507179020907 ] } },
{ "type": "Feature", "properties": { "addr": "上海市 浦东新区 南泉路1300弄  " }, "geometry": { "type": "Point", "coordinates": [ 121.52893030850737, 31.217418043380952 ] } },
{ "type": "Feature", "properties": { "addr": "上海市 浦东新区 御山路360弄  " }, "geometry": { "type": "Point", "coordinates": [ 121.57468244541937, 31.162035666910167 ] } },
{ "type": "Feature", "properties": { "addr": "上海市 浦东新区 川沙路326弄  " }, "geometry": { "type": "Point", "coordinates": [ 121.672769322359372, 31.286348319613808 ] } },
{ "type": "Feature", "properties": { "addr": "上海市 浦东新区 南新村  " }, "geometry": { "type": "Point", "coordinates": [ 121.526625615890964, 31.360191454559764 ] } },
{ "type": "Feature", "properties": { "addr": "上海市 浦东新区 南新村西钟家宅  " }, "geometry": { "type": "Point", "coordinates": [ 121.548654941573261, 31.173251634963325 ] } },
{ "type": "Feature", "properties": { "addr": "上海市 浦东新区 京浦路82弄  " }, "geometry": { "type": "Point", "coordinates": [ 121.57334019732636, 31.159691572984912 ] } },
{ "type": "Feature", "properties": { "addr": "上海市 浦东新区 耀华路579弄  " }, "geometry": { "type": "Point", "coordinates": [ 121.486059666179727, 31.178810494440008 ] } },
{ "type": "Feature", "properties": { "addr": "上海市 浦东新区 康山路608弄  " }, "geometry": { "type": "Point", "coordinates": [ 121.550454606831948, 31.227348292436346 ] } },
{ "type": "Feature", "properties": { "addr": "上海市 浦东新区 海阳路815弄  " }, "geometry": { "type": "Point", "coordinates": [ 121.50842495812276, 31.164245363887332 ] } },
{ "type": "Feature", "properties": { "addr": "上海市 浦东新区 秀沿路2501弄  " }, "geometry": { "type": "Point", "coordinates": [ 121.60721008793567, 31.144675483422116 ] } },
{ "type": "Feature", "properties": { "addr": "上海市 浦东新区 德州路380弄  " }, "geometry": { "type": "Point", "coordinates": [ 121.493341150982502, 31.171454327607343 ] } },
{ "type": "Feature", "properties": { "addr": "上海市 浦东新区 新陈路303弄  " }, "geometry": { "type": "Point", "coordinates": [ 121.536884264814915, 31.189702255537771 ] } },
{ "type": "Feature", "properties": { "addr": "上海市 浦东新区 南泉路1350弄  " }, "geometry": { "type": "Point", "coordinates": [ 121.527360429798136, 31.215168447716952 ] } },
{ "type": "Feature", "properties": { "addr": "上海市 浦东新区 康桥路1055号  " }, "geometry": { "type": "Point", "coordinates": [ 121.573922928110676, 31.155309382505635 ] } },
{ "type": "Feature", "properties": { "addr": "上海市 浦东新区 新浦路543弄  " }, "geometry": { "type": "Point", "coordinates": [ 121.536926664834994, 31.175801005536101 ] } },
{ "type": "Feature", "properties": { "addr": "上海市 浦东新区 高青路2861弄  " }, "geometry": { "type": "Point", "coordinates": [ 121.536884264814915, 31.189702255537771 ] } },
{ "type": "Feature", "properties": { "addr": "上海市 浦东新区 浦电路56号  " }, "geometry": { "type": "Point", "coordinates": [ 121.524210970680159, 31.223451621735556 ] } },
{ "type": "Feature", "properties": { "addr": "上海市 浦东新区 汤巷中心村  " }, "geometry": { "type": "Point", "coordinates": [ 121.618456872920589, 31.14980584074975 ] } },
{ "type": "Feature", "properties": { "addr": "上海市 浦东新区 秀沿西路68弄  " }, "geometry": { "type": "Point", "coordinates": [ 121.543756032474604, 31.137587866279553 ] } },
{ "type": "Feature", "properties": { "addr": "上海市 浦东新区 环桥路1136弄  " }, "geometry": { "type": "Point", "coordinates": [ 121.584859707864112, 31.120077939878794 ] } },
{ "type": "Feature", "properties": { "addr": "上海市 浦东新区 永泰路775弄  " }, "geometry": { "type": "Point", "coordinates": [ 121.524414706369811, 31.147980346490257 ] } },
{ "type": "Feature", "properties": { "addr": "上海市 浦东新区 霍山路201弄  " }, "geometry": { "type": "Point", "coordinates": [ 121.518055691495235, 31.236649002987502 ] } },
{ "type": "Feature", "properties": { "addr": "上海市 浦东新区 北蔡镇黄家队黄家宅  " }, "geometry": { "type": "Point", "coordinates": [ 121.560954450785317, 31.188175725858915 ] } },
{ "type": "Feature", "properties": { "addr": "上海市 浦东新区 黄楼村谢家宅  " }, "geometry": { "type": "Point", "coordinates": [ 121.674378457019401, 31.172326027521734 ] } },
{ "type": "Feature", "properties": { "addr": "上海市 浦东新区 浦三路635弄  " }, "geometry": { "type": "Point", "coordinates": [ 121.525132182980627, 31.195144302174068 ] } },
{ "type": "Feature", "properties": { "addr": "上海市 浦东新区 花木路500弄  " }, "geometry": { "type": "Point", "coordinates": [ 121.549098435003543, 31.217811873407079 ] } },
{ "type": "Feature", "properties": { "addr": "上海市 浦东新区 高宝路379弄  " }, "geometry": { "type": "Point", "coordinates": [ 121.58962611690005, 31.28158489894264 ] } },
{ "type": "Feature", "properties": { "addr": "上海市 浦东新区 南码头路1136弄  " }, "geometry": { "type": "Point", "coordinates": [ 121.519727887202052, 31.18987494042182 ] } },
{ "type": "Feature", "properties": { "addr": "上海市 浦东新区 幸福村幸福公寓  " }, "geometry": { "type": "Point", "coordinates": [ 121.784732683834207, 31.033064596329563 ] } },
{ "type": "Feature", "properties": { "addr": "上海市 浦东新区 团结村  " }, "geometry": { "type": "Point", "coordinates": [ 121.614929586505113, 31.224092084192744 ] } },
{ "type": "Feature", "properties": { "addr": "上海市 浦东新区 英雄村  " }, "geometry": { "type": "Point", "coordinates": [ 121.759684602485635, 31.034120375692826 ] } },
{ "type": "Feature", "properties": { "addr": "上海市 浦东新区 通济路365弄  " }, "geometry": { "type": "Point", "coordinates": [ 121.752221031155983, 31.057799201262299 ] } },
{ "type": "Feature", "properties": { "addr": "上海市 浦东新区 听悦路960号  " }, "geometry": { "type": "Point", "coordinates": [ 121.746609047143494, 31.066772527192992 ] } },
{ "type": "Feature", "properties": { "addr": "上海市 浦东新区 靖海路547弄  " }, "geometry": { "type": "Point", "coordinates": [ 121.773875323387699, 31.062525639698123 ] } },
{ "type": "Feature", "properties": { "addr": "上海市 浦东新区 西门路121弄  " }, "geometry": { "type": "Point", "coordinates": [ 121.75187203946534, 31.052024741561482 ] } },
{ "type": "Feature", "properties": { "addr": "上海市 浦东新区 西门村  " }, "geometry": { "type": "Point", "coordinates": [ 121.748019117302519, 31.060393930804395 ] } },
{ "type": "Feature", "properties": { "addr": "上海市 浦东新区 栖山路400弄  " }, "geometry": { "type": "Point", "coordinates": [ 121.557578978001033, 31.252017881658489 ] } },
{ "type": "Feature", "properties": { "addr": "上海市 浦东新区 扶栏村  " }, "geometry": { "type": "Point", "coordinates": [ 121.758401552725729, 31.000752946608475 ] } },
{ "type": "Feature", "properties": { "addr": "上海市 浦东新区 羽山路1446弄  " }, "geometry": { "type": "Point", "coordinates": [ 121.568582951006618, 31.245994404064763 ] } },
{ "type": "Feature", "properties": { "addr": "上海市 浦东新区 洋泾镇路117号  " }, "geometry": { "type": "Point", "coordinates": [ 121.557453035568543, 31.248327000202401 ] } },
{ "type": "Feature", "properties": { "addr": "上海市 浦东新区 桃林路189号  " }, "geometry": { "type": "Point", "coordinates": [ 121.541948551957958, 31.246536999121549 ] } },
{ "type": "Feature", "properties": { "addr": "上海市 浦东新区 迎春路1355弄  " }, "geometry": { "type": "Point", "coordinates": [ 121.569082498700709, 31.235478938541977 ] } },
{ "type": "Feature", "properties": { "addr": "上海市 浦东新区 博山路50弄  " }, "geometry": { "type": "Point", "coordinates": [ 121.562882933054155, 31.252223638107505 ] } },
{ "type": "Feature", "properties": { "addr": "上海市 浦东新区 羽山路998弄  " }, "geometry": { "type": "Point", "coordinates": [ 121.563115773842341, 31.243262702719594 ] } },
{ "type": "Feature", "properties": { "addr": "上海市 浦东新区 栖山路99号  " }, "geometry": { "type": "Point", "coordinates": [ 121.549614511519025, 31.249064076751051 ] } },
{ "type": "Feature", "properties": { "addr": "上海市 浦东新区 浦东大道2894号  " }, "geometry": { "type": "Point", "coordinates": [ 121.582823967917406, 31.278944432984467 ] } },
{ "type": "Feature", "properties": { "addr": "上海市 浦东新区 金桥路1250弄  " }, "geometry": { "type": "Point", "coordinates": [ 121.58962611690005, 31.28158489894264 ] } },
{ "type": "Feature", "properties": { "addr": "上海市 浦东新区 德平路1189弄  " }, "geometry": { "type": "Point", "coordinates": [ 121.57681313625848, 31.2458715286161 ] } },
{ "type": "Feature", "properties": { "addr": "上海市 浦东新区 成山路648弄  " }, "geometry": { "type": "Point", "coordinates": [ 121.515115986713823, 31.177611823719104 ] } },
{ "type": "Feature", "properties": { "addr": "上海市 浦东新区 昌里东路320弄  " }, "geometry": { "type": "Point", "coordinates": [ 121.517463438672507, 31.182139411291217 ] } },
{ "type": "Feature", "properties": { "addr": "上海市 浦东新区 东园三村  " }, "geometry": { "type": "Point", "coordinates": [ 121.520245131514699, 31.236240277164342 ] } },
{ "type": "Feature", "properties": { "addr": "上海市 浦东新区 羽山路308弄  " }, "geometry": { "type": "Point", "coordinates": [ 121.548396409247502, 31.237966021999146 ] } },
{ "type": "Feature", "properties": { "addr": "上海市 浦东新区 浦东南路3905弄  " }, "geometry": { "type": "Point", "coordinates": [ 121.508197686828723, 31.188934282771708 ] } },
{ "type": "Feature", "properties": { "addr": "上海市 浦东新区 齐河路26号  " }, "geometry": { "type": "Point", "coordinates": [ 121.507053335439579, 31.183896738214404 ] } },
{ "type": "Feature", "properties": { "addr": "上海市 浦东新区 东明路383弄  " }, "geometry": { "type": "Point", "coordinates": [ 121.516660892529885, 31.188568057018159 ] } },
{ "type": "Feature", "properties": { "addr": "上海市 浦东新区 东环龙路299号  " }, "geometry": { "type": "Point", "coordinates": [ 121.531993170974204, 31.206857978720016 ] } },
{ "type": "Feature", "properties": { "addr": "上海市 浦东新区 崂山路571弄  " }, "geometry": { "type": "Point", "coordinates": [ 121.529543491848486, 31.232309393717138 ] } },
{ "type": "Feature", "properties": { "addr": "上海市 浦东新区 果园村  " }, "geometry": { "type": "Point", "coordinates": [ 121.737440132633708, 30.983664773262714 ] } },
{ "type": "Feature", "properties": { "addr": "上海市 浦东新区 华夏二路350弄  " }, "geometry": { "type": "Point", "coordinates": [ 121.691059990339681, 31.198575884956675 ] } },
{ "type": "Feature", "properties": { "addr": "上海市 浦东新区 严杨路165弄  " }, "geometry": { "type": "Point", "coordinates": [ 121.535772517226619, 31.201033280595517 ] } },
{ "type": "Feature", "properties": { "addr": "上海市 浦东新区 御北路235号工地生活区  " }, "geometry": { "type": "Point", "coordinates": [ 121.565527172320373, 31.16483088712021 ] } },
{ "type": "Feature", "properties": { "addr": "上海市 浦东新区 华夏二路728弄  " }, "geometry": { "type": "Point", "coordinates": [ 121.692337740097088, 31.193374057652374 ] } },
{ "type": "Feature", "properties": { "addr": "上海市 浦东新区 德州路300弄  " }, "geometry": { "type": "Point", "coordinates": [ 121.536884264814915, 31.189702255537771 ] } },
{ "type": "Feature", "properties": { "addr": "上海市 浦东新区 南阜村东汤家宅队  " }, "geometry": { "type": "Point", "coordinates": [ 121.526167659741986, 31.136051601892248 ] } },
{ "type": "Feature", "properties": { "addr": "上海市 浦东新区 历城路100弄  " }, "geometry": { "type": "Point", "coordinates": [ 121.49791550230043, 31.179897773390458 ] } },
{ "type": "Feature", "properties": { "addr": "上海市 浦东新区 五莲路758弄  " }, "geometry": { "type": "Point", "coordinates": [ 121.597115379767288, 31.275933456115435 ] } },
{ "type": "Feature", "properties": { "addr": "上海市 浦东新区 荷泽路287弄  " }, "geometry": { "type": "Point", "coordinates": [ 121.599586618225231, 31.27447507574718 ] } },
{ "type": "Feature", "properties": { "addr": "上海市 浦东新区 长岛路1267弄  " }, "geometry": { "type": "Point", "coordinates": [ 121.60152282592145, 31.268319782291993 ] } },
{ "type": "Feature", "properties": { "addr": "上海市 浦东新区 长岛路1201弄  " }, "geometry": { "type": "Point", "coordinates": [ 121.596729737211859, 31.2693476089323 ] } },
{ "type": "Feature", "properties": { "addr": "上海市 浦东新区 博兴路916弄  " }, "geometry": { "type": "Point", "coordinates": [ 121.597995000522658, 31.270420178729555 ] } },
{ "type": "Feature", "properties": { "addr": "上海市 浦东新区 海霞路493弄  " }, "geometry": { "type": "Point", "coordinates": [ 121.749863608006137, 31.175400665094735 ] } },
{ "type": "Feature", "properties": { "addr": "上海市 浦东新区 通源东路16号  " }, "geometry": { "type": "Point", "coordinates": [ 121.895334393817009, 31.011378201657909 ] } },
{ "type": "Feature", "properties": { "addr": "上海市 浦东新区 连民村  " }, "geometry": { "type": "Point", "coordinates": [ 121.691012110656004, 31.096250888207003 ] } },
{ "type": "Feature", "properties": { "addr": "上海市 浦东新区 会龙村  " }, "geometry": { "type": "Point", "coordinates": [ 121.720019383709243, 31.100736018736946 ] } },
{ "type": "Feature", "properties": { "addr": "上海市 浦东新区 吉灿路17弄  " }, "geometry": { "type": "Point", "coordinates": [ 121.712895731184574, 31.116515338861625 ] } },
{ "type": "Feature", "properties": { "addr": "上海市 浦东新区 锦绣路300弄  " }, "geometry": { "type": "Point", "coordinates": [ 121.571560474449996, 31.231704265536017 ] } },
{ "type": "Feature", "properties": { "addr": "上海市 浦东新区 华夏东路860弄  " }, "geometry": { "type": "Point", "coordinates": [ 121.672341549275515, 31.200330123733838 ] } },
{ "type": "Feature", "properties": { "addr": "上海市 浦东新区 永泰路133弄  " }, "geometry": { "type": "Point", "coordinates": [ 121.50921573646319, 31.141593889142552 ] } },
{ "type": "Feature", "properties": { "addr": "上海市 浦东新区 瓦南村  " }, "geometry": { "type": "Point", "coordinates": [ 121.659544468641471, 31.10478087123219 ] } },
{ "type": "Feature", "properties": { "addr": "上海市 浦东新区 千汇路580弄  " }, "geometry": { "type": "Point", "coordinates": [ 121.774441695911889, 31.118038783714734 ] } },
{ "type": "Feature", "properties": { "addr": "上海市 浦东新区 星火村  " }, "geometry": { "type": "Point", "coordinates": [ 121.708317606983513, 31.261823069883153 ] } },
{ "type": "Feature", "properties": { "addr": "上海市 浦东新区 千汇路280弄  " }, "geometry": { "type": "Point", "coordinates": [ 121.773919960071694, 31.114844939105055 ] } },
{ "type": "Feature", "properties": { "addr": "上海市 浦东新区 金星村  " }, "geometry": { "type": "Point", "coordinates": [ 121.77908746251785, 31.119219898282822 ] } },
{ "type": "Feature", "properties": { "addr": "上海市 浦东新区 三八村  " }, "geometry": { "type": "Point", "coordinates": [ 121.763625019605158, 31.114776845647906 ] } },
{ "type": "Feature", "properties": { "addr": "上海市 浦东新区 华星村  " }, "geometry": { "type": "Point", "coordinates": [ 121.721645137021213, 31.206376231189314 ] } },
{ "type": "Feature", "properties": { "addr": "上海市 浦东新区 祝城路77弄  " }, "geometry": { "type": "Point", "coordinates": [ 121.768478474445004, 31.114892704974039 ] } },
{ "type": "Feature", "properties": { "addr": "上海市 浦东新区 红三村  " }, "geometry": { "type": "Point", "coordinates": [ 121.800614815081161, 31.09108977429165 ] } },
{ "type": "Feature", "properties": { "addr": "上海市 浦东新区 先进村  " }, "geometry": { "type": "Point", "coordinates": [ 121.810008575460103, 31.103827765483793 ] } },
{ "type": "Feature", "properties": { "addr": "上海市 浦东新区 星光村  " }, "geometry": { "type": "Point", "coordinates": [ 121.755200800363127, 31.125544273851506 ] } },
{ "type": "Feature", "properties": { "addr": "上海市 浦东新区 千汇一村  " }, "geometry": { "type": "Point", "coordinates": [ 121.775260770875889, 31.115783248008558 ] } },
{ "type": "Feature", "properties": { "addr": "上海市 浦东新区 南祝路258弄  " }, "geometry": { "type": "Point", "coordinates": [ 121.761885989968391, 31.125974889673685 ] } },
{ "type": "Feature", "properties": { "addr": "上海市 浦东新区 金亭公路619号  " }, "geometry": { "type": "Point", "coordinates": [ 121.774519938321816, 31.118119704680012 ] } },
{ "type": "Feature", "properties": { "addr": "上海市 浦东新区 美容新村  " }, "geometry": { "type": "Point", "coordinates": [ 121.844011145793232, 31.045213234755739 ] } },
{ "type": "Feature", "properties": { "addr": "上海市 浦东新区 千汇路1000弄  " }, "geometry": { "type": "Point", "coordinates": [ 121.771261784237126, 31.126797320222785 ] } },
{ "type": "Feature", "properties": { "addr": "上海市 浦东新区 永春东路70号  " }, "geometry": { "type": "Point", "coordinates": [ 121.747580923874736, 30.978099330359562 ] } },
{ "type": "Feature", "properties": { "addr": "上海市 浦东新区 千汇三村  " }, "geometry": { "type": "Point", "coordinates": [ 121.771959318465619, 31.119653248138686 ] } },
{ "type": "Feature", "properties": { "addr": "上海市 浦东新区 杨思北街  " }, "geometry": { "type": "Point", "coordinates": [ 121.499143935085314, 31.169854040045799 ] } },
{ "type": "Feature", "properties": { "addr": "上海市 浦东新区 洪山路300弄  " }, "geometry": { "type": "Point", "coordinates": [ 121.507182062619165, 31.175607516880994 ] } },
{ "type": "Feature", "properties": { "addr": "上海市 浦东新区 成山路668弄  " }, "geometry": { "type": "Point", "coordinates": [ 121.519473037928876, 31.175870831284065 ] } },
{ "type": "Feature", "properties": { "addr": "上海市 浦东新区 南码头路1127弄  " }, "geometry": { "type": "Point", "coordinates": [ 121.521736139000168, 31.191233162358049 ] } },
{ "type": "Feature", "properties": { "addr": "上海市 浦东新区 杨高南路2828号  " }, "geometry": { "type": "Point", "coordinates": [ 121.525531210288165, 31.182180346191942 ] } },
{ "type": "Feature", "properties": { "addr": "上海市 浦东新区 东明路511弄  " }, "geometry": { "type": "Point", "coordinates": [ 121.51733183691529, 31.186186319019924 ] } },
{ "type": "Feature", "properties": { "addr": "上海市 浦东新区 昌里东路333弄  " }, "geometry": { "type": "Point", "coordinates": [ 121.517397503048073, 31.182775599417102 ] } },
{ "type": "Feature", "properties": { "addr": "上海市 浦东新区 洪山路121弄  " }, "geometry": { "type": "Point", "coordinates": [ 121.505002773451949, 31.18470970220126 ] } },
{ "type": "Feature", "properties": { "addr": "上海市 浦东新区 德州路223弄  " }, "geometry": { "type": "Point", "coordinates": [ 121.536884264814915, 31.189702255537771 ] } },
{ "type": "Feature", "properties": { "addr": "上海市 浦东新区 德州路465弄  " }, "geometry": { "type": "Point", "coordinates": [ 121.536884264814915, 31.189702255537771 ] } },
{ "type": "Feature", "properties": { "addr": "上海市 浦东新区 济阳路65弄  " }, "geometry": { "type": "Point", "coordinates": [ 121.488308933346161, 31.173016198002603 ] } },
{ "type": "Feature", "properties": { "addr": "上海市 浦东新区 耀华路550弄  " }, "geometry": { "type": "Point", "coordinates": [ 121.487451231245231, 31.175987696606491 ] } },
{ "type": "Feature", "properties": { "addr": "上海市 浦东新区 牛肚村  " }, "geometry": { "type": "Point", "coordinates": [ 121.835494131592043, 31.058898708361337 ] } },
{ "type": "Feature", "properties": { "addr": "上海市 浦东新区 康悦路325弄  " }, "geometry": { "type": "Point", "coordinates": [ 121.538534631697857, 31.365243165209964 ] } },
{ "type": "Feature", "properties": { "addr": "上海市 浦东新区 东滨村纪家宅  " }, "geometry": { "type": "Point", "coordinates": [ 121.772191081287204, 31.212951380741515 ] } },
{ "type": "Feature", "properties": { "addr": "上海市 浦东新区 晚霞路551号  " }, "geometry": { "type": "Point", "coordinates": [ 121.756928511350466, 31.184025178652039 ] } },
{ "type": "Feature", "properties": { "addr": "上海市 浦东新区 卫东村周家宅  " }, "geometry": { "type": "Point", "coordinates": [ 121.762228334198241, 31.182343390496492 ] } },
{ "type": "Feature", "properties": { "addr": "上海市 浦东新区 航昌路376弄  " }, "geometry": { "type": "Point", "coordinates": [ 121.615217673082157, 31.084972297071307 ] } },
{ "type": "Feature", "properties": { "addr": "上海市 浦东新区 瑞和路269弄  " }, "geometry": { "type": "Point", "coordinates": [ 121.595639912967158, 31.093506936382891 ] } },
{ "type": "Feature", "properties": { "addr": "上海市 浦东新区 王楼村  " }, "geometry": { "type": "Point", "coordinates": [ 121.624150692565038, 31.074255122839745 ] } },
{ "type": "Feature", "properties": { "addr": "上海市 浦东新区 瑞和路168弄  " }, "geometry": { "type": "Point", "coordinates": [ 121.596005433479164, 31.091793375409306 ] } },
{ "type": "Feature", "properties": { "addr": "上海市 浦东新区 航瑞路388弄  " }, "geometry": { "type": "Point", "coordinates": [ 121.598209066725687, 31.080684738771261 ] } },
{ "type": "Feature", "properties": { "addr": "上海市 浦东新区 鹤沙路188弄  " }, "geometry": { "type": "Point", "coordinates": [ 121.613093989026027, 31.087666398747821 ] } },
{ "type": "Feature", "properties": { "addr": "上海市 浦东新区 沈庄西街  " }, "geometry": { "type": "Point", "coordinates": [ 121.591210560734822, 31.092080754325711 ] } },
{ "type": "Feature", "properties": { "addr": "上海市 浦东新区 百曲村  " }, "geometry": { "type": "Point", "coordinates": [ 121.554663071129198, 31.117902747608948 ] } },
{ "type": "Feature", "properties": { "addr": "上海市 浦东新区 浦电路311号  " }, "geometry": { "type": "Point", "coordinates": [ 121.53317174780328, 31.22577026650125 ] } },
{ "type": "Feature", "properties": { "addr": "上海市 浦东新区 浦东南路1466弄  " }, "geometry": { "type": "Point", "coordinates": [ 121.522425139326316, 31.226964847164993 ] } },
{ "type": "Feature", "properties": { "addr": "上海市 浦东新区 潍坊西路100弄  " }, "geometry": { "type": "Point", "coordinates": [ 121.522905283621412, 31.228227886947543 ] } },
{ "type": "Feature", "properties": { "addr": "上海市 浦东新区 潍坊路335弄  " }, "geometry": { "type": "Point", "coordinates": [ 121.53827061970847, 31.233788347881376 ] } },
{ "type": "Feature", "properties": { "addr": "上海市 浦东新区 源深路600弄2支弄  " }, "geometry": { "type": "Point", "coordinates": [ 121.541346866927398, 31.236006465120855 ] } },
{ "type": "Feature", "properties": { "addr": "上海市 浦东新区 北张家浜路28弄  " }, "geometry": { "type": "Point", "coordinates": [ 121.526166761436471, 31.221579772512371 ] } },
{ "type": "Feature", "properties": { "addr": "上海市 浦东新区 福山路102弄  " }, "geometry": { "type": "Point", "coordinates": [ 121.53400762108032, 31.237370810745112 ] } },
{ "type": "Feature", "properties": { "addr": "上海市 浦东新区 张杨路951弄  " }, "geometry": { "type": "Point", "coordinates": [ 121.532983642629503, 31.236914384350449 ] } },
{ "type": "Feature", "properties": { "addr": "上海市 浦东新区 张杨路1269弄  " }, "geometry": { "type": "Point", "coordinates": [ 121.538690487703832, 31.238534367635964 ] } },
{ "type": "Feature", "properties": { "addr": "上海市 浦东新区 松林路111号  " }, "geometry": { "type": "Point", "coordinates": [ 121.53713013103301, 31.238256331807229 ] } },
{ "type": "Feature", "properties": { "addr": "上海市 浦东新区 东昌路490弄  " }, "geometry": { "type": "Point", "coordinates": [ 121.519723575335604, 31.237522334861659 ] } },
{ "type": "Feature", "properties": { "addr": "上海市 浦东新区 张杨路981弄  " }, "geometry": { "type": "Point", "coordinates": [ 121.58962611690005, 31.28158489894264 ] } },
{ "type": "Feature", "properties": { "addr": "上海市 浦东新区 钦殿街58号  " }, "geometry": { "type": "Point", "coordinates": [ 121.538196868826105, 31.239063961079975 ] } },
{ "type": "Feature", "properties": { "addr": "上海市 浦东新区 福山路100弄  " }, "geometry": { "type": "Point", "coordinates": [ 121.53377469046157, 31.238417889095363 ] } },
{ "type": "Feature", "properties": { "addr": "上海市 浦东新区 东方路573弄  " }, "geometry": { "type": "Point", "coordinates": [ 121.531333545238212, 31.237684588126452 ] } },
{ "type": "Feature", "properties": { "addr": "上海市 浦东新区 杨思镇后长街  " }, "geometry": { "type": "Point", "coordinates": [ 121.502212007724097, 31.168464918558183 ] } },
{ "type": "Feature", "properties": { "addr": "上海市 浦东新区 商城路1177弄  " }, "geometry": { "type": "Point", "coordinates": [ 121.533303080068833, 31.240919559981307 ] } },
{ "type": "Feature", "properties": { "addr": "上海市 浦东新区 唐港路1059弄  " }, "geometry": { "type": "Point", "coordinates": [ 121.870669260107363, 30.982972671195526 ] } },
{ "type": "Feature", "properties": { "addr": "上海市 浦东新区 齐河路259弄  " }, "geometry": { "type": "Point", "coordinates": [ 121.510827925361951, 31.186754515653451 ] } },
{ "type": "Feature", "properties": { "addr": "上海市 浦东新区 祝家港路155弄  " }, "geometry": { "type": "Point", "coordinates": [ 121.592181436753734, 31.116418572112241 ] } },
{ "type": "Feature", "properties": { "addr": "上海市 浦东新区 成山路226弄  " }, "geometry": { "type": "Point", "coordinates": [ 121.503720083014244, 31.176390428994402 ] } },
{ "type": "Feature", "properties": { "addr": "上海市 浦东新区 成山路558号  " }, "geometry": { "type": "Point", "coordinates": [ 121.515106015522676, 31.177956542566324 ] } },
{ "type": "Feature", "properties": { "addr": "上海市 浦东新区 云台路453弄  " }, "geometry": { "type": "Point", "coordinates": [ 121.536884264814915, 31.189702255537771 ] } },
{ "type": "Feature", "properties": { "addr": "上海市 浦东新区 川沙镇郭家宅  " }, "geometry": { "type": "Point", "coordinates": [ 121.754754252694127, 31.117472257717917 ] } },
{ "type": "Feature", "properties": { "addr": "上海市 浦东新区 其成村  " }, "geometry": { "type": "Point", "coordinates": [ 121.692090616251292, 31.120092933510254 ] } },
{ "type": "Feature", "properties": { "addr": "上海市 浦东新区 新陈路150弄  " }, "geometry": { "type": "Point", "coordinates": [ 121.536884264814915, 31.189702255537771 ] } },
{ "type": "Feature", "properties": { "addr": "上海市 浦东新区 齐河路27弄  " }, "geometry": { "type": "Point", "coordinates": [ 121.506599870818135, 31.184567437874225 ] } },
{ "type": "Feature", "properties": { "addr": "上海市 浦东新区 环桥路1488弄  " }, "geometry": { "type": "Point", "coordinates": [ 121.584859707864112, 31.120077939878794 ] } },
{ "type": "Feature", "properties": { "addr": "上海市 浦东新区 陈行村  " }, "geometry": { "type": "Point", "coordinates": [ 121.719624937759818, 31.172006469530608 ] } },
{ "type": "Feature", "properties": { "addr": "上海市 浦东新区 华路村  " }, "geometry": { "type": "Point", "coordinates": [ 121.742779301262814, 31.200136531270871 ] } },
{ "type": "Feature", "properties": { "addr": "上海市 浦东新区 浦东大道2511弄  " }, "geometry": { "type": "Point", "coordinates": [ 121.566406266925384, 31.265127505972 ] } },
{ "type": "Feature", "properties": { "addr": "上海市 浦东新区 金沪路1218弄  " }, "geometry": { "type": "Point", "coordinates": [ 121.610691291278485, 31.246915347325004 ] } },
{ "type": "Feature", "properties": { "addr": "上海市 浦东新区 永乐村  " }, "geometry": { "type": "Point", "coordinates": [ 121.762237676575538, 31.081001669420488 ] } },
{ "type": "Feature", "properties": { "addr": "上海市 浦东新区 鹤立西路88弄  " }, "geometry": { "type": "Point", "coordinates": [ 121.591231748168582, 31.065555026770038 ] } },
{ "type": "Feature", "properties": { "addr": "上海市 浦东新区 航昌路199弄  " }, "geometry": { "type": "Point", "coordinates": [ 121.615016362817371, 31.08492173263943 ] } },
{ "type": "Feature", "properties": { "addr": "上海市 浦东新区 梓康路258号  " }, "geometry": { "type": "Point", "coordinates": [ 121.57369188393352, 31.128319748302257 ] } },
{ "type": "Feature", "properties": { "addr": "上海市 浦东新区 秀龙村  " }, "geometry": { "type": "Point", "coordinates": [ 121.569139900422797, 31.132605675883436 ] } },
{ "type": "Feature", "properties": { "addr": "上海市 浦东新区 沿江村  " }, "geometry": { "type": "Point", "coordinates": [ 121.608037966293665, 31.060273364197414 ] } },
{ "type": "Feature", "properties": { "addr": "上海市 浦东新区 周市路1321号  " }, "geometry": { "type": "Point", "coordinates": [ 121.589701664393431, 31.119318594332626 ] } },
{ "type": "Feature", "properties": { "addr": "上海市 浦东新区 沈西村  " }, "geometry": { "type": "Point", "coordinates": [ 121.572071969607379, 31.096648242037833 ] } },
{ "type": "Feature", "properties": { "addr": "上海市 浦东新区 施镇路385弄  " }, "geometry": { "type": "Point", "coordinates": [ 121.763791295955045, 31.15034837509582 ] } },
{ "type": "Feature", "properties": { "addr": "上海市 浦东新区 迅建村  " }, "geometry": { "type": "Point", "coordinates": [ 121.699225138272624, 31.284090892321522 ] } },
{ "type": "Feature", "properties": { "addr": "上海市 浦东新区 龚华路50弄  " }, "geometry": { "type": "Point", "coordinates": [ 121.691832533078269, 31.270582837879559 ] } },
{ "type": "Feature", "properties": { "addr": "上海市 浦东新区 群乐村付家圈  " }, "geometry": { "type": "Point", "coordinates": [ 121.68863528410715, 31.287960888558967 ] } },
{ "type": "Feature", "properties": { "addr": "上海市 浦东新区 民建村  " }, "geometry": { "type": "Point", "coordinates": [ 121.667798908142103, 31.282249806545646 ] } },
{ "type": "Feature", "properties": { "addr": "上海市 浦东新区 民区路176弄  " }, "geometry": { "type": "Point", "coordinates": [ 121.657984650953949, 31.27767937775435 ] } },
{ "type": "Feature", "properties": { "addr": "上海市 浦东新区 民春路501弄  " }, "geometry": { "type": "Point", "coordinates": [ 121.652778790862527, 31.290487771739045 ] } },
{ "type": "Feature", "properties": { "addr": "上海市 浦东新区 海松路398弄  " }, "geometry": { "type": "Point", "coordinates": [ 121.687490753056892, 31.283934428831106 ] } },
{ "type": "Feature", "properties": { "addr": "上海市 浦东新区 建新村周家宅  " }, "geometry": { "type": "Point", "coordinates": [ 121.682639184658598, 31.301143069401281 ] } },
{ "type": "Feature", "properties": { "addr": "上海市 浦东新区 古棕路168弄  " }, "geometry": { "type": "Point", "coordinates": [ 121.923877781904906, 30.890266510779377 ] } },
{ "type": "Feature", "properties": { "addr": "上海市 浦东新区 民区路260弄  " }, "geometry": { "type": "Point", "coordinates": [ 121.662034391854036, 31.279504351019632 ] } },
{ "type": "Feature", "properties": { "addr": "上海市 浦东新区 启明村  " }, "geometry": { "type": "Point", "coordinates": [ 121.699185882321842, 31.284123295970193 ] } },
{ "type": "Feature", "properties": { "addr": "上海市 浦东新区 海鸣路98弄  " }, "geometry": { "type": "Point", "coordinates": [ 121.677548217841903, 31.288627833747729 ] } },
{ "type": "Feature", "properties": { "addr": "上海市 浦东新区 顾唐路138弄  " }, "geometry": { "type": "Point", "coordinates": [ 121.652778790862527, 31.290487771739045 ] } },
{ "type": "Feature", "properties": { "addr": "上海市 浦东新区 顾东村  " }, "geometry": { "type": "Point", "coordinates": [ 121.668134784572288, 31.299381001669992 ] } },
{ "type": "Feature", "properties": { "addr": "上海市 浦东新区 海容路99弄  " }, "geometry": { "type": "Point", "coordinates": [ 121.680835027872362, 31.286961889101804 ] } },
{ "type": "Feature", "properties": { "addr": "上海市 浦东新区 永和村  " }, "geometry": { "type": "Point", "coordinates": [ 121.702053992154092, 31.270096557168518 ] } },
{ "type": "Feature", "properties": { "addr": "上海市 浦东新区 康沈路1758弄  " }, "geometry": { "type": "Point", "coordinates": [ 121.58452158567016, 31.119686481592485 ] } },
{ "type": "Feature", "properties": { "addr": "上海市 浦东新区 北庄村  " }, "geometry": { "type": "Point", "coordinates": [ 121.663919575797266, 31.100195748827556 ] } },
{ "type": "Feature", "properties": { "addr": "上海市 浦东新区 康沈路1527弄  " }, "geometry": { "type": "Point", "coordinates": [ 121.582648798342959, 31.124953139907806 ] } },
{ "type": "Feature", "properties": { "addr": "上海市 浦东新区 金银花路凌霄花路南侧工地生活区  " }, "geometry": { "type": "Point", "coordinates": [ 121.630529829483052, 31.104958814154898 ] } },
{ "type": "Feature", "properties": { "addr": "上海市 浦东新区 韵浦路167弄  " }, "geometry": { "type": "Point", "coordinates": [ 121.583000754441755, 31.117705592645105 ] } },
{ "type": "Feature", "properties": { "addr": "上海市 浦东新区 繁荣东路159号  " }, "geometry": { "type": "Point", "coordinates": [ 121.593668401864392, 31.11370372953176 ] } },
{ "type": "Feature", "properties": { "addr": "上海市 浦东新区 周星路500弄  " }, "geometry": { "type": "Point", "coordinates": [ 121.58569980317705, 31.108059311174181 ] } },
{ "type": "Feature", "properties": { "addr": "上海市 浦东新区 瑞阳路693弄  " }, "geometry": { "type": "Point", "coordinates": [ 121.597675024100013, 31.09454387106959 ] } },
{ "type": "Feature", "properties": { "addr": "上海市 浦东新区 周南村  " }, "geometry": { "type": "Point", "coordinates": [ 121.589970886554781, 31.111919735760996 ] } },
{ "type": "Feature", "properties": { "addr": "上海市 浦东新区 周东路418弄  " }, "geometry": { "type": "Point", "coordinates": [ 121.593214488090211, 31.122845151798387 ] } },
{ "type": "Feature", "properties": { "addr": "上海市 浦东新区 周泰路32弄  " }, "geometry": { "type": "Point", "coordinates": [ 121.607434035499296, 31.107255809071958 ] } },
{ "type": "Feature", "properties": { "addr": "上海市 浦东新区 年家浜路339弄  " }, "geometry": { "type": "Point", "coordinates": [ 121.583280127455367, 31.120638189977118 ] } },
{ "type": "Feature", "properties": { "addr": "上海市 浦东新区 周东路508弄  " }, "geometry": { "type": "Point", "coordinates": [ 121.592406462283989, 31.124977793103845 ] } },
{ "type": "Feature", "properties": { "addr": "上海市 浦东新区 年家浜路28弄  " }, "geometry": { "type": "Point", "coordinates": [ 121.592127538423142, 31.1211568569416 ] } },
{ "type": "Feature", "properties": { "addr": "上海市 浦东新区 周阳路258弄  " }, "geometry": { "type": "Point", "coordinates": [ 121.609184832938254, 31.099511845694451 ] } },
{ "type": "Feature", "properties": { "addr": "上海市 浦东新区 坦南村  " }, "geometry": { "type": "Point", "coordinates": [ 121.658849629329509, 31.072493887859476 ] } },
{ "type": "Feature", "properties": { "addr": "上海市 浦东新区 唐陆路1190号  " }, "geometry": { "type": "Point", "coordinates": [ 121.642206453654495, 31.24833734246851 ] } },
{ "type": "Feature", "properties": { "addr": "上海市 浦东新区 金湘路201弄  " }, "geometry": { "type": "Point", "coordinates": [ 121.619764626082016, 31.261871069580963 ] } },
{ "type": "Feature", "properties": { "addr": "上海市 浦东新区 佳乐路255弄  " }, "geometry": { "type": "Point", "coordinates": [ 121.622398906990028, 31.274493516866418 ] } },
{ "type": "Feature", "properties": { "addr": "上海市 浦东新区 碧云路1198号  " }, "geometry": { "type": "Point", "coordinates": [ 121.596007679242931, 31.248880387013411 ] } },
{ "type": "Feature", "properties": { "addr": "上海市 浦东新区 碧云路86弄  " }, "geometry": { "type": "Point", "coordinates": [ 121.580076859837334, 31.241368402522173 ] } },
{ "type": "Feature", "properties": { "addr": "上海市 浦东新区 长岛路1398弄  " }, "geometry": { "type": "Point", "coordinates": [ 121.605978421250938, 31.269798784217294 ] } },
{ "type": "Feature", "properties": { "addr": "上海市 浦东新区 博兴路1268弄  " }, "geometry": { "type": "Point", "coordinates": [ 121.603268092365056, 31.273380572816723 ] } },
{ "type": "Feature", "properties": { "addr": "上海市 浦东新区 东后老街  " }, "geometry": { "type": "Point", "coordinates": [ 121.654777969774969, 31.027548018802232 ] } },
{ "type": "Feature", "properties": { "addr": "上海市 浦东新区 新环北路1333弄  " }, "geometry": { "type": "Point", "coordinates": [ 121.641548355037884, 31.035528578829364 ] } },
{ "type": "Feature", "properties": { "addr": "上海市 浦东新区 仁义村  " }, "geometry": { "type": "Point", "coordinates": [ 121.647293378096393, 31.064314697494762 ] } },
{ "type": "Feature", "properties": { "addr": "上海市 浦东新区 众安村  " }, "geometry": { "type": "Point", "coordinates": [ 121.656744719858523, 31.003942768973364 ] } },
{ "type": "Feature", "properties": { "addr": "上海市 浦东新区 新卫村  " }, "geometry": { "type": "Point", "coordinates": [ 121.647615151130069, 31.044082628274037 ] } },
{ "type": "Feature", "properties": { "addr": "上海市 浦东新区 王桥村  " }, "geometry": { "type": "Point", "coordinates": [ 121.70182842764055, 31.212551353419951 ] } },
{ "type": "Feature", "properties": { "addr": "上海市 浦东新区 坦西村  " }, "geometry": { "type": "Point", "coordinates": [ 121.65331067755497, 31.091888312065223 ] } },
{ "type": "Feature", "properties": { "addr": "上海市 浦东新区 合庆镇奚家队杨家宅  " }, "geometry": { "type": "Point", "coordinates": [ 121.72998850876732, 31.243208518641033 ] } },
{ "type": "Feature", "properties": { "addr": "上海市 浦东新区 合庆镇庆丰村邬家宅  " }, "geometry": { "type": "Point", "coordinates": [ 121.723719504104849, 31.247052191371662 ] } },
{ "type": "Feature", "properties": { "addr": "上海市 浦东新区 庆利路425号  " }, "geometry": { "type": "Point", "coordinates": [ 121.732170492851068, 31.237505816197611 ] } },
{ "type": "Feature", "properties": { "addr": "上海市 浦东新区 前哨路231弄  " }, "geometry": { "type": "Point", "coordinates": [ 121.729274724713179, 31.244442779758597 ] } },
{ "type": "Feature", "properties": { "addr": "上海市 浦东新区 博兴路799弄  " }, "geometry": { "type": "Point", "coordinates": [ 121.59697731021042, 31.27188533546996 ] } },
{ "type": "Feature", "properties": { "addr": "上海市 浦东新区 荷泽路418弄  " }, "geometry": { "type": "Point", "coordinates": [ 121.599695133530844, 31.272904635194184 ] } },
{ "type": "Feature", "properties": { "addr": "上海市 浦东新区 张杨北路512弄  " }, "geometry": { "type": "Point", "coordinates": [ 121.595559065471249, 31.271399293025119 ] } },
{ "type": "Feature", "properties": { "addr": "上海市 浦东新区 川沙路4850弄  " }, "geometry": { "type": "Point", "coordinates": [ 121.652778790862527, 31.290487771739045 ] } },
{ "type": "Feature", "properties": { "addr": "上海市 浦东新区 南桥路983弄  " }, "geometry": { "type": "Point", "coordinates": [ 121.69942851464009, 31.193460242298354 ] } },
{ "type": "Feature", "properties": { "addr": "上海市 浦东新区 新德路558弄  " }, "geometry": { "type": "Point", "coordinates": [ 121.698400942967226, 31.203004624055815 ] } },
{ "type": "Feature", "properties": { "addr": "上海市 浦东新区 绣川路1130号  " }, "geometry": { "type": "Point", "coordinates": [ 121.716324653146714, 31.191722787773212 ] } },
{ "type": "Feature", "properties": { "addr": "上海市 浦东新区 妙栏路353弄  " }, "geometry": { "type": "Point", "coordinates": [ 121.696058341858304, 31.192565030175434 ] } },
{ "type": "Feature", "properties": { "addr": "上海市 浦东新区 城南路627弄  " }, "geometry": { "type": "Point", "coordinates": [ 121.701626219070249, 31.19559058416537 ] } },
{ "type": "Feature", "properties": { "addr": "上海市 浦东新区 江晖路296弄  " }, "geometry": { "type": "Point", "coordinates": [ 121.743787020383891, 31.179845869758992 ] } },
{ "type": "Feature", "properties": { "addr": "上海市 浦东新区 新东路5号  " }, "geometry": { "type": "Point", "coordinates": [ 121.74713293891692, 31.19873751074223 ] } },
{ "type": "Feature", "properties": { "addr": "上海市 浦东新区 南桥路1060弄  " }, "geometry": { "type": "Point", "coordinates": [ 121.69740876453146, 31.193551137667953 ] } },
{ "type": "Feature", "properties": { "addr": "上海市 浦东新区 妙境路124弄  " }, "geometry": { "type": "Point", "coordinates": [ 121.695108922764817, 31.202324712849943 ] } },
{ "type": "Feature", "properties": { "addr": "上海市 浦东新区 华夏二路1255弄  " }, "geometry": { "type": "Point", "coordinates": [ 121.698001915659688, 31.182811977167781 ] } },
{ "type": "Feature", "properties": { "addr": "上海市 浦东新区 城南路677号  " }, "geometry": { "type": "Point", "coordinates": [ 121.700604546270228, 31.195847741710327 ] } },
{ "type": "Feature", "properties": { "addr": "上海市 浦东新区 妙境路600弄  " }, "geometry": { "type": "Point", "coordinates": [ 121.697713379929894, 31.195320915495213 ] } },
{ "type": "Feature", "properties": { "addr": "上海市 浦东新区 小湾村  " }, "geometry": { "type": "Point", "coordinates": [ 121.696076936782362, 31.239790227114451 ] } },
{ "type": "Feature", "properties": { "addr": "上海市 浦东新区 妙境路395弄  " }, "geometry": { "type": "Point", "coordinates": [ 121.697778417248813, 31.199178678989814 ] } },
{ "type": "Feature", "properties": { "addr": "上海市 浦东新区 川环南路921弄  " }, "geometry": { "type": "Point", "coordinates": [ 121.701443773221172, 31.191838474918793 ] } },
{ "type": "Feature", "properties": { "addr": "上海市 浦东新区 新吉村  " }, "geometry": { "type": "Point", "coordinates": [ 121.725028425063428, 31.11674713037451 ] } },
{ "type": "Feature", "properties": { "addr": "上海市 浦东新区 银峰路676弄  " }, "geometry": { "type": "Point", "coordinates": [ 121.652778790862527, 31.290487771739045 ] } },
{ "type": "Feature", "properties": { "addr": "上海市 浦东新区 妙南路265弄  " }, "geometry": { "type": "Point", "coordinates": [ 121.694842215858884, 31.191976480692698 ] } },
{ "type": "Feature", "properties": { "addr": "上海市 浦东新区 华夏二路200弄  " }, "geometry": { "type": "Point", "coordinates": [ 121.690606435887702, 31.200057534311252 ] } },
{ "type": "Feature", "properties": { "addr": "上海市 浦东新区 五莲路1168号  " }, "geometry": { "type": "Point", "coordinates": [ 121.602929392688978, 31.278456344054472 ] } },
{ "type": "Feature", "properties": { "addr": "上海市 浦东新区 柳埠路135弄  " }, "geometry": { "type": "Point", "coordinates": [ 121.58893424199627, 31.268891029980523 ] } },
{ "type": "Feature", "properties": { "addr": "上海市 浦东新区 金桥路2552弄  " }, "geometry": { "type": "Point", "coordinates": [ 121.60918438378549, 31.239913033365511 ] } },
{ "type": "Feature", "properties": { "addr": "上海市 浦东新区 瑞浦路77弄  " }, "geometry": { "type": "Point", "coordinates": [ 121.592640920022092, 31.103960025909874 ] } },
{ "type": "Feature", "properties": { "addr": "上海市 浦东新区 川化新村  " }, "geometry": { "type": "Point", "coordinates": [ 121.694199927419263, 31.224799243530995 ] } },
{ "type": "Feature", "properties": { "addr": "上海市 浦东新区 桂江路77弄  " }, "geometry": { "type": "Point", "coordinates": [ 121.435059628478456, 31.172178878038171 ] } },
{ "type": "Feature", "properties": { "addr": "上海市 浦东新区 康安路御北路交界口工地生活区  " }, "geometry": { "type": "Point", "coordinates": [ 121.563785999583331, 31.163939297232389 ] } },
{ "type": "Feature", "properties": { "addr": "上海市 浦东新区 莲安西路125弄  " }, "geometry": { "type": "Point", "coordinates": [ 121.559745780721656, 31.185327182486329 ] } },
{ "type": "Feature", "properties": { "addr": "上海市 浦东新区 御青路56弄  " }, "geometry": { "type": "Point", "coordinates": [ 121.578469072635571, 31.165031924344618 ] } },
{ "type": "Feature", "properties": { "addr": "上海市 浦东新区 杨南路689弄  " }, "geometry": { "type": "Point", "coordinates": [ 121.507104628684189, 31.156917721095311 ] } },
{ "type": "Feature", "properties": { "addr": "上海市 浦东新区 闵家浜路70弄  " }, "geometry": { "type": "Point", "coordinates": [ 121.550454606831948, 31.227348292436346 ] } },
{ "type": "Feature", "properties": { "addr": "上海市 浦东新区 张家桥村  " }, "geometry": { "type": "Point", "coordinates": [ 121.693207659152947, 31.043286160191865 ] } },
{ "type": "Feature", "properties": { "addr": "上海市 浦东新区 新安村  " }, "geometry": { "type": "Point", "coordinates": [ 121.687760154879328, 31.029332219409053 ] } },
{ "type": "Feature", "properties": { "addr": "上海市 浦东新区 南六公路699弄1支弄  " }, "geometry": { "type": "Point", "coordinates": [ 121.715779291871598, 31.077908940468738 ] } },
{ "type": "Feature", "properties": { "addr": "上海市 浦东新区 闵家浜路60弄  " }, "geometry": { "type": "Point", "coordinates": [ 121.728511604678374, 31.080777521701723 ] } },
{ "type": "Feature", "properties": { "addr": "上海市 浦东新区 永业路218弄  " }, "geometry": { "type": "Point", "coordinates": [ 121.622881566540542, 31.272262037844655 ] } },
{ "type": "Feature", "properties": { "addr": "上海市 浦东新区 永宁路136弄  " }, "geometry": { "type": "Point", "coordinates": [ 121.616396968555662, 31.271543122962676 ] } },
{ "type": "Feature", "properties": { "addr": "上海市 浦东新区 佳林路115弄  " }, "geometry": { "type": "Point", "coordinates": [ 121.615851786941661, 31.274977922870395 ] } },
{ "type": "Feature", "properties": { "addr": "上海市 浦东新区 韵涛路36弄  " }, "geometry": { "type": "Point", "coordinates": [ 121.584859707864112, 31.120077939878794 ] } },
{ "type": "Feature", "properties": { "addr": "上海市 浦东新区 顾三村  " }, "geometry": { "type": "Point", "coordinates": [ 121.682658228735406, 31.301055132650703 ] } },
{ "type": "Feature", "properties": { "addr": "上海市 浦东新区 上川路中虹家园  " }, "geometry": { "type": "Point", "coordinates": [ 121.678870254060939, 31.28887802375613 ] } },
{ "type": "Feature", "properties": { "addr": "上海市 浦东新区 永丰村陈家宅  " }, "geometry": { "type": "Point", "coordinates": [ 121.683246259522249, 31.257492423349778 ] } },
{ "type": "Feature", "properties": { "addr": "上海市 浦东新区 日新村杨薛家宅  " }, "geometry": { "type": "Point", "coordinates": [ 121.674955438648453, 31.26547221132191 ] } },
{ "type": "Feature", "properties": { "addr": "上海市 浦东新区 永春南路407弄  " }, "geometry": { "type": "Point", "coordinates": [ 121.745271615474124, 30.974554953393071 ] } },
{ "type": "Feature", "properties": { "addr": "上海市 浦东新区 永春西二路86弄  " }, "geometry": { "type": "Point", "coordinates": [ 121.74365856269597, 30.980349185265929 ] } },
{ "type": "Feature", "properties": { "addr": "上海市 浦东新区 柴场村  " }, "geometry": { "type": "Point", "coordinates": [ 121.732663662576044, 31.186753897798436 ] } },
{ "type": "Feature", "properties": { "addr": "上海市 浦东新区 赵桥村  " }, "geometry": { "type": "Point", "coordinates": [ 121.653830886275799, 31.297234123668435 ] } },
{ "type": "Feature", "properties": { "addr": "上海市 浦东新区 严楼村  " }, "geometry": { "type": "Point", "coordinates": [ 121.754048813377125, 31.022881845483141 ] } },
{ "type": "Feature", "properties": { "addr": "上海市 浦东新区 浦东大道2970弄  " }, "geometry": { "type": "Point", "coordinates": [ 121.585274365687511, 31.282935231984698 ] } },
{ "type": "Feature", "properties": { "addr": "上海市 浦东新区 五莲路100弄  " }, "geometry": { "type": "Point", "coordinates": [ 121.585797359155421, 31.281678100479343 ] } },
{ "type": "Feature", "properties": { "addr": "上海市 浦东新区 兰城路115弄  " }, "geometry": { "type": "Point", "coordinates": [ 121.585504152236965, 31.272452471814049 ] } },
{ "type": "Feature", "properties": { "addr": "上海市 浦东新区 寿光路75弄  " }, "geometry": { "type": "Point", "coordinates": [ 121.589577991098622, 31.279647069122593 ] } },
{ "type": "Feature", "properties": { "addr": "上海市 浦东新区 柳埠路142弄  " }, "geometry": { "type": "Point", "coordinates": [ 121.588915647072199, 31.269330401417204 ] } },
{ "type": "Feature", "properties": { "addr": "上海市 浦东新区 浦东大道3080弄  " }, "geometry": { "type": "Point", "coordinates": [ 121.584325575407888, 31.288610244045692 ] } },
{ "type": "Feature", "properties": { "addr": "上海市 浦东新区 莱阳路201弄  " }, "geometry": { "type": "Point", "coordinates": [ 121.586405332324574, 31.27945497158419 ] } },
{ "type": "Feature", "properties": { "addr": "上海市 浦东新区 浦东大道2920弄  " }, "geometry": { "type": "Point", "coordinates": [ 121.583602619133444, 31.280936343289373 ] } },
{ "type": "Feature", "properties": { "addr": "上海市 浦东新区 东波路258号  " }, "geometry": { "type": "Point", "coordinates": [ 121.587683441404167, 31.289948980623233 ] } },
{ "type": "Feature", "properties": { "addr": "上海市 浦东新区 长岛路85弄  " }, "geometry": { "type": "Point", "coordinates": [ 121.584693431514211, 31.274539040952714 ] } },
{ "type": "Feature", "properties": { "addr": "上海市 浦东新区 张杨北路555弄  " }, "geometry": { "type": "Point", "coordinates": [ 121.593490267881762, 31.272064273145428 ] } },
{ "type": "Feature", "properties": { "addr": "上海市 浦东新区 向东新村  " }, "geometry": { "type": "Point", "coordinates": [ 121.584945585870869, 31.279319100846607 ] } },
{ "type": "Feature", "properties": { "addr": "上海市 浦东新区 长岛路99号  " }, "geometry": { "type": "Point", "coordinates": [ 121.583231618957825, 31.273668138186082 ] } },
{ "type": "Feature", "properties": { "addr": "上海市 浦东新区 长岛路259弄  " }, "geometry": { "type": "Point", "coordinates": [ 121.583252369815099, 31.273179327236935 ] } },
{ "type": "Feature", "properties": { "addr": "上海市 浦东新区 博兴路250弄  " }, "geometry": { "type": "Point", "coordinates": [ 121.586387276383832, 31.274900995229025 ] } },
{ "type": "Feature", "properties": { "addr": "上海市 浦东新区 莱阳路218号  " }, "geometry": { "type": "Point", "coordinates": [ 121.58962611690005, 31.28158489894264 ] } },
{ "type": "Feature", "properties": { "addr": "上海市 浦东新区 博兴路456弄  " }, "geometry": { "type": "Point", "coordinates": [ 121.58962611690005, 31.28158489894264 ] } },
{ "type": "Feature", "properties": { "addr": "上海市 浦东新区 川周公路8288弄  " }, "geometry": { "type": "Point", "coordinates": [ 121.711194969362538, 31.183508867105392 ] } },
{ "type": "Feature", "properties": { "addr": "上海市 浦东新区 翔川路458弄  " }, "geometry": { "type": "Point", "coordinates": [ 121.70152318342825, 31.189031438161631 ] } },
{ "type": "Feature", "properties": { "addr": "上海市 浦东新区 川周公路8682号  " }, "geometry": { "type": "Point", "coordinates": [ 121.716118941184931, 31.190439793852903 ] } },
{ "type": "Feature", "properties": { "addr": "上海市 浦东新区 华戴路299弄  " }, "geometry": { "type": "Point", "coordinates": [ 121.704312422036736, 31.187521193350097 ] } },
{ "type": "Feature", "properties": { "addr": "上海市 浦东新区 华戴路599弄  " }, "geometry": { "type": "Point", "coordinates": [ 121.705983000793651, 31.182103882872319 ] } },
{ "type": "Feature", "properties": { "addr": "上海市 浦东新区 民生路818弄  " }, "geometry": { "type": "Point", "coordinates": [ 121.552762623178737, 31.237661739919705 ] } },
{ "type": "Feature", "properties": { "addr": "上海市 浦东新区 羽山路100弄  " }, "geometry": { "type": "Point", "coordinates": [ 121.544430480251492, 31.235493219005079 ] } },
{ "type": "Feature", "properties": { "addr": "上海市 浦东新区 区巨野路1700弄  " }, "geometry": { "type": "Point", "coordinates": [ 121.550454606831948, 31.227348292436346 ] } },
{ "type": "Feature", "properties": { "addr": "上海市 浦东新区 苗圃路218弄  " }, "geometry": { "type": "Point", "coordinates": [ 121.554079718717475, 31.248664744062587 ] } },
{ "type": "Feature", "properties": { "addr": "上海市 浦东新区 栖山路450弄  " }, "geometry": { "type": "Point", "coordinates": [ 121.557953122245948, 31.253811250753607 ] } },
{ "type": "Feature", "properties": { "addr": "上海市 浦东新区 巨野路482弄  " }, "geometry": { "type": "Point", "coordinates": [ 121.554944158109734, 31.242174152454698 ] } },
{ "type": "Feature", "properties": { "addr": "上海市 浦东新区 巨野路197弄  " }, "geometry": { "type": "Point", "coordinates": [ 121.55197768382412, 31.248084805613694 ] } },
{ "type": "Feature", "properties": { "addr": "上海市 浦东新区 栖山路465弄  " }, "geometry": { "type": "Point", "coordinates": [ 121.557328440594304, 31.253880941167854 ] } },
{ "type": "Feature", "properties": { "addr": "上海市 浦东新区 灵山路701弄  " }, "geometry": { "type": "Point", "coordinates": [ 121.55204514656792, 31.236214804107753 ] } },
{ "type": "Feature", "properties": { "addr": "上海市 浦东新区 沈家弄路900弄  " }, "geometry": { "type": "Point", "coordinates": [ 121.551370339468832, 31.244946021226362 ] } },
{ "type": "Feature", "properties": { "addr": "上海市 浦东新区 浦东大道1700弄  " }, "geometry": { "type": "Point", "coordinates": [ 121.550423794952962, 31.251381932381559 ] } },
{ "type": "Feature", "properties": { "addr": "上海市 浦东新区 栖山路130弄  " }, "geometry": { "type": "Point", "coordinates": [ 121.551266405521332, 31.249307117786248 ] } },
{ "type": "Feature", "properties": { "addr": "上海市 浦东新区 北项湾  " }, "geometry": { "type": "Point", "coordinates": [ 121.560166996175298, 31.367679309466983 ] } },
{ "type": "Feature", "properties": { "addr": "上海市 浦东新区 季景路370弄  " }, "geometry": { "type": "Point", "coordinates": [ 121.595858650358821, 31.342088287628954 ] } },
{ "type": "Feature", "properties": { "addr": "上海市 浦东新区 新德路341弄  " }, "geometry": { "type": "Point", "coordinates": [ 121.705113980043294, 31.203572332618545 ] } },
{ "type": "Feature", "properties": { "addr": "上海市 浦东新区 进贤路155弄  " }, "geometry": { "type": "Point", "coordinates": [ 121.698322341235098, 31.198003203865806 ] } },
{ "type": "Feature", "properties": { "addr": "上海市 浦东新区 川沙路4650弄  " }, "geometry": { "type": "Point", "coordinates": [ 121.703112735028157, 31.204157874991878 ] } },
{ "type": "Feature", "properties": { "addr": "上海市 浦东新区 新虹村赵家宅  " }, "geometry": { "type": "Point", "coordinates": [ 121.655033627523125, 31.248713367963926 ] } },
{ "type": "Feature", "properties": { "addr": "上海市 浦东新区 川沙路4028号  " }, "geometry": { "type": "Point", "coordinates": [ 121.698133966569671, 31.215202033387943 ] } },
{ "type": "Feature", "properties": { "addr": "上海市 浦东新区 虹四村  " }, "geometry": { "type": "Point", "coordinates": [ 121.661870451098466, 31.246575513217142 ] } },
{ "type": "Feature", "properties": { "addr": "上海市 浦东新区 周秀路168弄  " }, "geometry": { "type": "Point", "coordinates": [ 121.613096863603658, 31.104055414085327 ] } },
{ "type": "Feature", "properties": { "addr": "上海市 浦东新区 红桥村  " }, "geometry": { "type": "Point", "coordinates": [ 121.639952155977198, 31.108110249652228 ] } },
{ "type": "Feature", "properties": { "addr": "上海市 浦东新区 姚桥村  " }, "geometry": { "type": "Point", "coordinates": [ 121.604918420749172, 31.120351998352223 ] } },
{ "type": "Feature", "properties": { "addr": "上海市 浦东新区 梅林村  " }, "geometry": { "type": "Point", "coordinates": [ 121.568653557819701, 31.092572579867824 ] } },
{ "type": "Feature", "properties": { "addr": "上海市 浦东新区 康达路118弄  " }, "geometry": { "type": "Point", "coordinates": [ 121.584859707864112, 31.120077939878794 ] } },
{ "type": "Feature", "properties": { "addr": "上海市 浦东新区 瑞福路196弄  " }, "geometry": { "type": "Point", "coordinates": [ 121.609276999083576, 31.102197878158577 ] } },
{ "type": "Feature", "properties": { "addr": "上海市 浦东新区 瑞安路211弄  " }, "geometry": { "type": "Point", "coordinates": [ 121.597322259526237, 31.09677571959406 ] } },
{ "type": "Feature", "properties": { "addr": "上海市 浦东新区 祝家港路399弄  " }, "geometry": { "type": "Point", "coordinates": [ 121.598346597299269, 31.117523500250741 ] } },
{ "type": "Feature", "properties": { "addr": "上海市 浦东新区 瑞阳路81弄  " }, "geometry": { "type": "Point", "coordinates": [ 121.594743853220947, 31.10537166826629 ] } },
{ "type": "Feature", "properties": { "addr": "上海市 浦东新区 周市路39弄  " }, "geometry": { "type": "Point", "coordinates": [ 121.58821829250482, 31.116204711059531 ] } },
{ "type": "Feature", "properties": { "addr": "上海市 浦东新区 周汇路158弄  " }, "geometry": { "type": "Point", "coordinates": [ 121.584859707864112, 31.120077939878794 ] } },
{ "type": "Feature", "properties": { "addr": "上海市 浦东新区 安阁苑  " }, "geometry": { "type": "Point", "coordinates": [ 121.597518629110724, 31.093266351677208 ] } },
{ "type": "Feature", "properties": { "addr": "上海市 浦东新区 城丰路70弄  " }, "geometry": { "type": "Point", "coordinates": [ 121.695835112939079, 31.197620178960314 ] } },
{ "type": "Feature", "properties": { "addr": "上海市 浦东新区 新春村朱家宅  " }, "geometry": { "type": "Point", "coordinates": [ 121.691299748080297, 31.171772110862882 ] } },
{ "type": "Feature", "properties": { "addr": "上海市 浦东新区 城丰路212弄  " }, "geometry": { "type": "Point", "coordinates": [ 121.693195891350754, 31.196568782990489 ] } },
{ "type": "Feature", "properties": { "addr": "上海市 浦东新区 芙蓉路81弄  " }, "geometry": { "type": "Point", "coordinates": [ 121.675170582818097, 31.17059065309083 ] } },
{ "type": "Feature", "properties": { "addr": "上海市 浦东新区 创新西路199弄  " }, "geometry": { "type": "Point", "coordinates": [ 121.660810450596685, 31.207582255485885 ] } },
{ "type": "Feature", "properties": { "addr": "上海市 浦东新区 民丰村李家宅  " }, "geometry": { "type": "Point", "coordinates": [ 121.64861595329873, 31.214212833818383 ] } },
{ "type": "Feature", "properties": { "addr": "上海市 浦东新区 民丰村龚家宅  " }, "geometry": { "type": "Point", "coordinates": [ 121.644742190448056, 31.207675762451128 ] } },
{ "type": "Feature", "properties": { "addr": "上海市 浦东新区 唐镇新街  " }, "geometry": { "type": "Point", "coordinates": [ 121.662458122563081, 31.216518273368063 ] } },
{ "type": "Feature", "properties": { "addr": "上海市 浦东新区 吕三村南蒋家宅  " }, "geometry": { "type": "Point", "coordinates": [ 121.644956975295486, 31.219218638333935 ] } },
{ "type": "Feature", "properties": { "addr": "上海市 浦东新区 民丰村北黄家宅  " }, "geometry": { "type": "Point", "coordinates": [ 121.65243986019361, 31.21196594073653 ] } },
{ "type": "Feature", "properties": { "addr": "上海市 浦东新区 行南路900弄  " }, "geometry": { "type": "Point", "coordinates": [ 121.592957033731054, 31.335887101737764 ] } },
{ "type": "Feature", "properties": { "addr": "上海市 浦东新区 北新园路460弄  " }, "geometry": { "type": "Point", "coordinates": [ 121.634743151816494, 31.326191717177842 ] } },
{ "type": "Feature", "properties": { "addr": "上海市 浦东新区 高宝路68弄  " }, "geometry": { "type": "Point", "coordinates": [ 121.627291527950121, 31.297370662599629 ] } },
{ "type": "Feature", "properties": { "addr": "上海市 浦东新区 陆凌村宋家宅  " }, "geometry": { "type": "Point", "coordinates": [ 121.570109621220823, 31.352399705849844 ] } },
{ "type": "Feature", "properties": { "addr": "上海市 浦东新区 清溪路260弄  " }, "geometry": { "type": "Point", "coordinates": [ 121.580223283635462, 31.348955343285247 ] } },
{ "type": "Feature", "properties": { "addr": "上海市 浦东新区 望三村东唐家宅  " }, "geometry": { "type": "Point", "coordinates": [ 121.770959953585773, 31.159674808829035 ] } },
{ "type": "Feature", "properties": { "addr": "上海市 浦东新区 航城三路86弄  " }, "geometry": { "type": "Point", "coordinates": [ 121.75078428132332, 31.154422072757939 ] } },
{ "type": "Feature", "properties": { "addr": "上海市 浦东新区 航城三路288弄  " }, "geometry": { "type": "Point", "coordinates": [ 121.753723986104717, 31.156274867960629 ] } },
{ "type": "Feature", "properties": { "addr": "上海市 浦东新区 施湾二路766弄  " }, "geometry": { "type": "Point", "coordinates": [ 121.753094902756089, 31.152146859432357 ] } },
{ "type": "Feature", "properties": { "addr": "上海市 浦东新区 航城五路151弄  " }, "geometry": { "type": "Point", "coordinates": [ 121.754215359218691, 31.148331664371444 ] } },
{ "type": "Feature", "properties": { "addr": "上海市 浦东新区 金高路1620号  " }, "geometry": { "type": "Point", "coordinates": [ 121.616156402340096, 31.277844261808408 ] } },
{ "type": "Feature", "properties": { "addr": "上海市 浦东新区 金高路2131弄  " }, "geometry": { "type": "Point", "coordinates": [ 121.617046533269928, 31.267471971131776 ] } },
{ "type": "Feature", "properties": { "addr": "上海市 浦东新区 祥安路149弄  " }, "geometry": { "type": "Point", "coordinates": [ 121.819506629108758, 30.965455197561468 ] } },
{ "type": "Feature", "properties": { "addr": "上海市 浦东新区 博兴路1676弄  " }, "geometry": { "type": "Point", "coordinates": [ 121.60817944941148, 31.281497329533256 ] } },
{ "type": "Feature", "properties": { "addr": "上海市 浦东新区 长岛路1338弄  " }, "geometry": { "type": "Point", "coordinates": [ 121.603227719948833, 31.268323872014982 ] } },
{ "type": "Feature", "properties": { "addr": "上海市 浦东新区 荷泽路828弄  " }, "geometry": { "type": "Point", "coordinates": [ 121.60370669644675, 31.266175585318496 ] } },
{ "type": "Feature", "properties": { "addr": "上海市 浦东新区 凌河路38弄  " }, "geometry": { "type": "Point", "coordinates": [ 121.600753606913244, 31.282569682663706 ] } },
{ "type": "Feature", "properties": { "addr": "上海市 浦东新区 营前村  " }, "geometry": { "type": "Point", "coordinates": [ 121.7544008593065, 31.195509266632651 ] } },
{ "type": "Feature", "properties": { "addr": "上海市 浦东新区 晚霞路715弄  " }, "geometry": { "type": "Point", "coordinates": [ 121.760628991068259, 31.184636677841034 ] } },
{ "type": "Feature", "properties": { "addr": "上海市 浦东新区 大沟村  " }, "geometry": { "type": "Point", "coordinates": [ 121.764966099900988, 31.17838792208536 ] } },
{ "type": "Feature", "properties": { "addr": "上海市 浦东新区 清溪路299弄  " }, "geometry": { "type": "Point", "coordinates": [ 121.57943744597533, 31.347976965659051 ] } },
{ "type": "Feature", "properties": { "addr": "上海市 浦东新区 冬融路25弄  " }, "geometry": { "type": "Point", "coordinates": [ 121.596259923430139, 31.340276104212219 ] } },
{ "type": "Feature", "properties": { "addr": "上海市 浦东新区 秋霞路300弄  " }, "geometry": { "type": "Point", "coordinates": [ 121.593594201829276, 31.340699641534979 ] } },
{ "type": "Feature", "properties": { "addr": "上海市 浦东新区 春晖路446弄  " }, "geometry": { "type": "Point", "coordinates": [ 121.586944944444426, 31.34463914803764 ] } },
{ "type": "Feature", "properties": { "addr": "上海市 浦东新区 行泰路150弄  " }, "geometry": { "type": "Point", "coordinates": [ 121.61433778283515, 31.295245646775623 ] } },
{ "type": "Feature", "properties": { "addr": "上海市 浦东新区 荷泽路25弄  " }, "geometry": { "type": "Point", "coordinates": [ 121.596918471199501, 31.279466390580961 ] } },
{ "type": "Feature", "properties": { "addr": "上海市 浦东新区 长岛路1203弄  " }, "geometry": { "type": "Point", "coordinates": [ 121.600997586689758, 31.270094010785566 ] } },
{ "type": "Feature", "properties": { "addr": "上海市 浦东新区 双桥路220弄  " }, "geometry": { "type": "Point", "coordinates": [ 121.58962611690005, 31.28158489894264 ] } },
{ "type": "Feature", "properties": { "addr": "上海市 浦东新区 平度路388弄  " }, "geometry": { "type": "Point", "coordinates": [ 121.598954121315657, 31.259062505588115 ] } },
{ "type": "Feature", "properties": { "addr": "上海市 浦东新区 双桥路180弄  " }, "geometry": { "type": "Point", "coordinates": [ 121.600158299851785, 31.29039265033769 ] } },
{ "type": "Feature", "properties": { "addr": "上海市 浦东新区 荷泽路58弄  " }, "geometry": { "type": "Point", "coordinates": [ 121.596890803389797, 31.278780862523867 ] } },
{ "type": "Feature", "properties": { "addr": "上海市 浦东新区 台儿庄路663弄  " }, "geometry": { "type": "Point", "coordinates": [ 121.60033796095378, 31.264978881782035 ] } },
{ "type": "Feature", "properties": { "addr": "上海市 浦东新区 东陆路1018弄  " }, "geometry": { "type": "Point", "coordinates": [ 121.599020955245621, 31.277911928226455 ] } },
{ "type": "Feature", "properties": { "addr": "上海市 浦东新区 博兴路760弄  " }, "geometry": { "type": "Point", "coordinates": [ 121.594819310883793, 31.27043152166808 ] } },
{ "type": "Feature", "properties": { "addr": "上海市 浦东新区 东陆路898弄  " }, "geometry": { "type": "Point", "coordinates": [ 121.598981609464275, 31.280897766199242 ] } },
{ "type": "Feature", "properties": { "addr": "上海市 浦东新区 金工路172弄  " }, "geometry": { "type": "Point", "coordinates": [ 121.596564808320238, 31.262466587897183 ] } },
{ "type": "Feature", "properties": { "addr": "上海市 浦东新区 长岛路1560弄  " }, "geometry": { "type": "Point", "coordinates": [ 121.608314285068531, 31.270698813371908 ] } },
{ "type": "Feature", "properties": { "addr": "上海市 浦东新区 金工路133弄  " }, "geometry": { "type": "Point", "coordinates": [ 121.58962611690005, 31.28158489894264 ] } },
{ "type": "Feature", "properties": { "addr": "上海市 浦东新区 五莲路959弄  " }, "geometry": { "type": "Point", "coordinates": [ 121.598657680497368, 31.277323915445891 ] } },
{ "type": "Feature", "properties": { "addr": "上海市 浦东新区 向城路19号  " }, "geometry": { "type": "Point", "coordinates": [ 121.536425051038222, 31.230451848509809 ] } },
{ "type": "Feature", "properties": { "addr": "上海市 浦东新区 向城路29号  " }, "geometry": { "type": "Point", "coordinates": [ 121.536260930621552, 31.230963732765602 ] } },
{ "type": "Feature", "properties": { "addr": "上海市 浦东新区 崂山路551弄  " }, "geometry": { "type": "Point", "coordinates": [ 121.528755677916237, 31.232572857538436 ] } },
{ "type": "Feature", "properties": { "addr": "上海市 浦东新区 潍坊西路1弄  " }, "geometry": { "type": "Point", "coordinates": [ 121.550454606831948, 31.227348292436346 ] } },
{ "type": "Feature", "properties": { "addr": "上海市 浦东新区 张杨路1338号  " }, "geometry": { "type": "Point", "coordinates": [ 121.539192460822818, 31.23813383213902 ] } },
{ "type": "Feature", "properties": { "addr": "上海市 浦东新区 潍坊西路2弄  " }, "geometry": { "type": "Point", "coordinates": [ 121.550454606831948, 31.227348292436346 ] } },
{ "type": "Feature", "properties": { "addr": "上海市 浦东新区 张杨路1308号  " }, "geometry": { "type": "Point", "coordinates": [ 121.537850931374209, 31.237263516392908 ] } },
{ "type": "Feature", "properties": { "addr": "上海市 浦东新区 潍坊路89弄  " }, "geometry": { "type": "Point", "coordinates": [ 121.526387025947528, 31.229708372361436 ] } },
{ "type": "Feature", "properties": { "addr": "上海市 浦东新区 潍坊路126弄  " }, "geometry": { "type": "Point", "coordinates": [ 121.530665475430453, 31.229645611618768 ] } },
{ "type": "Feature", "properties": { "addr": "上海市 浦东新区 福山路519号  " }, "geometry": { "type": "Point", "coordinates": [ 121.538800889451011, 31.228370239363002 ] } },
{ "type": "Feature", "properties": { "addr": "上海市 浦东新区 崂山路645弄  " }, "geometry": { "type": "Point", "coordinates": [ 121.531348816431887, 31.227805460283697 ] } },
{ "type": "Feature", "properties": { "addr": "上海市 浦东新区 浦电路48弄  " }, "geometry": { "type": "Point", "coordinates": [ 121.523018290454559, 31.224774384963634 ] } },
{ "type": "Feature", "properties": { "addr": "上海市 浦东新区 浦东南路1200号  " }, "geometry": { "type": "Point", "coordinates": [ 121.522643607226343, 31.232223939572972 ] } },
{ "type": "Feature", "properties": { "addr": "上海市 浦东新区 商城路48弄  " }, "geometry": { "type": "Point", "coordinates": [ 121.601942065102961, 31.034311835001294 ] } },
{ "type": "Feature", "properties": { "addr": "上海市 浦东新区 海桥村  " }, "geometry": { "type": "Point", "coordinates": [ 121.617062972260754, 31.016067923499705 ] } },
{ "type": "Feature", "properties": { "addr": "上海市 浦东新区 福善村  " }, "geometry": { "type": "Point", "coordinates": [ 121.61855559669614, 31.03197716526471 ] } },
{ "type": "Feature", "properties": { "addr": "上海市 浦东新区 环镇东路185弄  " }, "geometry": { "type": "Point", "coordinates": [ 121.610847955759425, 31.026461839306101 ] } },
{ "type": "Feature", "properties": { "addr": "上海市 浦东新区 丰桥村  " }, "geometry": { "type": "Point", "coordinates": [ 121.59938485880771, 31.018896066472166 ] } },
{ "type": "Feature", "properties": { "addr": "上海市 浦东新区 航鹤路1858弄  " }, "geometry": { "type": "Point", "coordinates": [ 121.590976180251005, 31.056151192649558 ] } },
{ "type": "Feature", "properties": { "addr": "上海市 浦东新区 鹤东村  " }, "geometry": { "type": "Point", "coordinates": [ 121.602978260508721, 31.061148957303988 ] } },
{ "type": "Feature", "properties": { "addr": "上海市 浦东新区 莱阳路301弄  " }, "geometry": { "type": "Point", "coordinates": [ 121.585947196514496, 31.280357685263912 ] } },
{ "type": "Feature", "properties": { "addr": "上海市 浦东新区 博兴路465弄  " }, "geometry": { "type": "Point", "coordinates": [ 121.58987225260978, 31.272066665151705 ] } },
{ "type": "Feature", "properties": { "addr": "上海市 浦东新区 利津路555弄  " }, "geometry": { "type": "Point", "coordinates": [ 121.593699573065592, 31.280388547115781 ] } },
{ "type": "Feature", "properties": { "addr": "上海市 浦东新区 寿光路161弄  " }, "geometry": { "type": "Point", "coordinates": [ 121.590525320715543, 31.280396185422553 ] } },
{ "type": "Feature", "properties": { "addr": "上海市 浦东新区 利津路53弄  " }, "geometry": { "type": "Point", "coordinates": [ 121.584910282464321, 31.285692544924771 ] } },
{ "type": "Feature", "properties": { "addr": "上海市 浦东新区 周东路191弄  " }, "geometry": { "type": "Point", "coordinates": [ 121.593915615540752, 31.118618136099798 ] } },
{ "type": "Feature", "properties": { "addr": "上海市 浦东新区 周东南路388弄  " }, "geometry": { "type": "Point", "coordinates": [ 121.595945421386944, 31.103748864755293 ] } },
{ "type": "Feature", "properties": { "addr": "上海市 浦东新区 高博路210弄  " }, "geometry": { "type": "Point", "coordinates": [ 121.586636825654494, 31.302485174487781 ] } },
{ "type": "Feature", "properties": { "addr": "上海市 浦东新区 凌河路618弄  " }, "geometry": { "type": "Point", "coordinates": [ 121.608152859568378, 31.276965751273998 ] } },
{ "type": "Feature", "properties": { "addr": "上海市 浦东新区 民义村  " }, "geometry": { "type": "Point", "coordinates": [ 121.705067896970618, 31.134323902276591 ] } },
{ "type": "Feature", "properties": { "addr": "上海市 浦东新区 灵山路1840弄  " }, "geometry": { "type": "Point", "coordinates": [ 121.578033843615998, 31.248054473360007 ] } },
{ "type": "Feature", "properties": { "addr": "上海市 浦东新区 灵山路1726弄  " }, "geometry": { "type": "Point", "coordinates": [ 121.574996852347851, 31.246511528869256 ] } },
{ "type": "Feature", "properties": { "addr": "上海市 浦东新区 栖山路1861弄  " }, "geometry": { "type": "Point", "coordinates": [ 121.577100953343887, 31.267784875846075 ] } },
{ "type": "Feature", "properties": { "addr": "上海市 浦东新区 万德路45弄  " }, "geometry": { "type": "Point", "coordinates": [ 121.563916613204469, 31.257647619185619 ] } },
{ "type": "Feature", "properties": { "addr": "上海市 浦东新区 栖山路1578弄  " }, "geometry": { "type": "Point", "coordinates": [ 121.572054901802687, 31.263750369559776 ] } },
{ "type": "Feature", "properties": { "addr": "上海市 浦东新区 德平路1065弄  " }, "geometry": { "type": "Point", "coordinates": [ 121.574234190969889, 31.249263047832805 ] } },
{ "type": "Feature", "properties": { "addr": "上海市 浦东新区 银山路72弄  " }, "geometry": { "type": "Point", "coordinates": [ 121.584909024836605, 31.248247349278781 ] } },
{ "type": "Feature", "properties": { "addr": "上海市 浦东新区 张杨路2999弄  " }, "geometry": { "type": "Point", "coordinates": [ 121.573700687327516, 31.253982428223043 ] } },
{ "type": "Feature", "properties": { "addr": "上海市 浦东新区 栖山路1855号  " }, "geometry": { "type": "Point", "coordinates": [ 121.577797499436315, 31.26719232371363 ] } },
{ "type": "Feature", "properties": { "addr": "上海市 浦东新区 德平路1134弄  " }, "geometry": { "type": "Point", "coordinates": [ 121.576286010585221, 31.245640905164709 ] } },
{ "type": "Feature", "properties": { "addr": "上海市 浦东新区 金台路200弄  " }, "geometry": { "type": "Point", "coordinates": [ 121.594221578397438, 31.257084483190823 ] } },
{ "type": "Feature", "properties": { "addr": "上海市 浦东新区 栖山路1689弄  " }, "geometry": { "type": "Point", "coordinates": [ 121.573901548439551, 31.265103198293538 ] } },
{ "type": "Feature", "properties": { "addr": "上海市 浦东新区 居家桥路1030弄  " }, "geometry": { "type": "Point", "coordinates": [ 121.577173536429086, 31.251094982007487 ] } },
{ "type": "Feature", "properties": { "addr": "上海市 浦东新区 金台路115弄  " }, "geometry": { "type": "Point", "coordinates": [ 121.590903956487992, 31.255653437261628 ] } },
{ "type": "Feature", "properties": { "addr": "上海市 浦东新区 金台路1490弄  " }, "geometry": { "type": "Point", "coordinates": [ 121.592358492769762, 31.25619559038973 ] } },
{ "type": "Feature", "properties": { "addr": "上海市 浦东新区 羽山路1950弄  " }, "geometry": { "type": "Point", "coordinates": [ 121.574344233394854, 31.25075130413623 ] } },
{ "type": "Feature", "properties": { "addr": "上海市 浦东新区 博山东路459弄  " }, "geometry": { "type": "Point", "coordinates": [ 121.573680385622978, 31.259882148265088 ] } },
{ "type": "Feature", "properties": { "addr": "上海市 浦东新区 栖山路1558弄  " }, "geometry": { "type": "Point", "coordinates": [ 121.572160362869553, 31.263039800595291 ] } },
{ "type": "Feature", "properties": { "addr": "上海市 浦东新区 云山路839弄  " }, "geometry": { "type": "Point", "coordinates": [ 121.581552236806928, 31.260050767960063 ] } },
{ "type": "Feature", "properties": { "addr": "上海市 浦东新区 栖山路1899弄  " }, "geometry": { "type": "Point", "coordinates": [ 121.580127614098643, 31.267992295212288 ] } },
{ "type": "Feature", "properties": { "addr": "上海市 浦东新区 德平路1060弄  " }, "geometry": { "type": "Point", "coordinates": [ 121.573486710955038, 31.248249664713569 ] } },
{ "type": "Feature", "properties": { "addr": "上海市 浦东新区 德平路58弄  " }, "geometry": { "type": "Point", "coordinates": [ 121.565028176442524, 31.258310922203265 ] } },
{ "type": "Feature", "properties": { "addr": "上海市 浦东新区 博山东路20弄  " }, "geometry": { "type": "Point", "coordinates": [ 121.566038859971798, 31.253391023400393 ] } },
{ "type": "Feature", "properties": { "addr": "上海市 浦东新区 灵山路1671弄  " }, "geometry": { "type": "Point", "coordinates": [ 121.572311008703579, 31.245771344870743 ] } },
{ "type": "Feature", "properties": { "addr": "上海市 浦东新区 罗山四村  " }, "geometry": { "type": "Point", "coordinates": [ 121.568072443985301, 31.255873077185406 ] } },
{ "type": "Feature", "properties": { "addr": "上海市 浦东新区 德平路1066弄  " }, "geometry": { "type": "Point", "coordinates": [ 121.573972784066484, 31.246835695198861 ] } },
{ "type": "Feature", "properties": { "addr": "上海市 浦东新区 川周路8828弄  " }, "geometry": { "type": "Point", "coordinates": [ 121.716261861591576, 31.193206090036565 ] } },
{ "type": "Feature", "properties": { "addr": "上海市 浦东新区 妙川路800弄  " }, "geometry": { "type": "Point", "coordinates": [ 121.710073524763871, 31.184302294282435 ] } },
{ "type": "Feature", "properties": { "addr": "上海市 浦东新区 妙栏路200弄  " }, "geometry": { "type": "Point", "coordinates": [ 121.694430971596432, 31.190669781053366 ] } },
{ "type": "Feature", "properties": { "addr": "上海市 浦东新区 长桥村南乔家宅  " }, "geometry": { "type": "Point", "coordinates": [ 121.735381036743732, 31.14259088659535 ] } },
{ "type": "Feature", "properties": { "addr": "上海市 浦东新区 六团周家宅  " }, "geometry": { "type": "Point", "coordinates": [ 121.478736410170754, 31.124012372204763 ] } },
{ "type": "Feature", "properties": { "addr": "上海市 浦东新区 普庆路115弄  " }, "geometry": { "type": "Point", "coordinates": [ 121.726343364668949, 31.160583313604086 ] } },
{ "type": "Feature", "properties": { "addr": "上海市 浦东新区 凌空路55弄  " }, "geometry": { "type": "Point", "coordinates": [ 121.72371240749132, 31.208434161489265 ] } },
{ "type": "Feature", "properties": { "addr": "上海市 浦东新区 庆星村顾家宅  " }, "geometry": { "type": "Point", "coordinates": [ 121.725707094876228, 31.240436443995055 ] } },
{ "type": "Feature", "properties": { "addr": "上海市 浦东新区 东风村  " }, "geometry": { "type": "Point", "coordinates": [ 121.705700034558006, 31.232450813592735 ] } },
{ "type": "Feature", "properties": { "addr": "上海市 浦东新区 创业路798号  " }, "geometry": { "type": "Point", "coordinates": [ 121.703206428292859, 31.221349089170769 ] } },
{ "type": "Feature", "properties": { "addr": "上海市 浦东新区 合庆庆星村西圈夏家宅  " }, "geometry": { "type": "Point", "coordinates": [ 121.729119308355877, 31.238801827751818 ] } },
{ "type": "Feature", "properties": { "addr": "上海市 浦东新区 合庆镇前哨村马家宅  " }, "geometry": { "type": "Point", "coordinates": [ 121.744203834140535, 31.247222609396808 ] } },
{ "type": "Feature", "properties": { "addr": "上海市 浦东新区 庆丰村  " }, "geometry": { "type": "Point", "coordinates": [ 121.723719504104849, 31.247052191371662 ] } },
{ "type": "Feature", "properties": { "addr": "上海市 浦东新区 庆滨路155弄  " }, "geometry": { "type": "Point", "coordinates": [ 121.729511418710985, 31.238551812388327 ] } },
{ "type": "Feature", "properties": { "addr": "上海市 浦东新区 海塘村南海唐宅  " }, "geometry": { "type": "Point", "coordinates": [ 121.765364678055775, 31.218434771543873 ] } },
{ "type": "Feature", "properties": { "addr": "上海市 浦东新区 前哨村三队顾家宅  " }, "geometry": { "type": "Point", "coordinates": [ 121.744203834140535, 31.247222609396808 ] } },
{ "type": "Feature", "properties": { "addr": "上海市 浦东新区 勤益村顾家宅  " }, "geometry": { "type": "Point", "coordinates": [ 121.716810366935945, 31.215195470671564 ] } },
{ "type": "Feature", "properties": { "addr": "上海市 浦东新区 康弘路580弄  " }, "geometry": { "type": "Point", "coordinates": [ 121.606076785704275, 31.132845541712022 ] } },
{ "type": "Feature", "properties": { "addr": "上海市 浦东新区 德爱路380弄  " }, "geometry": { "type": "Point", "coordinates": [ 121.58962611690005, 31.28158489894264 ] } },
{ "type": "Feature", "properties": { "addr": "上海市 浦东新区 潍坊路335弄2支弄  " }, "geometry": { "type": "Point", "coordinates": [ 121.537886953425158, 31.235615027407125 ] } },
{ "type": "Feature", "properties": { "addr": "上海市 浦东新区 浦电路57号  " }, "geometry": { "type": "Point", "coordinates": [ 121.52301191248543, 31.223176320349829 ] } },
{ "type": "Feature", "properties": { "addr": "上海市 浦东新区 浦东南路1550弄  " }, "geometry": { "type": "Point", "coordinates": [ 121.524828106565508, 31.226487912239136 ] } },
{ "type": "Feature", "properties": { "addr": "上海市 浦东新区 潍坊路335弄3支弄  " }, "geometry": { "type": "Point", "coordinates": [ 121.537886953425158, 31.235615027407125 ] } },
{ "type": "Feature", "properties": { "addr": "上海市 浦东新区 源深路600弄  " }, "geometry": { "type": "Point", "coordinates": [ 121.540367174938211, 31.237760542935803 ] } },
{ "type": "Feature", "properties": { "addr": "上海市 浦东新区 永新村  " }, "geometry": { "type": "Point", "coordinates": [ 121.796911999769037, 31.075899412449523 ] } },
{ "type": "Feature", "properties": { "addr": "上海市 浦东新区 踊跃村  " }, "geometry": { "type": "Point", "coordinates": [ 121.658710302144897, 31.312294243269257 ] } },
{ "type": "Feature", "properties": { "addr": "上海市 浦东新区 高宝路300弄  " }, "geometry": { "type": "Point", "coordinates": [ 121.58962611690005, 31.28158489894264 ] } },
{ "type": "Feature", "properties": { "addr": "上海市 浦东新区 高东二路118弄  " }, "geometry": { "type": "Point", "coordinates": [ 121.632030269176354, 31.329908670368081 ] } },
{ "type": "Feature", "properties": { "addr": "上海市 浦东新区 德平路155弄  " }, "geometry": { "type": "Point", "coordinates": [ 121.567954047319077, 31.256601836594431 ] } },
{ "type": "Feature", "properties": { "addr": "上海市 浦东新区 金浜村金家浜  " }, "geometry": { "type": "Point", "coordinates": [ 121.56892062404782, 31.263373864370728 ] } },
{ "type": "Feature", "properties": { "addr": "上海市 浦东新区 德平路764弄  " }, "geometry": { "type": "Point", "coordinates": [ 121.57177624743349, 31.250207035585259 ] } },
{ "type": "Feature", "properties": { "addr": "上海市 浦东新区 云山路1395弄  " }, "geometry": { "type": "Point", "coordinates": [ 121.584226761801787, 31.251544007243965 ] } },
{ "type": "Feature", "properties": { "addr": "上海市 浦东新区 德平路730弄  " }, "geometry": { "type": "Point", "coordinates": [ 121.571500018489175, 31.251636158254726 ] } },
{ "type": "Feature", "properties": { "addr": "上海市 浦东新区 板泉路2000弄  " }, "geometry": { "type": "Point", "coordinates": [ 121.536884264814915, 31.189702255537771 ] } },
{ "type": "Feature", "properties": { "addr": "上海市 浦东新区 新村路59弄  " }, "geometry": { "type": "Point", "coordinates": [ 121.503186399710771, 31.170014556678424 ] } },
{ "type": "Feature", "properties": { "addr": "上海市 浦东新区 长清路967弄  " }, "geometry": { "type": "Point", "coordinates": [ 121.500661262922222, 31.158099737357915 ] } },
{ "type": "Feature", "properties": { "addr": "上海市 浦东新区 鹤鸣村  " }, "geometry": { "type": "Point", "coordinates": [ 121.600562088178521, 31.050200132685855 ] } },
{ "type": "Feature", "properties": { "addr": "上海市 浦东新区 严中路300弄  " }, "geometry": { "type": "Point", "coordinates": [ 121.538876616605506, 31.196156020936083 ] } },
{ "type": "Feature", "properties": { "addr": "上海市 浦东新区 牡丹路258弄  " }, "geometry": { "type": "Point", "coordinates": [ 121.5556305533499, 31.213972712771053 ] } },
{ "type": "Feature", "properties": { "addr": "上海市 浦东新区 丁香路901弄  " }, "geometry": { "type": "Point", "coordinates": [ 121.557128298126671, 31.233140000844234 ] } },
{ "type": "Feature", "properties": { "addr": "上海市 浦东新区 新川路995弄  " }, "geometry": { "type": "Point", "coordinates": [ 121.693385164321711, 31.195027151833791 ] } },
{ "type": "Feature", "properties": { "addr": "上海市 浦东新区 严民路251弄  " }, "geometry": { "type": "Point", "coordinates": [ 121.537399982008196, 31.194882895313757 ] } },
{ "type": "Feature", "properties": { "addr": "上海市 浦东新区 芳华路310弄  " }, "geometry": { "type": "Point", "coordinates": [ 121.564018211557652, 31.201334527828102 ] } },
{ "type": "Feature", "properties": { "addr": "上海市 浦东新区 芳华路630弄  " }, "geometry": { "type": "Point", "coordinates": [ 121.556559041925013, 31.200205103357757 ] } },
{ "type": "Feature", "properties": { "addr": "上海市 浦东新区 海阳路1125弄  " }, "geometry": { "type": "Point", "coordinates": [ 121.515260254578735, 31.165597159209877 ] } },
{ "type": "Feature", "properties": { "addr": "上海市 浦东新区 东三街15弄  " }, "geometry": { "type": "Point", "coordinates": [ 121.513798352191799, 31.206974419328482 ] } },
{ "type": "Feature", "properties": { "addr": "上海市 浦东新区 黄楼村张家宅  " }, "geometry": { "type": "Point", "coordinates": [ 121.657988244175982, 31.17533578243895 ] } },
{ "type": "Feature", "properties": { "addr": "上海市 浦东新区 药师新村  " }, "geometry": { "type": "Point", "coordinates": [ 121.689184148773748, 31.209016662139099 ] } },
{ "type": "Feature", "properties": { "addr": "上海市 浦东新区 合庆镇庆丰村龚家宅  " }, "geometry": { "type": "Point", "coordinates": [ 121.723719504104849, 31.247052191371662 ] } },
{ "type": "Feature", "properties": { "addr": "上海市 浦东新区 祝潘公路301弄  " }, "geometry": { "type": "Point", "coordinates": [ 121.766842749941887, 31.114088797527916 ] } },
{ "type": "Feature", "properties": { "addr": "上海市 浦东新区 运通路728弄  " }, "geometry": { "type": "Point", "coordinates": [ 121.70893240727456, 31.209195951774223 ] } },