{
"type": "FeatureCollection",
"crs": { "type": "name", "properties": { "name": "urn:ogc:def:crs:OGC:1.3:CRS84" } },
"features": [
{ "type": "Feature", "properties": { "addr": "上海市 浦东新区 牌楼村  " }, "geometry": { "type": "Point", "coordinates": [ 121.565577580092423, 31.05914827465531 ] } },
{ "type": "Feature", "properties": { "addr": "上海市 浦东新区 三彩路52弄  " }, "geometry": { "type": "Point", "coordinates": [ 121.525530311982649, 31.139159418419815 ] } },
{ "type": "Feature", "properties": { "addr": "上海市 浦东新区 临江村西新队罗汉松  " }, "geometry": { "type": "Point", "coordinates": [ 121.487328612543138, 31.132083362831438 ] } },
{ "type": "Feature", "properties": { "addr": "上海市 浦东新区 三三公路5020弄  " }, "geometry": { "type": "Point", "coordinates": [ 121.879902942444403, 30.98125570677017 ] } },
{ "type": "Feature", "properties": { "addr": "上海市 浦东新区 龚华路35号  " }, "geometry": { "type": "Point", "coordinates": [ 121.689692499861849, 31.276768922424957 ] } },
{ "type": "Feature", "properties": { "addr": "上海市 浦东新区 莱阳路451弄  " }, "geometry": { "type": "Point", "coordinates": [ 121.589291857419795, 31.282158997327386 ] } },
{ "type": "Feature", "properties": { "addr": "上海市 浦东新区 杨高中路2168弄  " }, "geometry": { "type": "Point", "coordinates": [ 121.558189286764517, 31.235569021210537 ] } },
{ "type": "Feature", "properties": { "addr": "上海市 浦东新区 荟萃新村  " }, "geometry": { "type": "Point", "coordinates": [ 121.338402135265923, 31.835599975365863 ] } },
{ "type": "Feature", "properties": { "addr": "上海市 浦东新区 台儿庄路363弄  " }, "geometry": { "type": "Point", "coordinates": [ 121.60033796095378, 31.264978881782035 ] } },
{ "type": "Feature", "properties": { "addr": "上海市 浦东新区 庆星村顾家宅  " }, "geometry": { "type": "Point", "coordinates": [ 121.725707094876228, 31.240436443995055 ] } },
{ "type": "Feature", "properties": { "addr": "上海市 浦东新区 大众村王家宅  " }, "geometry": { "type": "Point", "coordinates": [ 121.532353481314246, 31.222659143739939 ] } },
{ "type": "Feature", "properties": { "addr": "上海市 浦东新区 航瑞路388弄  " }, "geometry": { "type": "Point", "coordinates": [ 121.598209066725687, 31.080684738771261 ] } },
{ "type": "Feature", "properties": { "addr": "上海市 浦东新区 康安路御桥路交界口工地生活区  " }, "geometry": { "type": "Point", "coordinates": [ 121.542390069116124, 31.155811788475507 ] } },
{ "type": "Feature", "properties": { "addr": "上海市 浦东新区 沈西村  " }, "geometry": { "type": "Point", "coordinates": [ 121.572071969607379, 31.096648242037833 ] } },
{ "type": "Feature", "properties": { "addr": "上海市 浦东新区 坦东村  " }, "geometry": { "type": "Point", "coordinates": [ 121.669152474884555, 31.076904993705263 ] } },
{ "type": "Feature", "properties": { "addr": "上海市 浦东新区 沈庄村  " }, "geometry": { "type": "Point", "coordinates": [ 121.589114801403767, 31.085041494529602 ] } },
{ "type": "Feature", "properties": { "addr": "上海市 浦东新区 联勤村李家队李家宅  " }, "geometry": { "type": "Point", "coordinates": [ 121.557185969340424, 31.173231011079945 ] } },
{ "type": "Feature", "properties": { "addr": "上海市 浦东新区 荷泽路287弄  " }, "geometry": { "type": "Point", "coordinates": [ 121.599586618225231, 31.27447507574718 ] } },
{ "type": "Feature", "properties": { "addr": "上海市 浦东新区 浦三路637弄  " }, "geometry": { "type": "Point", "coordinates": [ 121.526473892090337, 31.194361315014945 ] } },
{ "type": "Feature", "properties": { "addr": "上海市 浦东新区 中科路2660弄  " }, "geometry": { "type": "Point", "coordinates": [ 121.645325011062937, 31.194467886292184 ] } },
{ "type": "Feature", "properties": { "addr": "上海市 浦东新区 南码头路1521弄  " }, "geometry": { "type": "Point", "coordinates": [ 121.525396464461664, 31.182867509205831 ] } },
{ "type": "Feature", "properties": { "addr": "上海市 浦东新区 民耀路423弄  " }, "geometry": { "type": "Point", "coordinates": [ 121.661880961272928, 31.27561255420451 ] } },
{ "type": "Feature", "properties": { "addr": "上海市 浦东新区 古棕路555弄  " }, "geometry": { "type": "Point", "coordinates": [ 121.924901670525188, 30.887815475187587 ] } },
{ "type": "Feature", "properties": { "addr": "上海市 浦东新区 彩云路717弄  " }, "geometry": { "type": "Point", "coordinates": [ 121.810801779225429, 30.904880916838529 ] } },
{ "type": "Feature", "properties": { "addr": "上海市 浦东新区 东海二村  " }, "geometry": { "type": "Point", "coordinates": [ 121.908737022195325, 30.960845876256776 ] } },
{ "type": "Feature", "properties": { "addr": "上海市 浦东新区 新川路640弄  " }, "geometry": { "type": "Point", "coordinates": [ 121.700072509860192, 31.199402853132074 ] } },
{ "type": "Feature", "properties": { "addr": "上海市 浦东新区 高科西路2919号  " }, "geometry": { "type": "Point", "coordinates": [ 121.565555751268533, 31.195946434418534 ] } },
{ "type": "Feature", "properties": { "addr": "上海市 浦东新区 东靖路626弄  " }, "geometry": { "type": "Point", "coordinates": [ 121.592519379286585, 31.297546620102786 ] } },
{ "type": "Feature", "properties": { "addr": "上海市 浦东新区 瑞阳路81弄  " }, "geometry": { "type": "Point", "coordinates": [ 121.594743853220947, 31.10537166826629 ] } },
{ "type": "Feature", "properties": { "addr": "上海市 浦东新区 一心村许家宅  " }, "geometry": { "type": "Point", "coordinates": [ 121.643613828896974, 31.130068423571654 ] } },
{ "type": "Feature", "properties": { "addr": "上海市 浦东新区 前锋村陆家宅  " }, "geometry": { "type": "Point", "coordinates": [ 121.704838559573929, 31.276629575682062 ] } },
{ "type": "Feature", "properties": { "addr": "上海市 浦东新区 新建路46号  " }, "geometry": { "type": "Point", "coordinates": [ 121.570031648302546, 30.989352325849882 ] } },
{ "type": "Feature", "properties": { "addr": "上海市 浦东新区 鹏岳路152弄  " }, "geometry": { "type": "Point", "coordinates": [ 121.560933340605843, 31.177214966797443 ] } },
{ "type": "Feature", "properties": { "addr": "上海市 浦东新区 共和村  " }, "geometry": { "type": "Point", "coordinates": [ 121.740163974601046, 31.17659805099963 ] } },
{ "type": "Feature", "properties": { "addr": "上海市 浦东新区 盛朱村  " }, "geometry": { "type": "Point", "coordinates": [ 121.704742530714924, 31.274967506393079 ] } },
{ "type": "Feature", "properties": { "addr": "上海市 浦东新区 和龙路218号  " }, "geometry": { "type": "Point", "coordinates": [ 121.57862510830266, 31.34814843305594 ] } },
{ "type": "Feature", "properties": { "addr": "上海市 浦东新区 光明村  " }, "geometry": { "type": "Point", "coordinates": [ 121.664900525414168, 31.296640292704971 ] } },
{ "type": "Feature", "properties": { "addr": "上海市 浦东新区 东陆路1351号  " }, "geometry": { "type": "Point", "coordinates": [ 121.605915809356887, 31.275525364987988 ] } },
{ "type": "Feature", "properties": { "addr": "上海市 浦东新区 兰陵路23弄  " }, "geometry": { "type": "Point", "coordinates": [ 121.523272241422234, 31.201015068725571 ] } },
{ "type": "Feature", "properties": { "addr": "上海市 浦东新区 云汉路1288弄  " }, "geometry": { "type": "Point", "coordinates": [ 121.806642894205879, 30.918027447987978 ] } },
{ "type": "Feature", "properties": { "addr": "上海市 浦东新区 成山路668弄  " }, "geometry": { "type": "Point", "coordinates": [ 121.519473037928876, 31.175870831284065 ] } },
{ "type": "Feature", "properties": { "addr": "上海市 浦东新区 昌里路167弄  " }, "geometry": { "type": "Point", "coordinates": [ 121.504545446116822, 31.181091626219736 ] } },
{ "type": "Feature", "properties": { "addr": "上海市 浦东新区 幸福公寓  " }, "geometry": { "type": "Point", "coordinates": [ 121.57431836219618, 31.144655316855896 ] } },
{ "type": "Feature", "properties": { "addr": "上海市 浦东新区 康桥路957弄  " }, "geometry": { "type": "Point", "coordinates": [ 121.584859707864112, 31.120077939878794 ] } },
{ "type": "Feature", "properties": { "addr": "上海市 浦东新区 御青路38号  " }, "geometry": { "type": "Point", "coordinates": [ 121.577826604534835, 31.163495413832859 ] } },
{ "type": "Feature", "properties": { "addr": "上海市 浦东新区 五星村陈家队陈家宅  " }, "geometry": { "type": "Point", "coordinates": [ 121.578579474382749, 31.194413133383005 ] } },
{ "type": "Feature", "properties": { "addr": "上海市 浦东新区 严镇路9号  " }, "geometry": { "type": "Point", "coordinates": [ 121.533629973443922, 31.196687861995425 ] } },
{ "type": "Feature", "properties": { "addr": "上海市 浦东新区 栖山路1489弄  " }, "geometry": { "type": "Point", "coordinates": [ 121.571031731826807, 31.263823525136839 ] } },
{ "type": "Feature", "properties": { "addr": "上海市 浦东新区 川沙路5122弄  " }, "geometry": { "type": "Point", "coordinates": [ 121.702663851764825, 31.196532410579437 ] } },
{ "type": "Feature", "properties": { "addr": "上海市 浦东新区 上浦路69弄  " }, "geometry": { "type": "Point", "coordinates": [ 121.496511810110533, 31.151676265283331 ] } },
{ "type": "Feature", "properties": { "addr": "上海市 浦东新区 沪南路2518弄  " }, "geometry": { "type": "Point", "coordinates": [ 121.536884264814915, 31.189702255537771 ] } },
{ "type": "Feature", "properties": { "addr": "上海市 浦东新区 英雄村  " }, "geometry": { "type": "Point", "coordinates": [ 121.759684602485635, 31.034120375692826 ] } },
{ "type": "Feature", "properties": { "addr": "上海市 浦东新区 听锦路36弄  " }, "geometry": { "type": "Point", "coordinates": [ 121.766217169984742, 31.063351979136407 ] } },
{ "type": "Feature", "properties": { "addr": "上海市 浦东新区 邓镇三村  " }, "geometry": { "type": "Point", "coordinates": [ 121.767150329748503, 31.140645561118266 ] } },
{ "type": "Feature", "properties": { "addr": "上海市 浦东新区 妙境北路116弄  " }, "geometry": { "type": "Point", "coordinates": [ 121.697079266070403, 31.207673677656061 ] } },
{ "type": "Feature", "properties": { "addr": "上海市 浦东新区 华戴路599弄  " }, "geometry": { "type": "Point", "coordinates": [ 121.705983000793651, 31.182103882872319 ] } },
{ "type": "Feature", "properties": { "addr": "上海市 浦东新区 益江路126弄  " }, "geometry": { "type": "Point", "coordinates": [ 121.641426005827412, 31.206110068283561 ] } },
{ "type": "Feature", "properties": { "addr": "上海市 浦东新区 华夏二路1455弄  " }, "geometry": { "type": "Point", "coordinates": [ 121.699507026541667, 31.17862187802573 ] } },
{ "type": "Feature", "properties": { "addr": "上海市 浦东新区 川周公路8288弄  " }, "geometry": { "type": "Point", "coordinates": [ 121.711194969362538, 31.183508867105392 ] } },
{ "type": "Feature", "properties": { "addr": "上海市 浦东新区 庆滨路155弄  " }, "geometry": { "type": "Point", "coordinates": [ 121.729511418710985, 31.238551812388327 ] } },
{ "type": "Feature", "properties": { "addr": "上海市 浦东新区 秀龙村  " }, "geometry": { "type": "Point", "coordinates": [ 121.569139900422797, 31.132605675883436 ] } },
{ "type": "Feature", "properties": { "addr": "上海市 浦东新区 中界村秦家宅  " }, "geometry": { "type": "Point", "coordinates": [ 121.574173735009055, 31.195446174063392 ] } },
{ "type": "Feature", "properties": { "addr": "上海市 浦东新区 大星村  " }, "geometry": { "type": "Point", "coordinates": [ 121.728211211315838, 31.227971358702003 ] } },
{ "type": "Feature", "properties": { "addr": "上海市 浦东新区 永乐村  " }, "geometry": { "type": "Point", "coordinates": [ 121.762237676575538, 31.081001669420488 ] } },
{ "type": "Feature", "properties": { "addr": "上海市 浦东新区 锦绣路4899弄  " }, "geometry": { "type": "Point", "coordinates": [ 121.554664515604472, 31.156063492623275 ] } },
{ "type": "Feature", "properties": { "addr": "上海市 浦东新区 里仁村  " }, "geometry": { "type": "Point", "coordinates": [ 121.575105367653464, 31.11385058423264 ] } },
{ "type": "Feature", "properties": { "addr": "上海市 浦东新区 高科西路4057号  " }, "geometry": { "type": "Point", "coordinates": [ 121.581545679176699, 31.19854816220672 ] } },
{ "type": "Feature", "properties": { "addr": "上海市 浦东新区 莲溪路1298号  " }, "geometry": { "type": "Point", "coordinates": [ 121.573414038039289, 31.172848889094489 ] } },
{ "type": "Feature", "properties": { "addr": "上海市 浦东新区 唐港路1059弄  " }, "geometry": { "type": "Point", "coordinates": [ 121.870669260107363, 30.982972671195526 ] } },
{ "type": "Feature", "properties": { "addr": "上海市 浦东新区 柳埠路142弄  " }, "geometry": { "type": "Point", "coordinates": [ 121.588915647072199, 31.269330401417204 ] } },
{ "type": "Feature", "properties": { "addr": "上海市 浦东新区 潍坊路335弄  " }, "geometry": { "type": "Point", "coordinates": [ 121.53827061970847, 31.233788347881376 ] } },
{ "type": "Feature", "properties": { "addr": "上海市 浦东新区 招远路19弄  " }, "geometry": { "type": "Point", "coordinates": [ 121.521229943845299, 31.241645116927586 ] } },
{ "type": "Feature", "properties": { "addr": "上海市 浦东新区 药师新村  " }, "geometry": { "type": "Point", "coordinates": [ 121.689184148773748, 31.209016662139099 ] } },
{ "type": "Feature", "properties": { "addr": "上海市 浦东新区 利津路729弄  " }, "geometry": { "type": "Point", "coordinates": [ 121.596582954091531, 31.280678570870514 ] } },
{ "type": "Feature", "properties": { "addr": "上海市 浦东新区 五莲路729弄  " }, "geometry": { "type": "Point", "coordinates": [ 121.58962611690005, 31.28158489894264 ] } },
{ "type": "Feature", "properties": { "addr": "上海市 浦东新区 千汇路198弄  " }, "geometry": { "type": "Point", "coordinates": [ 121.774671033308593, 31.111882866766123 ] } },
{ "type": "Feature", "properties": { "addr": "上海市 浦东新区 航昌路199弄  " }, "geometry": { "type": "Point", "coordinates": [ 121.615016362817371, 31.08492173263943 ] } },
{ "type": "Feature", "properties": { "addr": "上海市 浦东新区 联勤村麦家宅  " }, "geometry": { "type": "Point", "coordinates": [ 121.553913442367573, 31.169263494054469 ] } },
{ "type": "Feature", "properties": { "addr": "上海市 浦东新区 浦东大道2920弄  " }, "geometry": { "type": "Point", "coordinates": [ 121.583602619133444, 31.280936343289373 ] } },
{ "type": "Feature", "properties": { "addr": "上海市 浦东新区 浦城路580弄  " }, "geometry": { "type": "Point", "coordinates": [ 121.521080555638974, 31.230158967011022 ] } },
{ "type": "Feature", "properties": { "addr": "上海市 浦东新区 西门路121弄  " }, "geometry": { "type": "Point", "coordinates": [ 121.75187203946534, 31.052024741561482 ] } },
{ "type": "Feature", "properties": { "addr": "上海市 浦东新区 康沈路400弄  " }, "geometry": { "type": "Point", "coordinates": [ 121.584859707864112, 31.120077939878794 ] } },
{ "type": "Feature", "properties": { "addr": "上海市 浦东新区 峨山路500弄  " }, "geometry": { "type": "Point", "coordinates": [ 121.530728716138341, 31.219497888809606 ] } },
{ "type": "Feature", "properties": { "addr": "上海市 浦东新区 莱阳路881弄  " }, "geometry": { "type": "Point", "coordinates": [ 121.58956036093673, 31.289971893195336 ] } },
{ "type": "Feature", "properties": { "addr": "上海市 浦东新区 东三街102弄  " }, "geometry": { "type": "Point", "coordinates": [ 121.517106182571183, 31.20763978042601 ] } },
{ "type": "Feature", "properties": { "addr": "上海市 浦东新区 南码头路1621弄  " }, "geometry": { "type": "Point", "coordinates": [ 121.523180793921313, 31.181688431079078 ] } },
{ "type": "Feature", "properties": { "addr": "上海市 浦东新区 康桥路90弄  " }, "geometry": { "type": "Point", "coordinates": [ 121.584859707864112, 31.120077939878794 ] } },
{ "type": "Feature", "properties": { "addr": "上海市 浦东新区 张杨路1662弄  " }, "geometry": { "type": "Point", "coordinates": [ 121.551205949560497, 31.242232042066657 ] } },
{ "type": "Feature", "properties": { "addr": "上海市 浦东新区 金葵路35号  " }, "geometry": { "type": "Point", "coordinates": [ 121.602138614348533, 31.244250205910852 ] } },
{ "type": "Feature", "properties": { "addr": "上海市 浦东新区 御桥村印家队东印家圈  " }, "geometry": { "type": "Point", "coordinates": [ 121.564637683037347, 31.17407504173234 ] } },
{ "type": "Feature", "properties": { "addr": "上海市 浦东新区 浦东大道136弄  " }, "geometry": { "type": "Point", "coordinates": [ 121.520173536565551, 31.24402420953977 ] } },
{ "type": "Feature", "properties": { "addr": "上海市 浦东新区 银山路181弄  " }, "geometry": { "type": "Point", "coordinates": [ 121.58651043406924, 31.250110483927479 ] } },
{ "type": "Feature", "properties": { "addr": "上海市 浦东新区 杨思路436弄  " }, "geometry": { "type": "Point", "coordinates": [ 121.500760435850523, 31.165660812615332 ] } },
{ "type": "Feature", "properties": { "addr": "上海市 浦东新区 古棕路168弄  " }, "geometry": { "type": "Point", "coordinates": [ 121.923877781904906, 30.890266510779377 ] } },
{ "type": "Feature", "properties": { "addr": "上海市 浦东新区 林展路267弄  " }, "geometry": { "type": "Point", "coordinates": [ 121.513993014995805, 31.13367888524202 ] } },
{ "type": "Feature", "properties": { "addr": "上海市 浦东新区 环桥路555弄  " }, "geometry": { "type": "Point", "coordinates": [ 121.584859707864112, 31.120077939878794 ] } },
{ "type": "Feature", "properties": { "addr": "上海市 浦东新区 周秀路398弄  " }, "geometry": { "type": "Point", "coordinates": [ 121.612986012703729, 31.098074836686873 ] } },
{ "type": "Feature", "properties": { "addr": "上海市 浦东新区 金吉路33弄  " }, "geometry": { "type": "Point", "coordinates": [ 121.652778790862527, 31.290487771739045 ] } },
{ "type": "Feature", "properties": { "addr": "上海市 浦东新区 听潮路69弄  " }, "geometry": { "type": "Point", "coordinates": [ 121.748314480154193, 31.050403006250619 ] } },
{ "type": "Feature", "properties": { "addr": "上海市 浦东新区 清溪路400弄  " }, "geometry": { "type": "Point", "coordinates": [ 121.577475636572089, 31.347650837499692 ] } },
{ "type": "Feature", "properties": { "addr": "上海市 浦东新区 峨山路180弄  " }, "geometry": { "type": "Point", "coordinates": [ 121.53440970262659, 31.220273408639333 ] } },
{ "type": "Feature", "properties": { "addr": "上海市 浦东新区 杨思路502弄  " }, "geometry": { "type": "Point", "coordinates": [ 121.501390507335216, 31.165181479780415 ] } },
{ "type": "Feature", "properties": { "addr": "上海市 浦东新区 川北公路2820号  " }, "geometry": { "type": "Point", "coordinates": [ 121.618340093204296, 31.209876971291003 ] } },
{ "type": "Feature", "properties": { "addr": "上海市 浦东新区 锦绣路3088弄  " }, "geometry": { "type": "Point", "coordinates": [ 121.546294823506898, 31.185731419409098 ] } },
{ "type": "Feature", "properties": { "addr": "上海市 浦东新区 永利村胜家宅  " }, "geometry": { "type": "Point", "coordinates": [ 121.702059022664955, 31.270195403071813 ] } },
{ "type": "Feature", "properties": { "addr": "上海市 浦东新区 华夏东路1809号  " }, "geometry": { "type": "Point", "coordinates": [ 121.691596099068036, 31.205578744015479 ] } },
{ "type": "Feature", "properties": { "addr": "上海市 浦东新区 东河浜路10号  " }, "geometry": { "type": "Point", "coordinates": [ 121.713569011164296, 31.203143848876248 ] } },
{ "type": "Feature", "properties": { "addr": "上海市 浦东新区 栖霞路86号  " }, "geometry": { "type": "Point", "coordinates": [ 121.524251574089206, 31.242243234054179 ] } },
{ "type": "Feature", "properties": { "addr": "上海市 浦东新区 浦东北路2300号  " }, "geometry": { "type": "Point", "coordinates": [ 121.584935345188043, 31.326820833493066 ] } },
{ "type": "Feature", "properties": { "addr": "上海市 浦东新区 南塘村顾家宅  " }, "geometry": { "type": "Point", "coordinates": [ 121.574680918300004, 31.345394276906958 ] } },
{ "type": "Feature", "properties": { "addr": "上海市 浦东新区 南码头路551弄  " }, "geometry": { "type": "Point", "coordinates": [ 121.518424535737637, 31.197425268104805 ] } },
{ "type": "Feature", "properties": { "addr": "上海市 浦东新区 临江村丁家宅  " }, "geometry": { "type": "Point", "coordinates": [ 121.484386212845195, 31.127340605764598 ] } },
{ "type": "Feature", "properties": { "addr": "上海市 浦东新区 崂山路571弄  " }, "geometry": { "type": "Point", "coordinates": [ 121.529543491848486, 31.232309393717138 ] } },
{ "type": "Feature", "properties": { "addr": "上海市 浦东新区 跃丰村凌家码头  " }, "geometry": { "type": "Point", "coordinates": [ 121.726840307277072, 31.237364712724084 ] } },
{ "type": "Feature", "properties": { "addr": "上海市 浦东新区 浦电路48弄  " }, "geometry": { "type": "Point", "coordinates": [ 121.523018290454559, 31.224774384963634 ] } },
{ "type": "Feature", "properties": { "addr": "上海市 浦东新区 沈家弄路900弄  " }, "geometry": { "type": "Point", "coordinates": [ 121.551370339468832, 31.244946021226362 ] } },
{ "type": "Feature", "properties": { "addr": "上海市 浦东新区 沈梅东路355弄  " }, "geometry": { "type": "Point", "coordinates": [ 121.598985562008508, 31.09928248540869 ] } },
{ "type": "Feature", "properties": { "addr": "上海市 浦东新区 川环南路918弄  " }, "geometry": { "type": "Point", "coordinates": [ 121.702367590607636, 31.192514446419413 ] } },
{ "type": "Feature", "properties": { "addr": "上海市 浦东新区 华夏二路1255弄  " }, "geometry": { "type": "Point", "coordinates": [ 121.698001915659688, 31.182811977167781 ] } },
{ "type": "Feature", "properties": { "addr": "上海市 浦东新区 航鹤路999弄  " }, "geometry": { "type": "Point", "coordinates": [ 121.591588555117156, 31.047493511593995 ] } },
{ "type": "Feature", "properties": { "addr": "上海市 浦东新区 下南路225弄  " }, "geometry": { "type": "Point", "coordinates": [ 121.552785889291457, 31.17539958371751 ] } },
{ "type": "Feature", "properties": { "addr": "上海市 浦东新区 浦星公路188号  " }, "geometry": { "type": "Point", "coordinates": [ 121.501593409071674, 31.132058563934581 ] } },
{ "type": "Feature", "properties": { "addr": "上海市 浦东新区 浦星公路508号  " }, "geometry": { "type": "Point", "coordinates": [ 121.502835791070225, 31.128373921557504 ] } },
{ "type": "Feature", "properties": { "addr": "上海市 浦东新区 红旗村姜胡宅队江湖宅  " }, "geometry": { "type": "Point", "coordinates": [ 121.500206271181412, 31.126931789483034 ] } },
{ "type": "Feature", "properties": { "addr": "上海市 浦东新区 懿行路971弄  " }, "geometry": { "type": "Point", "coordinates": [ 121.519394975180049, 31.131133547765522 ] } },
{ "type": "Feature", "properties": { "addr": "上海市 浦东新区 中林村  " }, "geometry": { "type": "Point", "coordinates": [ 121.505046161608064, 31.142497469241221 ] } },
{ "type": "Feature", "properties": { "addr": "上海市 浦东新区 板泉路2000弄  " }, "geometry": { "type": "Point", "coordinates": [ 121.536884264814915, 31.189702255537771 ] } },
{ "type": "Feature", "properties": { "addr": "上海市 浦东新区 大道站路94弄  " }, "geometry": { "type": "Point", "coordinates": [ 121.545610314708298, 31.165459346349106 ] } },
{ "type": "Feature", "properties": { "addr": "上海市 浦东新区 通济路47弄  " }, "geometry": { "type": "Point", "coordinates": [ 121.752185907410549, 31.048884576351551 ] } },
{ "type": "Feature", "properties": { "addr": "上海市 浦东新区 兰嵩路360弄  " }, "geometry": { "type": "Point", "coordinates": [ 121.599493553774408, 31.329141154812422 ] } },
{ "type": "Feature", "properties": { "addr": "上海市 浦东新区 栖山路401弄  " }, "geometry": { "type": "Point", "coordinates": [ 121.55603344337112, 31.253987830572694 ] } },
{ "type": "Feature", "properties": { "addr": "上海市 浦东新区 张家桥村  " }, "geometry": { "type": "Point", "coordinates": [ 121.693207659152947, 31.043286160191865 ] } },
{ "type": "Feature", "properties": { "addr": "上海市 浦东新区 永宁路33弄  " }, "geometry": { "type": "Point", "coordinates": [ 121.620991980900314, 31.278981853544852 ] } },
{ "type": "Feature", "properties": { "addr": "上海市 浦东新区 群乐村付家宅  " }, "geometry": { "type": "Point", "coordinates": [ 121.831441066961574, 31.008589296309271 ] } },
{ "type": "Feature", "properties": { "addr": "上海市 浦东新区 川周公路4058弄  " }, "geometry": { "type": "Point", "coordinates": [ 121.59137826179726, 31.132164580808443 ] } },
{ "type": "Feature", "properties": { "addr": "上海市 浦东新区 国展路1776号工地生活区  " }, "geometry": { "type": "Point", "coordinates": [ 121.496566767972951, 31.188922647488646 ] } },
{ "type": "Feature", "properties": { "addr": "上海市 浦东新区 下南路526弄  " }, "geometry": { "type": "Point", "coordinates": [ 121.544402003966823, 31.17804189176027 ] } },
{ "type": "Feature", "properties": { "addr": "上海市 浦东新区 北艾路1077弄  " }, "geometry": { "type": "Point", "coordinates": [ 121.540540368240528, 31.186306106309136 ] } },
{ "type": "Feature", "properties": { "addr": "上海市 浦东新区 浦东大道2639弄  " }, "geometry": { "type": "Point", "coordinates": [ 121.573829414507088, 31.270096402842292 ] } },
{ "type": "Feature", "properties": { "addr": "上海市 浦东新区 环林西路608弄  " }, "geometry": { "type": "Point", "coordinates": [ 121.526498146339108, 31.146505600587343 ] } },
{ "type": "Feature", "properties": { "addr": "上海市 浦东新区 浦电路62弄  " }, "geometry": { "type": "Point", "coordinates": [ 121.524943538823536, 31.224365530063924 ] } },
{ "type": "Feature", "properties": { "addr": "上海市 浦东新区 栖霞路190弄  " }, "geometry": { "type": "Point", "coordinates": [ 121.526081152921378, 31.244186142787363 ] } },
{ "type": "Feature", "properties": { "addr": "上海市 浦东新区 长岛路1560弄  " }, "geometry": { "type": "Point", "coordinates": [ 121.608314285068531, 31.270698813371908 ] } },
{ "type": "Feature", "properties": { "addr": "上海市 浦东新区 周浦镇船厂街  " }, "geometry": { "type": "Point", "coordinates": [ 121.587383587024945, 31.120071988797605 ] } },
{ "type": "Feature", "properties": { "addr": "上海市 浦东新区 北张家浜路188弄  " }, "geometry": { "type": "Point", "coordinates": [ 121.531700772530698, 31.222277223307351 ] } },
{ "type": "Feature", "properties": { "addr": "上海市 浦东新区 川周公路4293弄  " }, "geometry": { "type": "Point", "coordinates": [ 121.588499731621098, 31.12640218041496 ] } },
{ "type": "Feature", "properties": { "addr": "上海市 浦东新区 沪南公路9399弄  " }, "geometry": { "type": "Point", "coordinates": [ 121.727441902477082, 31.045053278392288 ] } },
{ "type": "Feature", "properties": { "addr": "上海市 浦东新区 彩云路718弄  " }, "geometry": { "type": "Point", "coordinates": [ 121.81091388775306, 30.905383961584338 ] } },
{ "type": "Feature", "properties": { "addr": "上海市 浦东新区 博华路999弄  " }, "geometry": { "type": "Point", "coordinates": [ 121.557113925238525, 31.176806290465709 ] } },
{ "type": "Feature", "properties": { "addr": "上海市 浦东新区 上南路5588号  " }, "geometry": { "type": "Point", "coordinates": [ 121.534100685531158, 31.12914416758575 ] } },
{ "type": "Feature", "properties": { "addr": "上海市 浦东新区 城南路168弄  " }, "geometry": { "type": "Point", "coordinates": [ 121.639786957593927, 30.909245403394209 ] } },
{ "type": "Feature", "properties": { "addr": "上海市 浦东新区 卫星东路113弄  " }, "geometry": { "type": "Point", "coordinates": [ 121.764457838643452, 31.049234098930636 ] } },
{ "type": "Feature", "properties": { "addr": "上海市 浦东新区 通济路220弄  " }, "geometry": { "type": "Point", "coordinates": [ 121.750534552391557, 31.055674549371417 ] } },
{ "type": "Feature", "properties": { "addr": "上海市 浦东新区 蔡路村  " }, "geometry": { "type": "Point", "coordinates": [ 121.737464297051915, 31.219746024972316 ] } },
{ "type": "Feature", "properties": { "addr": "上海市 浦东新区 华夏二路728弄  " }, "geometry": { "type": "Point", "coordinates": [ 121.692337740097088, 31.193374057652374 ] } },
{ "type": "Feature", "properties": { "addr": "上海市 浦东新区 康意路御北路交界口工地生活区  " }, "geometry": { "type": "Point", "coordinates": [ 121.563785999583331, 31.163939297232389 ] } },
{ "type": "Feature", "properties": { "addr": "上海市 浦东新区 陈春东路99弄  " }, "geometry": { "type": "Point", "coordinates": [ 121.565897017531782, 31.181856496573577 ] } },
{ "type": "Feature", "properties": { "addr": "上海市 浦东新区 康梧路189号工地生活区  " }, "geometry": { "type": "Point", "coordinates": [ 121.557148959153409, 31.142277176998409 ] } },
{ "type": "Feature", "properties": { "addr": "上海市 浦东新区 永泰路133弄  " }, "geometry": { "type": "Point", "coordinates": [ 121.50921573646319, 31.141593889142552 ] } },
{ "type": "Feature", "properties": { "addr": "上海市 浦东新区 和炯路77弄  " }, "geometry": { "type": "Point", "coordinates": [ 121.525530311982649, 31.139159418419815 ] } },
{ "type": "Feature", "properties": { "addr": "上海市 浦东新区 思浦路13弄  " }, "geometry": { "type": "Point", "coordinates": [ 121.50015946946435, 31.164910255877725 ] } },
{ "type": "Feature", "properties": { "addr": "上海市 浦东新区 林展路278弄  " }, "geometry": { "type": "Point", "coordinates": [ 121.512901034817872, 31.132805821704117 ] } },
{ "type": "Feature", "properties": { "addr": "上海市 浦东新区 杨新路197弄  " }, "geometry": { "type": "Point", "coordinates": [ 121.4985201517392, 31.168845590720398 ] } },
{ "type": "Feature", "properties": { "addr": "上海市 浦东新区 环林东路879弄  " }, "geometry": { "type": "Point", "coordinates": [ 121.536437537484815, 31.144278100822874 ] } },
{ "type": "Feature", "properties": { "addr": "上海市 浦东新区 金葵路945弄  " }, "geometry": { "type": "Point", "coordinates": [ 121.602138614348533, 31.244250205910852 ] } },
{ "type": "Feature", "properties": { "addr": "上海市 浦东新区 杨镇路76弄  " }, "geometry": { "type": "Point", "coordinates": [ 121.599864464119463, 31.223672804118639 ] } },
{ "type": "Feature", "properties": { "addr": "上海市 浦东新区 金葵路1115弄  " }, "geometry": { "type": "Point", "coordinates": [ 121.602138614348533, 31.244250205910852 ] } },
{ "type": "Feature", "properties": { "addr": "上海市 浦东新区 林展路411弄  " }, "geometry": { "type": "Point", "coordinates": [ 121.515681739524013, 31.128169902288004 ] } },
{ "type": "Feature", "properties": { "addr": "上海市 浦东新区 环南一大道275号工地生活区  " }, "geometry": { "type": "Point", "coordinates": [ 121.49324916449828, 31.138012554218722 ] } },
{ "type": "Feature", "properties": { "addr": "上海市 浦东新区 御桥路269弄  " }, "geometry": { "type": "Point", "coordinates": [ 121.541309766909819, 31.157322621283878 ] } },
{ "type": "Feature", "properties": { "addr": "上海市 浦东新区 东风村曹家宅  " }, "geometry": { "type": "Point", "coordinates": [ 121.705700034558006, 31.232450813592735 ] } },
{ "type": "Feature", "properties": { "addr": "上海市 浦东新区 板泉路2101弄  " }, "geometry": { "type": "Point", "coordinates": [ 121.539604693221335, 31.168815850763366 ] } },
{ "type": "Feature", "properties": { "addr": "上海市 浦东新区 新浦路251弄  " }, "geometry": { "type": "Point", "coordinates": [ 121.541342016077635, 31.17422589586613 ] } },
{ "type": "Feature", "properties": { "addr": "上海市 浦东新区 三彩路166弄  " }, "geometry": { "type": "Point", "coordinates": [ 121.525530311982649, 31.139159418419815 ] } },
{ "type": "Feature", "properties": { "addr": "上海市 浦东新区 康桥路1001弄  " }, "geometry": { "type": "Point", "coordinates": [ 121.584859707864112, 31.120077939878794 ] } },
{ "type": "Feature", "properties": { "addr": "上海市 浦东新区 苗桥路935弄  " }, "geometry": { "type": "Point", "coordinates": [ 121.602516621307132, 31.104273708865044 ] } },
{ "type": "Feature", "properties": { "addr": "上海市 浦东新区 江东路25号  " }, "geometry": { "type": "Point", "coordinates": [ 121.555930138237471, 31.368827676072844 ] } },
{ "type": "Feature", "properties": { "addr": "上海市 浦东新区 创业路78弄  " }, "geometry": { "type": "Point", "coordinates": [ 121.584859707864112, 31.120077939878794 ] } },
{ "type": "Feature", "properties": { "addr": "上海市 浦东新区 迎春路719号  " }, "geometry": { "type": "Point", "coordinates": [ 121.559101605840439, 31.23055776115083 ] } },
{ "type": "Feature", "properties": { "addr": "上海市 浦东新区 东陆路1182弄  " }, "geometry": { "type": "Point", "coordinates": [ 121.602356004281958, 31.275368269875603 ] } },
{ "type": "Feature", "properties": { "addr": "上海市 浦东新区 浦东大道1623弄  " }, "geometry": { "type": "Point", "coordinates": [ 121.549043907859087, 31.251767592914419 ] } },
{ "type": "Feature", "properties": { "addr": "上海市 浦东新区 北洋泾路601号  " }, "geometry": { "type": "Point", "coordinates": [ 121.55725531852579, 31.249575627614259 ] } },
{ "type": "Feature", "properties": { "addr": "上海市 浦东新区 日新村  " }, "geometry": { "type": "Point", "coordinates": [ 121.818680457531229, 31.067839373744686 ] } },
{ "type": "Feature", "properties": { "addr": "上海市 浦东新区 龙居路179号  " }, "geometry": { "type": "Point", "coordinates": [ 121.569740956639535, 31.25818806294194 ] } },
{ "type": "Feature", "properties": { "addr": "上海市 浦东新区 大陆家宅  " }, "geometry": { "type": "Point", "coordinates": [ 121.553185994565595, 31.244897858469482 ] } },
{ "type": "Feature", "properties": { "addr": "上海市 浦东新区 崮山路908号  " }, "geometry": { "type": "Point", "coordinates": [ 121.568134516896038, 31.242554139213205 ] } },
{ "type": "Feature", "properties": { "addr": "上海市 浦东新区 五莲路108弄  " }, "geometry": { "type": "Point", "coordinates": [ 121.588773624971083, 31.277157873113886 ] } },
{ "type": "Feature", "properties": { "addr": "上海市 浦东新区 浦东大道1851弄  " }, "geometry": { "type": "Point", "coordinates": [ 121.552497443392198, 31.253101686701353 ] } },
{ "type": "Feature", "properties": { "addr": "上海市 浦东新区 张杨路2238弄  " }, "geometry": { "type": "Point", "coordinates": [ 121.563858043685229, 31.246144602101179 ] } },
{ "type": "Feature", "properties": { "addr": "上海市 浦东新区 宣春路22号  " }, "geometry": { "type": "Point", "coordinates": [ 121.719668775068712, 31.088574826937862 ] } },
{ "type": "Feature", "properties": { "addr": "上海市 浦东新区 高宝路528弄  " }, "geometry": { "type": "Point", "coordinates": [ 121.58962611690005, 31.28158489894264 ] } },
{ "type": "Feature", "properties": { "addr": "上海市 浦东新区 环镇东路200弄  " }, "geometry": { "type": "Point", "coordinates": [ 121.610552413246651, 31.02659962387937 ] } },
{ "type": "Feature", "properties": { "addr": "上海市 浦东新区 巨峰路995弄  " }, "geometry": { "type": "Point", "coordinates": [ 121.58962611690005, 31.28158489894264 ] } },
{ "type": "Feature", "properties": { "addr": "上海市 浦东新区 仁庆路356号  " }, "geometry": { "type": "Point", "coordinates": [ 121.710340052008689, 31.251423685980122 ] } },
{ "type": "Feature", "properties": { "addr": "上海市 浦东新区 雪野二路977号工地生活区  " }, "geometry": { "type": "Point", "coordinates": [ 121.488873895067954, 31.185186463759859 ] } },
{ "type": "Feature", "properties": { "addr": "上海市 浦东新区 韵浦路267弄  " }, "geometry": { "type": "Point", "coordinates": [ 121.588291773895534, 31.117504641765283 ] } },
{ "type": "Feature", "properties": { "addr": "上海市 浦东新区 关岳路181弄  " }, "geometry": { "type": "Point", "coordinates": [ 121.593389118681344, 31.126134708539809 ] } },
{ "type": "Feature", "properties": { "addr": "上海市 浦东新区 果园村  " }, "geometry": { "type": "Point", "coordinates": [ 121.737440132633708, 30.983664773262714 ] } },
{ "type": "Feature", "properties": { "addr": "上海市 浦东新区 康沈路2132号  " }, "geometry": { "type": "Point", "coordinates": [ 121.587455631126844, 31.109873291437935 ] } },
{ "type": "Feature", "properties": { "addr": "上海市 浦东新区 周南村  " }, "geometry": { "type": "Point", "coordinates": [ 121.589970886554781, 31.111919735760996 ] } },
{ "type": "Feature", "properties": { "addr": "上海市 浦东新区 康沈路2868号  " }, "geometry": { "type": "Point", "coordinates": [ 121.588231587426364, 31.09968840712423 ] } },
{ "type": "Feature", "properties": { "addr": "上海市 浦东新区 周市路66号  " }, "geometry": { "type": "Point", "coordinates": [ 121.58929985233884, 31.116348933998541 ] } },
{ "type": "Feature", "properties": { "addr": "上海市 浦东新区 周市路39弄  " }, "geometry": { "type": "Point", "coordinates": [ 121.58821829250482, 31.116204711059531 ] } },
{ "type": "Feature", "properties": { "addr": "上海市 浦东新区 鹤驰路99弄  " }, "geometry": { "type": "Point", "coordinates": [ 121.599741665756255, 31.084967271555595 ] } },
{ "type": "Feature", "properties": { "addr": "上海市 浦东新区 瑞浦路8弄  " }, "geometry": { "type": "Point", "coordinates": [ 121.550454606831948, 31.227348292436346 ] } },
{ "type": "Feature", "properties": { "addr": "上海市 浦东新区 周邓公路6600弄  " }, "geometry": { "type": "Point", "coordinates": [ 121.609428902545318, 31.121067591709107 ] } },
{ "type": "Feature", "properties": { "addr": "上海市 浦东新区 繁荣东路150弄  " }, "geometry": { "type": "Point", "coordinates": [ 121.593214488090211, 31.112016970902442 ] } },
{ "type": "Feature", "properties": { "addr": "上海市 浦东新区 瑞安路80弄  " }, "geometry": { "type": "Point", "coordinates": [ 121.592960267630886, 31.09521536386751 ] } },
{ "type": "Feature", "properties": { "addr": "上海市 浦东新区 繁荣东路159弄  " }, "geometry": { "type": "Point", "coordinates": [ 121.59187017389452, 31.112814326185486 ] } },
{ "type": "Feature", "properties": { "addr": "上海市 浦东新区 红桥村  " }, "geometry": { "type": "Point", "coordinates": [ 121.639952155977198, 31.108110249652228 ] } },
{ "type": "Feature", "properties": { "addr": "上海市 浦东新区 韵浦路367弄  " }, "geometry": { "type": "Point", "coordinates": [ 121.584859707864112, 31.120077939878794 ] } },
{ "type": "Feature", "properties": { "addr": "上海市 浦东新区 坦西村  " }, "geometry": { "type": "Point", "coordinates": [ 121.65331067755497, 31.091888312065223 ] } },
{ "type": "Feature", "properties": { "addr": "上海市 浦东新区 上南路7718弄  " }, "geometry": { "type": "Point", "coordinates": [ 121.584859707864112, 31.120077939878794 ] } },
{ "type": "Feature", "properties": { "addr": "上海市 浦东新区 瑞浦路287弄  " }, "geometry": { "type": "Point", "coordinates": [ 121.590850597140701, 31.100446829005506 ] } },
{ "type": "Feature", "properties": { "addr": "上海市 浦东新区 卫行村王家宅  " }, "geometry": { "type": "Point", "coordinates": [ 121.595027358439907, 31.163872552629829 ] } },
{ "type": "Feature", "properties": { "addr": "上海市 浦东新区 一六村油车队  " }, "geometry": { "type": "Point", "coordinates": [ 121.596814896574216, 31.168019975111559 ] } },
{ "type": "Feature", "properties": { "addr": "上海市 浦东新区 卫行村朱家队  " }, "geometry": { "type": "Point", "coordinates": [ 121.587201410667518, 31.166665202015878 ] } },
{ "type": "Feature", "properties": { "addr": "上海市 浦东新区 小南码头路4弄  " }, "geometry": { "type": "Point", "coordinates": [ 121.550454606831948, 31.227348292436346 ] } },
{ "type": "Feature", "properties": { "addr": "上海市 浦东新区 浦东南路2159号  " }, "geometry": { "type": "Point", "coordinates": [ 121.523540385616954, 31.213219917714536 ] } },
{ "type": "Feature", "properties": { "addr": "上海市 浦东新区 杨莲路58号  " }, "geometry": { "type": "Point", "coordinates": [ 121.55855184286834, 31.17503338232596 ] } },
{ "type": "Feature", "properties": { "addr": "上海市 浦东新区 陈春东路88弄  " }, "geometry": { "type": "Point", "coordinates": [ 121.565995831137883, 31.181447145347832 ] } },
{ "type": "Feature", "properties": { "addr": "上海市 浦东新区 鹏岳路70弄  " }, "geometry": { "type": "Point", "coordinates": [ 121.558803637902784, 31.180936844062057 ] } },
{ "type": "Feature", "properties": { "addr": "上海市 浦东新区 霞玉路436弄  " }, "geometry": { "type": "Point", "coordinates": [ 121.696086997804073, 31.262291027300432 ] } },
{ "type": "Feature", "properties": { "addr": "上海市 浦东新区 民同路290弄  " }, "geometry": { "type": "Point", "coordinates": [ 121.658550044441924, 31.27564688975859 ] } },
{ "type": "Feature", "properties": { "addr": "上海市 浦东新区 东海村马家宅  " }, "geometry": { "type": "Point", "coordinates": [ 121.66949410046999, 31.306727346136579 ] } },
{ "type": "Feature", "properties": { "addr": "上海市 浦东新区 创新西路199弄  " }, "geometry": { "type": "Point", "coordinates": [ 121.660810450596685, 31.207582255485885 ] } },
{ "type": "Feature", "properties": { "addr": "上海市 浦东新区 其成村  " }, "geometry": { "type": "Point", "coordinates": [ 121.692090616251292, 31.120092933510254 ] } },
{ "type": "Feature", "properties": { "addr": "上海市 浦东新区 新吉村  " }, "geometry": { "type": "Point", "coordinates": [ 121.725028425063428, 31.11674713037451 ] } },
{ "type": "Feature", "properties": { "addr": "上海市 浦东新区 南阜村高树队王家宅  " }, "geometry": { "type": "Point", "coordinates": [ 121.526881543130756, 31.136351345808084 ] } },
{ "type": "Feature", "properties": { "addr": "上海市 浦东新区 永泰路2079弄  " }, "geometry": { "type": "Point", "coordinates": [ 121.525530311982649, 31.139159418419815 ] } },
{ "type": "Feature", "properties": { "addr": "上海市 浦东新区 高科西路2111弄  " }, "geometry": { "type": "Point", "coordinates": [ 121.542330331799704, 31.194181224726066 ] } },
{ "type": "Feature", "properties": { "addr": "上海市 浦东新区 临家村周南队周家宅  " }, "geometry": { "type": "Point", "coordinates": [ 121.589970886554781, 31.111919735760996 ] } },
{ "type": "Feature", "properties": { "addr": "上海市 浦东新区 临家村周北队顾家宅  " }, "geometry": { "type": "Point", "coordinates": [ 121.75077008809626, 30.996837197708423 ] } },
{ "type": "Feature", "properties": { "addr": "上海市 浦东新区 军民路2928号  " }, "geometry": { "type": "Point", "coordinates": [ 121.751929531017993, 31.174336970080883 ] } },
{ "type": "Feature", "properties": { "addr": "上海市 浦东新区 康沈路465弄  " }, "geometry": { "type": "Point", "coordinates": [ 121.584859707864112, 31.120077939878794 ] } },
{ "type": "Feature", "properties": { "addr": "上海市 浦东新区 杨思路430弄  " }, "geometry": { "type": "Point", "coordinates": [ 121.499450167433665, 31.165366647001502 ] } },
{ "type": "Feature", "properties": { "addr": "上海市 浦东新区 龚华路50弄  " }, "geometry": { "type": "Point", "coordinates": [ 121.691832533078269, 31.270582837879559 ] } },
{ "type": "Feature", "properties": { "addr": "上海市 浦东新区 民春路361号  " }, "geometry": { "type": "Point", "coordinates": [ 121.670010985460422, 31.280920835301053 ] } },
{ "type": "Feature", "properties": { "addr": "上海市 浦东新区 新龙路203弄  " }, "geometry": { "type": "Point", "coordinates": [ 121.636621867960059, 31.320350942990618 ] } },
{ "type": "Feature", "properties": { "addr": "上海市 浦东新区 新园路439弄  " }, "geometry": { "type": "Point", "coordinates": [ 121.641715080540521, 31.319689700213736 ] } },
{ "type": "Feature", "properties": { "addr": "上海市 浦东新区 临沂路81弄  " }, "geometry": { "type": "Point", "coordinates": [ 121.525886040964608, 31.201341632054891 ] } },
{ "type": "Feature", "properties": { "addr": "上海市 浦东新区 浦三路277弄  " }, "geometry": { "type": "Point", "coordinates": [ 121.521689337283092, 31.199345245911452 ] } },
{ "type": "Feature", "properties": { "addr": "上海市 浦东新区 花墙村  " }, "geometry": { "type": "Point", "coordinates": [ 121.552741692660348, 31.156328175262196 ] } },
{ "type": "Feature", "properties": { "addr": "上海市 浦东新区 南阜村东汤队东汤家宅  " }, "geometry": { "type": "Point", "coordinates": [ 121.526167659741986, 31.136051601892248 ] } },
{ "type": "Feature", "properties": { "addr": "上海市 浦东新区 南阜村西汤队西汤家宅  " }, "geometry": { "type": "Point", "coordinates": [ 121.526167659741986, 31.136051601892248 ] } },
{ "type": "Feature", "properties": { "addr": "上海市 浦东新区 杨新路93弄  " }, "geometry": { "type": "Point", "coordinates": [ 121.500194952531999, 31.169327994680454 ] } },
{ "type": "Feature", "properties": { "addr": "上海市 浦东新区 杨思路860弄  " }, "geometry": { "type": "Point", "coordinates": [ 121.536884264814915, 31.189702255537771 ] } },
{ "type": "Feature", "properties": { "addr": "上海市 浦东新区 临江村筠西队庞家宅  " }, "geometry": { "type": "Point", "coordinates": [ 121.482806722267, 31.124007039641032 ] } },
{ "type": "Feature", "properties": { "addr": "上海市 浦东新区 上南路3521号  " }, "geometry": { "type": "Point", "coordinates": [ 121.511585466398515, 31.161595328123152 ] } },
{ "type": "Feature", "properties": { "addr": "上海市 浦东新区 峨山路622弄  " }, "geometry": { "type": "Point", "coordinates": [ 121.527834016463004, 31.219577409804572 ] } },
{ "type": "Feature", "properties": { "addr": "上海市 浦东新区 盛苑路777弄  " }, "geometry": { "type": "Point", "coordinates": [ 121.535357774261811, 31.164128252180721 ] } },
{ "type": "Feature", "properties": { "addr": "上海市 浦东新区 上浦路202弄  " }, "geometry": { "type": "Point", "coordinates": [ 121.498717239968087, 31.150139999629182 ] } },
{ "type": "Feature", "properties": { "addr": "上海市 浦东新区 康沈路250弄  " }, "geometry": { "type": "Point", "coordinates": [ 121.584859707864112, 31.120077939878794 ] } },
{ "type": "Feature", "properties": { "addr": "上海市 浦东新区 思浦路15弄  " }, "geometry": { "type": "Point", "coordinates": [ 121.499982772770551, 31.164508710192244 ] } },
{ "type": "Feature", "properties": { "addr": "上海市 浦东新区 杨思镇后长街  " }, "geometry": { "type": "Point", "coordinates": [ 121.502212007724097, 31.168464918558183 ] } },
{ "type": "Feature", "properties": { "addr": "上海市 浦东新区 海阳路215弄  " }, "geometry": { "type": "Point", "coordinates": [ 121.49560461137601, 31.159262270593285 ] } },
{ "type": "Feature", "properties": { "addr": "上海市 浦东新区 临江村益民队罗汉松  " }, "geometry": { "type": "Point", "coordinates": [ 121.487328612543138, 31.132083362831438 ] } },
{ "type": "Feature", "properties": { "addr": "上海市 浦东新区 临江村周南队周家宅  " }, "geometry": { "type": "Point", "coordinates": [ 121.478736410170754, 31.124012372204763 ] } },
{ "type": "Feature", "properties": { "addr": "上海市 浦东新区 临江村泰保队泰保堂  " }, "geometry": { "type": "Point", "coordinates": [ 121.484921243606948, 31.123965847508071 ] } },
{ "type": "Feature", "properties": { "addr": "上海市 浦东新区 新春村方家队许家宅  " }, "geometry": { "type": "Point", "coordinates": [ 121.643613828896974, 31.130068423571654 ] } },
{ "type": "Feature", "properties": { "addr": "上海市 浦东新区 新春村方家队方家宅  " }, "geometry": { "type": "Point", "coordinates": [ 121.807779340506542, 31.071406834433262 ] } },
{ "type": "Feature", "properties": { "addr": "上海市 浦东新区 牛肚村  " }, "geometry": { "type": "Point", "coordinates": [ 121.835494131592043, 31.058898708361337 ] } },
{ "type": "Feature", "properties": { "addr": "上海市 浦东新区 建中路285弄  " }, "geometry": { "type": "Point", "coordinates": [ 121.525530311982649, 31.139159418419815 ] } },
{ "type": "Feature", "properties": { "addr": "上海市 浦东新区 宏港苑285弄  " }, "geometry": { "type": "Point", "coordinates": [ 121.849028271897012, 31.041067740271547 ] } },
{ "type": "Feature", "properties": { "addr": "上海市 浦东新区 龙阳路1880弄  " }, "geometry": { "type": "Point", "coordinates": [ 121.559292495761312, 31.206698915055398 ] } },
{ "type": "Feature", "properties": { "addr": "上海市 浦东新区 芳华路573弄  " }, "geometry": { "type": "Point", "coordinates": [ 121.569065790218232, 31.202881074402363 ] } },
{ "type": "Feature", "properties": { "addr": "上海市 浦东新区 锦安东路458弄  " }, "geometry": { "type": "Point", "coordinates": [ 121.548974019690405, 31.206312837075853 ] } },
{ "type": "Feature", "properties": { "addr": "上海市 浦东新区 牡丹路259弄  " }, "geometry": { "type": "Point", "coordinates": [ 121.555825036492806, 31.214654701261765 ] } },
{ "type": "Feature", "properties": { "addr": "上海市 浦东新区 高科西路3000弄  " }, "geometry": { "type": "Point", "coordinates": [ 121.570701963874114, 31.195867897271857 ] } },
{ "type": "Feature", "properties": { "addr": "上海市 浦东新区 林德路718弄  " }, "geometry": { "type": "Point", "coordinates": [ 121.517756825252064, 31.134869848898855 ] } },
{ "type": "Feature", "properties": { "addr": "上海市 浦东新区 临江村周北队周家宅  " }, "geometry": { "type": "Point", "coordinates": [ 121.478736410170754, 31.124012372204763 ] } },
{ "type": "Feature", "properties": { "addr": "上海市 浦东新区 东建路348号  " }, "geometry": { "type": "Point", "coordinates": [ 121.54043903937901, 31.206553286628463 ] } },
{ "type": "Feature", "properties": { "addr": "上海市 浦东新区 锦安东路270弄  " }, "geometry": { "type": "Point", "coordinates": [ 121.550419033933764, 31.208037898371934 ] } },
{ "type": "Feature", "properties": { "addr": "上海市 浦东新区 瑞和路168弄  " }, "geometry": { "type": "Point", "coordinates": [ 121.596005433479164, 31.091793375409306 ] } },
{ "type": "Feature", "properties": { "addr": "上海市 浦东新区 沪南路3633弄  " }, "geometry": { "type": "Point", "coordinates": [ 121.57588114429187, 31.114219806853821 ] } },
{ "type": "Feature", "properties": { "addr": "上海市 浦东新区 上南路3300号  " }, "geometry": { "type": "Point", "coordinates": [ 121.505045802285878, 31.164360930441298 ] } },
{ "type": "Feature", "properties": { "addr": "上海市 浦东新区 百曲村  " }, "geometry": { "type": "Point", "coordinates": [ 121.554663071129198, 31.117902747608948 ] } },
{ "type": "Feature", "properties": { "addr": "上海市 浦东新区 浦东大道2894号  " }, "geometry": { "type": "Point", "coordinates": [ 121.582823967917406, 31.278944432984467 ] } },
{ "type": "Feature", "properties": { "addr": "上海市 浦东新区 博兴路465弄  " }, "geometry": { "type": "Point", "coordinates": [ 121.58987225260978, 31.272066665151705 ] } },
{ "type": "Feature", "properties": { "addr": "上海市 浦东新区 博山路459弄  " }, "geometry": { "type": "Point", "coordinates": [ 121.573006362217996, 31.258162519577869 ] } },
{ "type": "Feature", "properties": { "addr": "上海市 浦东新区 年家浜路28弄  " }, "geometry": { "type": "Point", "coordinates": [ 121.592127538423142, 31.1211568569416 ] } },
{ "type": "Feature", "properties": { "addr": "上海市 浦东新区 繁荣路128弄  " }, "geometry": { "type": "Point", "coordinates": [ 121.585084823224904, 31.111475915578982 ] } },
{ "type": "Feature", "properties": { "addr": "上海市 浦东新区 蓝靛路1688弄  " }, "geometry": { "type": "Point", "coordinates": [ 121.646025869021813, 31.103753943832537 ] } },
{ "type": "Feature", "properties": { "addr": "上海市 浦东新区 福山路309号  " }, "geometry": { "type": "Point", "coordinates": [ 121.536006979653877, 31.235613869533328 ] } },
{ "type": "Feature", "properties": { "addr": "上海市 浦东新区 源深路600弄  " }, "geometry": { "type": "Point", "coordinates": [ 121.540367174938211, 31.237760542935803 ] } },
{ "type": "Feature", "properties": { "addr": "上海市 浦东新区 张杨路1338号  " }, "geometry": { "type": "Point", "coordinates": [ 121.539192460822818, 31.23813383213902 ] } },
{ "type": "Feature", "properties": { "addr": "上海市 浦东新区 新德路835弄  " }, "geometry": { "type": "Point", "coordinates": [ 121.694507417395329, 31.201966570243894 ] } },
{ "type": "Feature", "properties": { "addr": "上海市 浦东新区 川周公路4005弄  " }, "geometry": { "type": "Point", "coordinates": [ 121.596689223633362, 31.13136406677863 ] } },
{ "type": "Feature", "properties": { "addr": "上海市 浦东新区 崮山路717号  " }, "geometry": { "type": "Point", "coordinates": [ 121.566756426413178, 31.245745874409899 ] } },
{ "type": "Feature", "properties": { "addr": "上海市 浦东新区 南码头路260弄  " }, "geometry": { "type": "Point", "coordinates": [ 121.514783344183485, 31.201976454318665 ] } },
{ "type": "Feature", "properties": { "addr": "上海市 浦东新区 浦东大道2746弄  " }, "geometry": { "type": "Point", "coordinates": [ 121.579756524092474, 31.27446558512791 ] } },
{ "type": "Feature", "properties": { "addr": "上海市 浦东新区 五莲路100弄  " }, "geometry": { "type": "Point", "coordinates": [ 121.585797359155421, 31.281678100479343 ] } },
{ "type": "Feature", "properties": { "addr": "上海市 浦东新区 利津路51弄  " }, "geometry": { "type": "Point", "coordinates": [ 121.584990231654714, 31.288414905552841 ] } },
{ "type": "Feature", "properties": { "addr": "上海市 浦东新区 长岛路625弄  " }, "geometry": { "type": "Point", "coordinates": [ 121.590574547857486, 31.266999409719872 ] } },
{ "type": "Feature", "properties": { "addr": "上海市 浦东新区 沪二小区  " }, "geometry": { "type": "Point", "coordinates": [ 121.589043475946283, 31.274819978085866 ] } },
{ "type": "Feature", "properties": { "addr": "上海市 浦东新区 莱阳路301弄  " }, "geometry": { "type": "Point", "coordinates": [ 121.585947196514496, 31.280357685263912 ] } },
{ "type": "Feature", "properties": { "addr": "上海市 浦东新区 思学路55弄  " }, "geometry": { "type": "Point", "coordinates": [ 121.58523762499216, 31.30471207446924 ] } },
{ "type": "Feature", "properties": { "addr": "上海市 浦东新区 高宝路68弄  " }, "geometry": { "type": "Point", "coordinates": [ 121.627291527950121, 31.297370662599629 ] } },
{ "type": "Feature", "properties": { "addr": "上海市 浦东新区 沪东新村  " }, "geometry": { "type": "Point", "coordinates": [ 121.588773624971083, 31.277157873113886 ] } },
{ "type": "Feature", "properties": { "addr": "上海市 浦东新区 拱川路411弄  " }, "geometry": { "type": "Point", "coordinates": [ 121.74965897401097, 31.069907843106915 ] } },
{ "type": "Feature", "properties": { "addr": "上海市 浦东新区 高宝路229弄  " }, "geometry": { "type": "Point", "coordinates": [ 121.627287216083673, 31.297669581878687 ] } },
{ "type": "Feature", "properties": { "addr": "上海市 浦东新区 仓房村  " }, "geometry": { "type": "Point", "coordinates": [ 121.520844031798205, 31.368919171715277 ] } },
{ "type": "Feature", "properties": { "addr": "上海市 浦东新区 紫薇路198弄  " }, "geometry": { "type": "Point", "coordinates": [ 121.622621596925939, 31.20768533706492 ] } },
{ "type": "Feature", "properties": { "addr": "上海市 浦东新区 上南路6932弄  " }, "geometry": { "type": "Point", "coordinates": [ 121.584859707864112, 31.120077939878794 ] } },
{ "type": "Feature", "properties": { "addr": "上海市 浦东新区 林浦路1240号  " }, "geometry": { "type": "Point", "coordinates": [ 121.482890534171091, 31.13267081991745 ] } },
{ "type": "Feature", "properties": { "addr": "上海市 浦东新区 秀浦路800弄  " }, "geometry": { "type": "Point", "coordinates": [ 121.584859707864112, 31.120077939878794 ] } },
{ "type": "Feature", "properties": { "addr": "上海市 浦东新区 川周公路4318弄  " }, "geometry": { "type": "Point", "coordinates": [ 121.587429400605956, 31.126894771815071 ] } },
{ "type": "Feature", "properties": { "addr": "上海市 浦东新区 康桥东路1244号  " }, "geometry": { "type": "Point", "coordinates": [ 121.637737129222472, 31.162447356055775 ] } },
{ "type": "Feature", "properties": { "addr": "上海市 浦东新区 沪南公路3150弄  " }, "geometry": { "type": "Point", "coordinates": [ 121.571774899975225, 31.127929792678614 ] } },
{ "type": "Feature", "properties": { "addr": "上海市 浦东新区 胜利路836弄  " }, "geometry": { "type": "Point", "coordinates": [ 121.708557634215794, 31.25218813627691 ] } },
{ "type": "Feature", "properties": { "addr": "上海市 浦东新区 华夏一路325弄  " }, "geometry": { "type": "Point", "coordinates": [ 121.694130129081131, 31.199287020883038 ] } },
{ "type": "Feature", "properties": { "addr": "上海市 浦东新区 东陆路898弄  " }, "geometry": { "type": "Point", "coordinates": [ 121.598981609464275, 31.280897766199242 ] } },
{ "type": "Feature", "properties": { "addr": "上海市 浦东新区 王桥街41弄  " }, "geometry": { "type": "Point", "coordinates": [ 121.706672090950349, 31.208840615134932 ] } },
{ "type": "Feature", "properties": { "addr": "上海市 浦东新区 柳埠路135弄  " }, "geometry": { "type": "Point", "coordinates": [ 121.58893424199627, 31.268891029980523 ] } },
{ "type": "Feature", "properties": { "addr": "上海市 浦东新区 小湾村大张家宅  " }, "geometry": { "type": "Point", "coordinates": [ 121.691947606014082, 31.236233793114234 ] } },
{ "type": "Feature", "properties": { "addr": "上海市 浦东新区 川周路8828弄  " }, "geometry": { "type": "Point", "coordinates": [ 121.716261861591576, 31.193206090036565 ] } },
{ "type": "Feature", "properties": { "addr": "上海市 浦东新区 罗山路1502弄  " }, "geometry": { "type": "Point", "coordinates": [ 121.575171482938998, 31.234888265801676 ] } },
{ "type": "Feature", "properties": { "addr": "上海市 浦东新区 五星村三联队黄家宅  " }, "geometry": { "type": "Point", "coordinates": [ 121.578365498010271, 31.179988450201478 ] } },
{ "type": "Feature", "properties": { "addr": "上海市 浦东新区 卫行村张家浜顾家宅  " }, "geometry": { "type": "Point", "coordinates": [ 121.587201410667518, 31.166665202015878 ] } },
{ "type": "Feature", "properties": { "addr": "上海市 浦东新区 陈春路620弄  " }, "geometry": { "type": "Point", "coordinates": [ 121.552907609688049, 31.178078194108803 ] } },
{ "type": "Feature", "properties": { "addr": "上海市 浦东新区 联勤村张家队张家宅  " }, "geometry": { "type": "Point", "coordinates": [ 121.691947606014082, 31.236233793114234 ] } },
{ "type": "Feature", "properties": { "addr": "上海市 浦东新区 三灶路451弄  " }, "geometry": { "type": "Point", "coordinates": [ 121.647430639178324, 31.18539082249962 ] } },
{ "type": "Feature", "properties": { "addr": "上海市 浦东新区 海塘村蔡家宅  " }, "geometry": { "type": "Point", "coordinates": [ 121.765364678055775, 31.218434771543873 ] } },
{ "type": "Feature", "properties": { "addr": "上海市 浦东新区 南新村东钟家宅  " }, "geometry": { "type": "Point", "coordinates": [ 121.548654941573261, 31.173251634963325 ] } },
{ "type": "Feature", "properties": { "addr": "上海市 浦东新区 中界村陆家队陆家宅  " }, "geometry": { "type": "Point", "coordinates": [ 121.507419754257086, 31.190563205456431 ] } },
{ "type": "Feature", "properties": { "addr": "上海市 浦东新区 成山路2008弄  " }, "geometry": { "type": "Point", "coordinates": [ 121.543485283193888, 31.183276545290262 ] } },
{ "type": "Feature", "properties": { "addr": "上海市 浦东新区 博兴路462弄  " }, "geometry": { "type": "Point", "coordinates": [ 121.589409086288853, 31.27201836204534 ] } },
{ "type": "Feature", "properties": { "addr": "上海市 浦东新区 赵家厍  " }, "geometry": { "type": "Point", "coordinates": [ 121.54343515774643, 31.176791383130574 ] } },
{ "type": "Feature", "properties": { "addr": "上海市 浦东新区 绿林路401号  " }, "geometry": { "type": "Point", "coordinates": [ 121.555601717743031, 31.175283799040667 ] } },
{ "type": "Feature", "properties": { "addr": "上海市 浦东新区 中界村复兴队陈家宅  " }, "geometry": { "type": "Point", "coordinates": [ 121.578579474382749, 31.194413133383005 ] } },
{ "type": "Feature", "properties": { "addr": "上海市 浦东新区 海滨村  " }, "geometry": { "type": "Point", "coordinates": [ 121.587542946422417, 31.357117341395575 ] } },
{ "type": "Feature", "properties": { "addr": "上海市 浦东新区 栏杆村潘家宅  " }, "geometry": { "type": "Point", "coordinates": [ 121.676689078452156, 31.178844788292746 ] } },
{ "type": "Feature", "properties": { "addr": "上海市 浦东新区 东风村潘家宅  " }, "geometry": { "type": "Point", "coordinates": [ 121.702325999062509, 31.233515855865203 ] } },
{ "type": "Feature", "properties": { "addr": "上海市 浦东新区 东书房路111号  " }, "geometry": { "type": "Point", "coordinates": [ 121.540040191732572, 31.175109310721886 ] } },
{ "type": "Feature", "properties": { "addr": "上海市 浦东新区 东书房路225号  " }, "geometry": { "type": "Point", "coordinates": [ 121.540409485127739, 31.174264516957113 ] } },
{ "type": "Feature", "properties": { "addr": "上海市 浦东新区 秀沿西路68弄  " }, "geometry": { "type": "Point", "coordinates": [ 121.543756032474604, 31.137587866279553 ] } },
{ "type": "Feature", "properties": { "addr": "上海市 浦东新区 春晖路368弄  " }, "geometry": { "type": "Point", "coordinates": [ 121.590196181576687, 31.344520565880408 ] } },
{ "type": "Feature", "properties": { "addr": "上海市 浦东新区 连波路66弄  " }, "geometry": { "type": "Point", "coordinates": [ 121.558484380124554, 31.200897848506106 ] } },
{ "type": "Feature", "properties": { "addr": "上海市 浦东新区 天花庵村芦家油车  " }, "geometry": { "type": "Point", "coordinates": [ 121.533159710509452, 31.130072519334625 ] } },
{ "type": "Feature", "properties": { "addr": "上海市 浦东新区 康沈路1620弄  " }, "geometry": { "type": "Point", "coordinates": [ 121.580895575479133, 31.123440008636891 ] } },
{ "type": "Feature", "properties": { "addr": "上海市 浦东新区 先进村  " }, "geometry": { "type": "Point", "coordinates": [ 121.810008575460103, 31.103827765483793 ] } },
{ "type": "Feature", "properties": { "addr": "上海市 浦东新区 南团公路105号  " }, "geometry": { "type": "Point", "coordinates": [ 121.770532180501931, 31.044232144159917 ] } },
{ "type": "Feature", "properties": { "addr": "上海市 浦东新区 镇中心路1002号  " }, "geometry": { "type": "Point", "coordinates": [ 121.336103072030738, 31.108961693692141 ] } },
{ "type": "Feature", "properties": { "addr": "上海市 浦东新区 顾东村顾东2队胡家宅  " }, "geometry": { "type": "Point", "coordinates": [ 121.668134784572288, 31.299381001669992 ] } },
{ "type": "Feature", "properties": { "addr": "上海市 浦东新区 民众村  " }, "geometry": { "type": "Point", "coordinates": [ 121.67691104974368, 31.282449015583392 ] } },
{ "type": "Feature", "properties": { "addr": "上海市 浦东新区 鹤东村  " }, "geometry": { "type": "Point", "coordinates": [ 121.602978260508721, 31.061148957303988 ] } },
{ "type": "Feature", "properties": { "addr": "上海市 浦东新区 仁义村  " }, "geometry": { "type": "Point", "coordinates": [ 121.647293378096393, 31.064314697494762 ] } },
{ "type": "Feature", "properties": { "addr": "上海市 浦东新区 年家浜路371弄  " }, "geometry": { "type": "Point", "coordinates": [ 121.578721137161679, 31.120414136710504 ] } },
{ "type": "Feature", "properties": { "addr": "上海市 浦东新区 川环南路416号  " }, "geometry": { "type": "Point", "coordinates": [ 121.711582947512284, 31.194617472003639 ] } },
{ "type": "Feature", "properties": { "addr": "上海市 浦东新区 年家浜路501弄  " }, "geometry": { "type": "Point", "coordinates": [ 121.575348089802262, 31.118909743146187 ] } },
{ "type": "Feature", "properties": { "addr": "上海市 浦东新区 白莲泾路与国展路交界口工地生活区  " }, "geometry": { "type": "Point", "coordinates": [ 121.507489462764667, 31.195157121516839 ] } },
{ "type": "Feature", "properties": { "addr": "上海市 浦东新区 海顺路359弄  " }, "geometry": { "type": "Point", "coordinates": [ 121.689367762419977, 31.2816070420314 ] } },
{ "type": "Feature", "properties": { "addr": "上海市 浦东新区 妙境路600弄  " }, "geometry": { "type": "Point", "coordinates": [ 121.697713379929894, 31.195320915495213 ] } },
{ "type": "Feature", "properties": { "addr": "上海市 浦东新区 施湾二路863弄  " }, "geometry": { "type": "Point", "coordinates": [ 121.755672590416964, 31.148849637577875 ] } },
{ "type": "Feature", "properties": { "addr": "上海市 浦东新区 川环南路130弄  " }, "geometry": { "type": "Point", "coordinates": [ 121.71721298746553, 31.1961566387291 ] } },
{ "type": "Feature", "properties": { "addr": "上海市 浦东新区 御桥路290292号工地生活区  " }, "geometry": { "type": "Point", "coordinates": [ 121.542390069116124, 31.155811788475507 ] } },
{ "type": "Feature", "properties": { "addr": "上海市 浦东新区 浦电路489号工地生活区  " }, "geometry": { "type": "Point", "coordinates": [ 121.541418012723781, 31.228541386204874 ] } },
{ "type": "Feature", "properties": { "addr": "上海市 浦东新区 御北路235号工地生活区  " }, "geometry": { "type": "Point", "coordinates": [ 121.565527172320373, 31.16483088712021 ] } },
{ "type": "Feature", "properties": { "addr": "上海市 浦东新区 寿光路185号  " }, "geometry": { "type": "Point", "coordinates": [ 121.592731020064733, 31.280385846704153 ] } },
{ "type": "Feature", "properties": { "addr": "上海市 浦东新区 莲溪路780弄  " }, "geometry": { "type": "Point", "coordinates": [ 121.568717157849804, 31.183478204983921 ] } },
{ "type": "Feature", "properties": { "addr": "上海市 浦东新区 杨桥村西计队  " }, "geometry": { "type": "Point", "coordinates": [ 121.570644651982562, 31.190980934765687 ] } },
{ "type": "Feature", "properties": { "addr": "上海市 浦东新区 北艾路1765弄  " }, "geometry": { "type": "Point", "coordinates": [ 121.528398601476013, 31.184265453706548 ] } },
{ "type": "Feature", "properties": { "addr": "上海市 浦东新区 夏碧路380弄  " }, "geometry": { "type": "Point", "coordinates": [ 121.593186999941608, 31.343445840732841 ] } },
{ "type": "Feature", "properties": { "addr": "上海市 浦东新区 春晖路106弄  " }, "geometry": { "type": "Point", "coordinates": [ 121.592755543805168, 31.348381501767761 ] } },
{ "type": "Feature", "properties": { "addr": "上海市 浦东新区 陆万村  " }, "geometry": { "type": "Point", "coordinates": [ 121.703053896017252, 31.269797318113351 ] } },
{ "type": "Feature", "properties": { "addr": "上海市 浦东新区 民耀路290弄  " }, "geometry": { "type": "Point", "coordinates": [ 121.652778790862527, 31.290487771739045 ] } },
{ "type": "Feature", "properties": { "addr": "上海市 浦东新区 三林路430弄  " }, "geometry": { "type": "Point", "coordinates": [ 121.507487037339786, 31.144729724509741 ] } },
{ "type": "Feature", "properties": { "addr": "上海市 浦东新区 川周公路3126号  " }, "geometry": { "type": "Point", "coordinates": [ 121.614989413652083, 31.14512934591589 ] } },
{ "type": "Feature", "properties": { "addr": "上海市 浦东新区 顾全路153号  " }, "geometry": { "type": "Point", "coordinates": [ 121.540464012272182, 31.177351835509036 ] } },
{ "type": "Feature", "properties": { "addr": "上海市 浦东新区 上南路4265弄  " }, "geometry": { "type": "Point", "coordinates": [ 121.519804782153713, 31.151809926314225 ] } },
{ "type": "Feature", "properties": { "addr": "上海市 浦东新区 秀沿路1177弄9支弄  " }, "geometry": { "type": "Point", "coordinates": [ 121.584859707864112, 31.120077939878794 ] } },
{ "type": "Feature", "properties": { "addr": "上海市 浦东新区 民耀路391弄  " }, "geometry": { "type": "Point", "coordinates": [ 121.652778790862527, 31.290487771739045 ] } },
{ "type": "Feature", "properties": { "addr": "上海市 浦东新区 浦东大道3080弄  " }, "geometry": { "type": "Point", "coordinates": [ 121.584325575407888, 31.288610244045692 ] } },
{ "type": "Feature", "properties": { "addr": "上海市 浦东新区 周市路1321号  " }, "geometry": { "type": "Point", "coordinates": [ 121.589701664393431, 31.119318594332626 ] } },
{ "type": "Feature", "properties": { "addr": "上海市 浦东新区 德平路1134弄  " }, "geometry": { "type": "Point", "coordinates": [ 121.576286010585221, 31.245640905164709 ] } },
{ "type": "Feature", "properties": { "addr": "上海市 浦东新区 瑞意路399弄  " }, "geometry": { "type": "Point", "coordinates": [ 121.592686284450338, 31.102791860761887 ] } },
{ "type": "Feature", "properties": { "addr": "上海市 浦东新区 前哨村张家宅  " }, "geometry": { "type": "Point", "coordinates": [ 121.740482334073803, 31.241826968403426 ] } },
{ "type": "Feature", "properties": { "addr": "上海市 浦东新区 南桥路707弄  " }, "geometry": { "type": "Point", "coordinates": [ 121.702515811016781, 31.194824049710224 ] } },
{ "type": "Feature", "properties": { "addr": "上海市 浦东新区 年家浜东路129弄  " }, "geometry": { "type": "Point", "coordinates": [ 121.598925375539352, 31.120365137063242 ] } },
{ "type": "Feature", "properties": { "addr": "上海市 浦东新区 瑞浦路611弄  " }, "geometry": { "type": "Point", "coordinates": [ 121.592073640092536, 31.097330078746456 ] } },
{ "type": "Feature", "properties": { "addr": "上海市 浦东新区 康沈路1938弄  " }, "geometry": { "type": "Point", "coordinates": [ 121.582681317002411, 31.114757754737909 ] } },
{ "type": "Feature", "properties": { "addr": "上海市 浦东新区 周星路500弄  " }, "geometry": { "type": "Point", "coordinates": [ 121.58569980317705, 31.108059311174181 ] } },
{ "type": "Feature", "properties": { "addr": "上海市 浦东新区 杨桥村蒋家队  " }, "geometry": { "type": "Point", "coordinates": [ 121.570644651982562, 31.190980934765687 ] } },
{ "type": "Feature", "properties": { "addr": "上海市 浦东新区 川周公路2788号  " }, "geometry": { "type": "Point", "coordinates": [ 121.630962183924993, 31.149872904407559 ] } },
{ "type": "Feature", "properties": { "addr": "上海市 浦东新区 五星村东平队秦家宅  " }, "geometry": { "type": "Point", "coordinates": [ 121.578783479564066, 31.180063756685708 ] } },
{ "type": "Feature", "properties": { "addr": "上海市 浦东新区 海科路777号  " }, "geometry": { "type": "Point", "coordinates": [ 121.609977318059165, 31.186947749607842 ] } },
{ "type": "Feature", "properties": { "addr": "上海市 浦东新区 五莲路30弄  " }, "geometry": { "type": "Point", "coordinates": [ 121.584500744982321, 31.281555271944608 ] } },
{ "type": "Feature", "properties": { "addr": "上海市 浦东新区 紫雅路58号  " }, "geometry": { "type": "Point", "coordinates": [ 121.655219217441484, 31.24866103938335 ] } },
{ "type": "Feature", "properties": { "addr": "上海市 浦东新区 民耀路268弄  " }, "geometry": { "type": "Point", "coordinates": [ 121.659229253238024, 31.278209443845476 ] } },
{ "type": "Feature", "properties": { "addr": "上海市 浦东新区 新星村东新港  " }, "geometry": { "type": "Point", "coordinates": [ 121.71559180922354, 31.259718872637045 ] } },
{ "type": "Feature", "properties": { "addr": "上海市 浦东新区 龚华路235弄  " }, "geometry": { "type": "Point", "coordinates": [ 121.692081992518382, 31.271191263925381 ] } },
{ "type": "Feature", "properties": { "addr": "上海市 浦东新区 上川路1468弄  " }, "geometry": { "type": "Point", "coordinates": [ 121.670004517660757, 31.283525138233802 ] } },
{ "type": "Feature", "properties": { "addr": "上海市 浦东新区 海松路398弄  " }, "geometry": { "type": "Point", "coordinates": [ 121.687490753056892, 31.283934428831106 ] } },
{ "type": "Feature", "properties": { "addr": "上海市 浦东新区 民耀路98弄  " }, "geometry": { "type": "Point", "coordinates": [ 121.658117959491619, 31.280170739378139 ] } },
{ "type": "Feature", "properties": { "addr": "上海市 浦东新区 东海村胡家宅  " }, "geometry": { "type": "Point", "coordinates": [ 121.677869901045028, 31.307054928763691 ] } },
{ "type": "Feature", "properties": { "addr": "上海市 浦东新区 大丰村丁家宅  " }, "geometry": { "type": "Point", "coordinates": [ 121.669724605663845, 31.2288207632593 ] } },
{ "type": "Feature", "properties": { "addr": "上海市 浦东新区 龚路支路473弄  " }, "geometry": { "type": "Point", "coordinates": [ 121.695481180568152, 31.269469759049262 ] } },
{ "type": "Feature", "properties": { "addr": "上海市 浦东新区 长清路643弄  " }, "geometry": { "type": "Point", "coordinates": [ 121.498775809487327, 31.164183177280332 ] } },
{ "type": "Feature", "properties": { "addr": "上海市 浦东新区 秀沿路2弄  " }, "geometry": { "type": "Point", "coordinates": [ 121.550454606831948, 31.227348292436346 ] } },
{ "type": "Feature", "properties": { "addr": "上海市 浦东新区 秀沿西路218弄  " }, "geometry": { "type": "Point", "coordinates": [ 121.540521863147035, 31.135764607207779 ] } },
{ "type": "Feature", "properties": { "addr": "上海市 浦东新区 秀沿西路258弄  " }, "geometry": { "type": "Point", "coordinates": [ 121.538346257032401, 31.135478848031838 ] } },
{ "type": "Feature", "properties": { "addr": "上海市 浦东新区 太平村  " }, "geometry": { "type": "Point", "coordinates": [ 121.766819034676416, 31.224990700598582 ] } },
{ "type": "Feature", "properties": { "addr": "上海市 浦东新区 浦三路12弄  " }, "geometry": { "type": "Point", "coordinates": [ 121.517827791387361, 31.202722003983574 ] } },
{ "type": "Feature", "properties": { "addr": "上海市 浦东新区 南阜村高树队西汤家宅  " }, "geometry": { "type": "Point", "coordinates": [ 121.526881543130756, 31.136351345808084 ] } },
{ "type": "Feature", "properties": { "addr": "上海市 浦东新区 金光村  " }, "geometry": { "type": "Point", "coordinates": [ 121.526093190215207, 31.136167434985779 ] } },
{ "type": "Feature", "properties": { "addr": "上海市 浦东新区 南阜村高树队油车头  " }, "geometry": { "type": "Point", "coordinates": [ 121.526881543130756, 31.136351345808084 ] } },
{ "type": "Feature", "properties": { "addr": "上海市 浦东新区 长清路807弄  " }, "geometry": { "type": "Point", "coordinates": [ 121.499222985970206, 31.162053280418661 ] } },
{ "type": "Feature", "properties": { "addr": "上海市 浦东新区 灵岩南路208弄  " }, "geometry": { "type": "Point", "coordinates": [ 121.501321068319299, 31.163888002773543 ] } },
{ "type": "Feature", "properties": { "addr": "上海市 浦东新区 永泰路258弄  " }, "geometry": { "type": "Point", "coordinates": [ 121.515385298705723, 31.142141107066514 ] } },
{ "type": "Feature", "properties": { "addr": "上海市 浦东新区 上南路3651弄  " }, "geometry": { "type": "Point", "coordinates": [ 121.513459421522867, 31.160585322193327 ] } },
{ "type": "Feature", "properties": { "addr": "上海市 浦东新区 临江村小金家宅  " }, "geometry": { "type": "Point", "coordinates": [ 121.488457692738621, 31.129941995781369 ] } },
{ "type": "Feature", "properties": { "addr": "上海市 浦东新区 杨新路77弄  " }, "geometry": { "type": "Point", "coordinates": [ 121.500168003366696, 31.169243023786645 ] } },
{ "type": "Feature", "properties": { "addr": "上海市 浦东新区 川环南路399号  " }, "geometry": { "type": "Point", "coordinates": [ 121.71234542922916, 31.194239221250541 ] } },
{ "type": "Feature", "properties": { "addr": "上海市 浦东新区 竞赛村  " }, "geometry": { "type": "Point", "coordinates": [ 121.656863565677497, 31.308272150010254 ] } },
{ "type": "Feature", "properties": { "addr": "上海市 浦东新区 草高支路1050弄  " }, "geometry": { "type": "Point", "coordinates": [ 121.569634687097704, 31.357478204384549 ] } },
{ "type": "Feature", "properties": { "addr": "上海市 浦东新区 浦电路307号  " }, "geometry": { "type": "Point", "coordinates": [ 121.532363272844307, 31.225631306922903 ] } },
{ "type": "Feature", "properties": { "addr": "上海市 浦东新区 福山路307号  " }, "geometry": { "type": "Point", "coordinates": [ 121.535684847298, 31.235608774888448 ] } },
{ "type": "Feature", "properties": { "addr": "上海市 浦东新区 华夏东路2110弄  " }, "geometry": { "type": "Point", "coordinates": [ 121.699235019633235, 31.205382845904523 ] } },
{ "type": "Feature", "properties": { "addr": "上海市 浦东新区 妙川路1000弄  " }, "geometry": { "type": "Point", "coordinates": [ 121.710073524763871, 31.184302294282435 ] } },
{ "type": "Feature", "properties": { "addr": "上海市 浦东新区 新川路625弄  " }, "geometry": { "type": "Point", "coordinates": [ 121.700788369521078, 31.197903277761203 ] } },
{ "type": "Feature", "properties": { "addr": "上海市 浦东新区 新镇村  " }, "geometry": { "type": "Point", "coordinates": [ 121.648514804098312, 31.221847435503069 ] } },
{ "type": "Feature", "properties": { "addr": "上海市 浦东新区 创新西路75弄  " }, "geometry": { "type": "Point", "coordinates": [ 121.663731470623475, 31.209726792242737 ] } },
{ "type": "Feature", "properties": { "addr": "上海市 浦东新区 川环南路148弄  " }, "geometry": { "type": "Point", "coordinates": [ 121.717024972122289, 31.195697849064974 ] } },
{ "type": "Feature", "properties": { "addr": "上海市 浦东新区 下南路309弄  " }, "geometry": { "type": "Point", "coordinates": [ 121.529696185109415, 31.207201251711854 ] } },
{ "type": "Feature", "properties": { "addr": "上海市 浦东新区 下南路386号  " }, "geometry": { "type": "Point", "coordinates": [ 121.547114976437513, 31.176895425466739 ] } },
{ "type": "Feature", "properties": { "addr": "上海市 浦东新区 西营南路18弄  " }, "geometry": { "type": "Point", "coordinates": [ 121.493133642409703, 31.165473482991562 ] } },
{ "type": "Feature", "properties": { "addr": "上海市 浦东新区 南港公路1576弄  " }, "geometry": { "type": "Point", "coordinates": [ 121.842986179206349, 31.045995712415792 ] } },
{ "type": "Feature", "properties": { "addr": "上海市 浦东新区 观海路1588号  " }, "geometry": { "type": "Point", "coordinates": [ 121.794511457954712, 31.07239328684237 ] } },
{ "type": "Feature", "properties": { "addr": "上海市 浦东新区 军民新村  " }, "geometry": { "type": "Point", "coordinates": [ 121.74786299180488, 30.977090837396347 ] } },
{ "type": "Feature", "properties": { "addr": "上海市 浦东新区 拱海路79弄  " }, "geometry": { "type": "Point", "coordinates": [ 121.74678161163196, 31.07553127655628 ] } },
{ "type": "Feature", "properties": { "addr": "上海市 浦东新区 民乐村  " }, "geometry": { "type": "Point", "coordinates": [ 121.740500569675646, 31.070192332385091 ] } },
{ "type": "Feature", "properties": { "addr": "上海市 浦东新区 金石村  " }, "geometry": { "type": "Point", "coordinates": [ 121.788425887277384, 30.962744442196531 ] } },
{ "type": "Feature", "properties": { "addr": "上海市 浦东新区 施湾三路1106弄  " }, "geometry": { "type": "Point", "coordinates": [ 121.758679578281061, 31.14561635323 ] } },
{ "type": "Feature", "properties": { "addr": "上海市 浦东新区 南三支路139弄  " }, "geometry": { "type": "Point", "coordinates": [ 121.743909010272148, 30.974570912511133 ] } },
{ "type": "Feature", "properties": { "addr": "上海市 浦东新区 建港村  " }, "geometry": { "type": "Point", "coordinates": [ 121.848000161240847, 31.036517804975315 ] } },
{ "type": "Feature", "properties": { "addr": "上海市 浦东新区 通源东路16号  " }, "geometry": { "type": "Point", "coordinates": [ 121.895334393817009, 31.011378201657909 ] } },
{ "type": "Feature", "properties": { "addr": "上海市 浦东新区 镇南村  " }, "geometry": { "type": "Point", "coordinates": [ 121.585893837167205, 31.345267831413143 ] } },
{ "type": "Feature", "properties": { "addr": "上海市 浦东新区 南港公路1351号  " }, "geometry": { "type": "Point", "coordinates": [ 121.839739523432186, 31.04580989744181 ] } },
{ "type": "Feature", "properties": { "addr": "上海市 浦东新区 新环西路1185弄  " }, "geometry": { "type": "Point", "coordinates": [ 121.646640229230783, 31.026465006422402 ] } },
{ "type": "Feature", "properties": { "addr": "上海市 浦东新区 永春西二路86弄  " }, "geometry": { "type": "Point", "coordinates": [ 121.74365856269597, 30.980349185265929 ] } },
{ "type": "Feature", "properties": { "addr": "上海市 浦东新区 向城路29号  " }, "geometry": { "type": "Point", "coordinates": [ 121.536260930621552, 31.230963732765602 ] } },
{ "type": "Feature", "properties": { "addr": "上海市 浦东新区 高博路188弄  " }, "geometry": { "type": "Point", "coordinates": [ 121.58962611690005, 31.28158489894264 ] } },
{ "type": "Feature", "properties": { "addr": "上海市 浦东新区 浦电路221号  " }, "geometry": { "type": "Point", "coordinates": [ 121.530044566661957, 31.224988307387651 ] } },
{ "type": "Feature", "properties": { "addr": "上海市 浦东新区 季景路370弄  " }, "geometry": { "type": "Point", "coordinates": [ 121.595858650358821, 31.342088287628954 ] } },
{ "type": "Feature", "properties": { "addr": "上海市 浦东新区 东书房路560弄  " }, "geometry": { "type": "Point", "coordinates": [ 121.543073679609208, 31.167733309908424 ] } },
{ "type": "Feature", "properties": { "addr": "上海市 浦东新区 崂山三村  " }, "geometry": { "type": "Point", "coordinates": [ 121.52639681747759, 31.238932508563483 ] } },
{ "type": "Feature", "properties": { "addr": "上海市 浦东新区 浦东大道1695弄  " }, "geometry": { "type": "Point", "coordinates": [ 121.550783925631904, 31.253683600624225 ] } },
{ "type": "Feature", "properties": { "addr": "上海市 浦东新区 罗山路108弄  " }, "geometry": { "type": "Point", "coordinates": [ 121.558879454887844, 31.254641589752865 ] } },
{ "type": "Feature", "properties": { "addr": "上海市 浦东新区 栖山路465弄  " }, "geometry": { "type": "Point", "coordinates": [ 121.557328440594304, 31.253880941167854 ] } },
{ "type": "Feature", "properties": { "addr": "上海市 浦东新区 海防新村  " }, "geometry": { "type": "Point", "coordinates": [ 121.55970769256804, 31.255564608741121 ] } },
{ "type": "Feature", "properties": { "addr": "上海市 浦东新区 栖山路400弄  " }, "geometry": { "type": "Point", "coordinates": [ 121.557578978001033, 31.252017881658489 ] } },
{ "type": "Feature", "properties": { "addr": "上海市 浦东新区 博山路51弄  " }, "geometry": { "type": "Point", "coordinates": [ 121.563650984265195, 31.250794833134776 ] } },
{ "type": "Feature", "properties": { "addr": "上海市 浦东新区 金桥路530弄  " }, "geometry": { "type": "Point", "coordinates": [ 121.621784825343411, 31.260663815674061 ] } },
{ "type": "Feature", "properties": { "addr": "上海市 浦东新区 崮山路311号  " }, "geometry": { "type": "Point", "coordinates": [ 121.560707955753386, 31.251708319996219 ] } },
{ "type": "Feature", "properties": { "addr": "上海市 浦东新区 博山路11弄  " }, "geometry": { "type": "Point", "coordinates": [ 121.564218982839137, 31.251892158534069 ] } },
{ "type": "Feature", "properties": { "addr": "上海市 浦东新区 龙居路191弄  " }, "geometry": { "type": "Point", "coordinates": [ 121.569897171967725, 31.257917648521467 ] } },
{ "type": "Feature", "properties": { "addr": "上海市 浦东新区 崮山路17号  " }, "geometry": { "type": "Point", "coordinates": [ 121.556658753836615, 31.254049880394966 ] } },
{ "type": "Feature", "properties": { "addr": "上海市 浦东新区 张杨路2600弄  " }, "geometry": { "type": "Point", "coordinates": [ 121.566630753472324, 31.249006114187935 ] } },
{ "type": "Feature", "properties": { "addr": "上海市 浦东新区 德平路80弄  " }, "geometry": { "type": "Point", "coordinates": [ 121.567209801204072, 31.256605695307506 ] } },
{ "type": "Feature", "properties": { "addr": "上海市 浦东新区 崮山路73号  " }, "geometry": { "type": "Point", "coordinates": [ 121.557155606614188, 31.25365573984125 ] } },
{ "type": "Feature", "properties": { "addr": "上海市 浦东新区 沈家弄路936号  " }, "geometry": { "type": "Point", "coordinates": [ 121.553671079540976, 31.246009840667501 ] } },
{ "type": "Feature", "properties": { "addr": "上海市 浦东新区 联合村北浜宅  " }, "geometry": { "type": "Point", "coordinates": [ 121.681654911311313, 31.303733155222663 ] } },
{ "type": "Feature", "properties": { "addr": "上海市 浦东新区 荣成路9弄  " }, "geometry": { "type": "Point", "coordinates": [ 121.550454606831948, 31.227348292436346 ] } },
{ "type": "Feature", "properties": { "addr": "上海市 浦东新区 金园村  " }, "geometry": { "type": "Point", "coordinates": [ 121.78646641346846, 30.988646024834452 ] } },
{ "type": "Feature", "properties": { "addr": "上海市 浦东新区 金高路1058弄  " }, "geometry": { "type": "Point", "coordinates": [ 121.616020129394229, 31.289339442423078 ] } },
{ "type": "Feature", "properties": { "addr": "上海市 浦东新区 金高路1296弄  " }, "geometry": { "type": "Point", "coordinates": [ 121.616323846487163, 31.283790155064708 ] } },
{ "type": "Feature", "properties": { "addr": "上海市 浦东新区 莱阳路2450弄  " }, "geometry": { "type": "Point", "coordinates": [ 121.589639232160494, 31.317939859842426 ] } },
{ "type": "Feature", "properties": { "addr": "上海市 浦东新区 建新村  " }, "geometry": { "type": "Point", "coordinates": [ 121.682639184658598, 31.301143069401281 ] } },
{ "type": "Feature", "properties": { "addr": "上海市 浦东新区 长岛路259弄  " }, "geometry": { "type": "Point", "coordinates": [ 121.583252369815099, 31.273179327236935 ] } },
{ "type": "Feature", "properties": { "addr": "上海市 浦东新区 界浜村  " }, "geometry": { "type": "Point", "coordinates": [ 121.658641581773395, 31.120402389163338 ] } },
{ "type": "Feature", "properties": { "addr": "上海市 浦东新区 通济路328弄  " }, "geometry": { "type": "Point", "coordinates": [ 121.752532473676297, 31.05774885424886 ] } },
{ "type": "Feature", "properties": { "addr": "上海市 浦东新区 绿科路环业西路交界口工地生活区  " }, "geometry": { "type": "Point", "coordinates": [ 121.582003365834041, 31.182980426822898 ] } },
{ "type": "Feature", "properties": { "addr": "上海市 浦东新区 五星路88号工地生活区  " }, "geometry": { "type": "Point", "coordinates": [ 121.56722013171742, 31.179376495882025 ] } },
{ "type": "Feature", "properties": { "addr": "上海市 浦东新区 锦绣路666弄  " }, "geometry": { "type": "Point", "coordinates": [ 121.564378881219923, 31.228603452911862 ] } },
{ "type": "Feature", "properties": { "addr": "上海市 浦东新区 严民路248弄  " }, "geometry": { "type": "Point", "coordinates": [ 121.537136868324325, 31.1945944588328 ] } },
{ "type": "Feature", "properties": { "addr": "上海市 浦东新区 凌兆路555弄  " }, "geometry": { "type": "Point", "coordinates": [ 121.508150525789446, 31.150254347365593 ] } },
{ "type": "Feature", "properties": { "addr": "上海市 浦东新区 凌兆路586弄  " }, "geometry": { "type": "Point", "coordinates": [ 121.525530311982649, 31.139159418419815 ] } },
{ "type": "Feature", "properties": { "addr": "上海市 浦东新区 南奉公路971弄  " }, "geometry": { "type": "Point", "coordinates": [ 121.753816870894454, 31.188654709466149 ] } },
{ "type": "Feature", "properties": { "addr": "上海市 浦东新区 沿北村  " }, "geometry": { "type": "Point", "coordinates": [ 121.608678997105585, 31.145196644713096 ] } },
{ "type": "Feature", "properties": { "addr": "上海市 浦东新区 红旗村周家宅  " }, "geometry": { "type": "Point", "coordinates": [ 121.760312787528761, 31.174451442812664 ] } },
{ "type": "Feature", "properties": { "addr": "上海市 浦东新区 物流大道1076号  " }, "geometry": { "type": "Point", "coordinates": [ 121.773743173547345, 31.174048470369751 ] } },
{ "type": "Feature", "properties": { "addr": "上海市 浦东新区 鹏飞路333弄  " }, "geometry": { "type": "Point", "coordinates": [ 121.536884264814915, 31.189702255537771 ] } },
{ "type": "Feature", "properties": { "addr": "上海市 浦东新区 崮山路65号  " }, "geometry": { "type": "Point", "coordinates": [ 121.557038916728445, 31.253728517436901 ] } },
{ "type": "Feature", "properties": { "addr": "上海市 浦东新区 南六公路799号3支弄  " }, "geometry": { "type": "Point", "coordinates": [ 121.716623429559334, 31.078745554592079 ] } },
{ "type": "Feature", "properties": { "addr": "上海市 浦东新区 季桥村  " }, "geometry": { "type": "Point", "coordinates": [ 121.697999669895907, 31.064372155593095 ] } },
{ "type": "Feature", "properties": { "addr": "上海市 浦东新区 丁香路910弄  " }, "geometry": { "type": "Point", "coordinates": [ 121.560392021705539, 31.231240477950827 ] } },
{ "type": "Feature", "properties": { "addr": "上海市 浦东新区 芳甸路333弄  " }, "geometry": { "type": "Point", "coordinates": [ 121.529696185109415, 31.207201251711854 ] } },
{ "type": "Feature", "properties": { "addr": "上海市 浦东新区 寿光路78弄  " }, "geometry": { "type": "Point", "coordinates": [ 121.592102026546655, 31.279390855434528 ] } },
{ "type": "Feature", "properties": { "addr": "上海市 浦东新区 三林路359弄  " }, "geometry": { "type": "Point", "coordinates": [ 121.536884264814915, 31.189702255537771 ] } },
{ "type": "Feature", "properties": { "addr": "上海市 浦东新区 乳山路313弄  " }, "geometry": { "type": "Point", "coordinates": [ 121.52639681747759, 31.238932508563483 ] } },
{ "type": "Feature", "properties": { "addr": "上海市 浦东新区 高宝路379弄  " }, "geometry": { "type": "Point", "coordinates": [ 121.58962611690005, 31.28158489894264 ] } },
{ "type": "Feature", "properties": { "addr": "上海市 浦东新区 灵山路1415弄  " }, "geometry": { "type": "Point", "coordinates": [ 121.570780206284013, 31.244998737805226 ] } },
{ "type": "Feature", "properties": { "addr": "上海市 浦东新区 万德路50弄  " }, "geometry": { "type": "Point", "coordinates": [ 121.564225720130466, 31.256165646640646 ] } },
{ "type": "Feature", "properties": { "addr": "上海市 浦东新区 云山路1045弄  " }, "geometry": { "type": "Point", "coordinates": [ 121.580790653395567, 31.254575295646955 ] } },
{ "type": "Feature", "properties": { "addr": "上海市 浦东新区 居家桥路1030弄  " }, "geometry": { "type": "Point", "coordinates": [ 121.577173536429086, 31.251094982007487 ] } },
{ "type": "Feature", "properties": { "addr": "上海市 浦东新区 东波路325弄  " }, "geometry": { "type": "Point", "coordinates": [ 121.589541316859908, 31.290262195768317 ] } },
{ "type": "Feature", "properties": { "addr": "上海市 浦东新区 浦东大道2511弄  " }, "geometry": { "type": "Point", "coordinates": [ 121.566406266925384, 31.265127505972 ] } },
{ "type": "Feature", "properties": { "addr": "上海市 浦东新区 浦东大道2641弄  " }, "geometry": { "type": "Point", "coordinates": [ 121.57542031356526, 31.271472442613302 ] } },
{ "type": "Feature", "properties": { "addr": "上海市 浦东新区 北艾路1200弄  " }, "geometry": { "type": "Point", "coordinates": [ 121.538886767457754, 31.188481867872763 ] } },
{ "type": "Feature", "properties": { "addr": "上海市 浦东新区 秋霞路300弄  " }, "geometry": { "type": "Point", "coordinates": [ 121.593594201829276, 31.340699641534979 ] } },
{ "type": "Feature", "properties": { "addr": "上海市 浦东新区 顺凌路49弄  " }, "geometry": { "type": "Point", "coordinates": [ 121.543569184928515, 31.370893204906164 ] } },
{ "type": "Feature", "properties": { "addr": "上海市 浦东新区 海春路65弄  " }, "geometry": { "type": "Point", "coordinates": [ 121.59127414818866, 31.355900064128416 ] } },
{ "type": "Feature", "properties": { "addr": "上海市 浦东新区 光泽路120弄  " }, "geometry": { "type": "Point", "coordinates": [ 121.623076229344562, 31.336400104686092 ] } },
{ "type": "Feature", "properties": { "addr": "上海市 浦东新区 京浦路160弄  " }, "geometry": { "type": "Point", "coordinates": [ 121.574694572543748, 31.159912519644159 ] } },
{ "type": "Feature", "properties": { "addr": "上海市 浦东新区 康恒路御北路交界口工地生活区  " }, "geometry": { "type": "Point", "coordinates": [ 121.563785999583331, 31.163939297232389 ] } },
{ "type": "Feature", "properties": { "addr": "上海市 浦东新区 宣黄公路2585弄  " }, "geometry": { "type": "Point", "coordinates": [ 121.749202455150794, 31.030215449268713 ] } },
{ "type": "Feature", "properties": { "addr": "上海市 浦东新区 航梅路525弄  " }, "geometry": { "type": "Point", "coordinates": [ 121.580651056719304, 31.030666769803151 ] } },
{ "type": "Feature", "properties": { "addr": "上海市 浦东新区 听潮六村  " }, "geometry": { "type": "Point", "coordinates": [ 121.750348872642647, 31.050578963716134 ] } },
{ "type": "Feature", "properties": { "addr": "上海市 浦东新区 成山路544弄  " }, "geometry": { "type": "Point", "coordinates": [ 121.514758730612513, 31.174425412250987 ] } },
{ "type": "Feature", "properties": { "addr": "上海市 浦东新区 鹤韵路549弄  " }, "geometry": { "type": "Point", "coordinates": [ 121.603665015071087, 31.080751851766777 ] } },
{ "type": "Feature", "properties": { "addr": "上海市 浦东新区 永红村  " }, "geometry": { "type": "Point", "coordinates": [ 121.716091812358513, 31.24084075180815 ] } },
{ "type": "Feature", "properties": { "addr": "上海市 浦东新区 长岛路588弄  " }, "geometry": { "type": "Point", "coordinates": [ 121.58873194359542, 31.266885513110953 ] } },
{ "type": "Feature", "properties": { "addr": "上海市 浦东新区 浦东南路588号工地生活区  " }, "geometry": { "type": "Point", "coordinates": [ 121.518034940637961, 31.241221593040795 ] } },
{ "type": "Feature", "properties": { "addr": "上海市 浦东新区 花木路1983弄  " }, "geometry": { "type": "Point", "coordinates": [ 121.575380069478413, 31.221188737664299 ] } },
{ "type": "Feature", "properties": { "addr": "上海市 浦东新区 浦电路218弄  " }, "geometry": { "type": "Point", "coordinates": [ 121.530391582080455, 31.226031741548418 ] } },
{ "type": "Feature", "properties": { "addr": "上海市 浦东新区 羽山路998弄  " }, "geometry": { "type": "Point", "coordinates": [ 121.563115773842341, 31.243262702719594 ] } },
{ "type": "Feature", "properties": { "addr": "上海市 浦东新区 晚霞路715弄  " }, "geometry": { "type": "Point", "coordinates": [ 121.760628991068259, 31.184636677841034 ] } },
{ "type": "Feature", "properties": { "addr": "上海市 浦东新区 界龙村  " }, "geometry": { "type": "Point", "coordinates": [ 121.690718993568098, 31.181016706744181 ] } },
{ "type": "Feature", "properties": { "addr": "上海市 浦东新区 新德西路207弄  " }, "geometry": { "type": "Point", "coordinates": [ 121.680140008899286, 31.197583884180386 ] } },
{ "type": "Feature", "properties": { "addr": "上海市 浦东新区 新德路365弄  " }, "geometry": { "type": "Point", "coordinates": [ 121.704561252662998, 31.203165624453405 ] } },
{ "type": "Feature", "properties": { "addr": "上海市 浦东新区 沙北新村  " }, "geometry": { "type": "Point", "coordinates": [ 121.594559790421954, 31.059584298716342 ] } },
{ "type": "Feature", "properties": { "addr": "上海市 浦东新区 永泰路2080弄  " }, "geometry": { "type": "Point", "coordinates": [ 121.551161483437767, 31.151700216117895 ] } },
{ "type": "Feature", "properties": { "addr": "上海市 浦东新区 西泰林路480弄  " }, "geometry": { "type": "Point", "coordinates": [ 121.541024734571508, 31.154043505314505 ] } },
{ "type": "Feature", "properties": { "addr": "上海市 浦东新区 板泉路1201弄  " }, "geometry": { "type": "Point", "coordinates": [ 121.511623824043781, 31.169377277763573 ] } },
{ "type": "Feature", "properties": { "addr": "上海市 浦东新区 康杉路386弄  " }, "geometry": { "type": "Point", "coordinates": [ 121.565352644392732, 31.157919191131459 ] } },
{ "type": "Feature", "properties": { "addr": "上海市 浦东新区 周东路243弄  " }, "geometry": { "type": "Point", "coordinates": [ 121.592340077506805, 31.122621335648045 ] } },
{ "type": "Feature", "properties": { "addr": "上海市 浦东新区 周阳路259弄  " }, "geometry": { "type": "Point", "coordinates": [ 121.608888481950515, 31.099949769998247 ] } },
{ "type": "Feature", "properties": { "addr": "上海市 浦东新区 康沈路1929弄  " }, "geometry": { "type": "Point", "coordinates": [ 121.58702570210977, 31.11734851809284 ] } },
{ "type": "Feature", "properties": { "addr": "上海市 浦东新区 灵岩南路769弄  " }, "geometry": { "type": "Point", "coordinates": [ 121.504644708875659, 31.155998287562003 ] } },
{ "type": "Feature", "properties": { "addr": "上海市 浦东新区 胡巷村张家宅  " }, "geometry": { "type": "Point", "coordinates": [ 121.529586520682415, 31.167835971840162 ] } },
{ "type": "Feature", "properties": { "addr": "上海市 浦东新区 年家浜路425弄  " }, "geometry": { "type": "Point", "coordinates": [ 121.578911038946487, 31.12004169237844 ] } },
{ "type": "Feature", "properties": { "addr": "上海市 浦东新区 东明路三林路交界口工地生活区  " }, "geometry": { "type": "Point", "coordinates": [ 121.524156982519003, 31.161339389910029 ] } },
{ "type": "Feature", "properties": { "addr": "上海市 浦东新区 康沈路2588弄  " }, "geometry": { "type": "Point", "coordinates": [ 121.587931553386028, 31.102745480162682 ] } },
{ "type": "Feature", "properties": { "addr": "上海市 浦东新区 御桥路2066弄  " }, "geometry": { "type": "Point", "coordinates": [ 121.581739802997419, 31.164948494555752 ] } },
{ "type": "Feature", "properties": { "addr": "上海市 浦东新区 东靖路2250弄  " }, "geometry": { "type": "Point", "coordinates": [ 121.620068792327686, 31.298372867667926 ] } },
{ "type": "Feature", "properties": { "addr": "上海市 浦东新区 杨南路25号  " }, "geometry": { "type": "Point", "coordinates": [ 121.501146976711468, 31.156813270314796 ] } },
{ "type": "Feature", "properties": { "addr": "上海市 浦东新区 康士路2弄  " }, "geometry": { "type": "Point", "coordinates": [ 121.550454606831948, 31.227348292436346 ] } },
{ "type": "Feature", "properties": { "addr": "上海市 浦东新区 京浦路82弄  " }, "geometry": { "type": "Point", "coordinates": [ 121.57334019732636, 31.159691572984912 ] } },
{ "type": "Feature", "properties": { "addr": "上海市 浦东新区 御水路150弄  " }, "geometry": { "type": "Point", "coordinates": [ 121.578864955873826, 31.167441854466574 ] } },
{ "type": "Feature", "properties": { "addr": "上海市 浦东新区 御青路56弄  " }, "geometry": { "type": "Point", "coordinates": [ 121.578469072635571, 31.165031924344618 ] } },
{ "type": "Feature", "properties": { "addr": "上海市 浦东新区 新浦路543弄  " }, "geometry": { "type": "Point", "coordinates": [ 121.536926664834994, 31.175801005536101 ] } },
{ "type": "Feature", "properties": { "addr": "上海市 浦东新区 新浦路346弄  " }, "geometry": { "type": "Point", "coordinates": [ 121.541876328194974, 31.177546633635519 ] } },
{ "type": "Feature", "properties": { "addr": "上海市 浦东新区 中界村陈家队陈家宅  " }, "geometry": { "type": "Point", "coordinates": [ 121.578579474382749, 31.194413133383005 ] } },
{ "type": "Feature", "properties": { "addr": "上海市 浦东新区 御水路199弄  " }, "geometry": { "type": "Point", "coordinates": [ 121.580638210950525, 31.166554813951443 ] } },
{ "type": "Feature", "properties": { "addr": "上海市 浦东新区 华秀路179弄  " }, "geometry": { "type": "Point", "coordinates": [ 121.23466213192107, 31.22935365395734 ] } },
{ "type": "Feature", "properties": { "addr": "上海市 浦东新区 康沈路633弄  " }, "geometry": { "type": "Point", "coordinates": [ 121.584859707864112, 31.120077939878794 ] } },
{ "type": "Feature", "properties": { "addr": "上海市 浦东新区 高科西路3030弄  " }, "geometry": { "type": "Point", "coordinates": [ 121.569848753300732, 31.195892840738562 ] } },
{ "type": "Feature", "properties": { "addr": "上海市 浦东新区 南泉路1320弄  " }, "geometry": { "type": "Point", "coordinates": [ 121.526560398910945, 31.215734152342247 ] } },
{ "type": "Feature", "properties": { "addr": "上海市 浦东新区 永泰路630弄  " }, "geometry": { "type": "Point", "coordinates": [ 121.524113055379559, 31.145365857319558 ] } },
{ "type": "Feature", "properties": { "addr": "上海市 浦东新区 上浦路276弄  " }, "geometry": { "type": "Point", "coordinates": [ 121.525530311982649, 31.139159418419815 ] } },
{ "type": "Feature", "properties": { "addr": "上海市 浦东新区 蓝村路471弄  " }, "geometry": { "type": "Point", "coordinates": [ 121.533601586989803, 31.217902204702717 ] } },
{ "type": "Feature", "properties": { "addr": "上海市 浦东新区 港辉路236弄  " }, "geometry": { "type": "Point", "coordinates": [ 121.863518370340074, 30.870999919372512 ] } },
{ "type": "Feature", "properties": { "addr": "上海市 浦东新区 南码头路119弄  " }, "geometry": { "type": "Point", "coordinates": [ 121.514617516986334, 31.205713100386031 ] } },
{ "type": "Feature", "properties": { "addr": "上海市 浦东新区 港西村  " }, "geometry": { "type": "Point", "coordinates": [ 121.836006525054927, 31.043115139509364 ] } },
{ "type": "Feature", "properties": { "addr": "上海市 浦东新区 洪山路1658弄  " }, "geometry": { "type": "Point", "coordinates": [ 121.514183186272263, 31.158361401297999 ] } },
{ "type": "Feature", "properties": { "addr": "上海市 浦东新区 秀沿路2875弄  " }, "geometry": { "type": "Point", "coordinates": [ 121.616066481958541, 31.144930230822322 ] } },
{ "type": "Feature", "properties": { "addr": "上海市 浦东新区 园跃路63号  " }, "geometry": { "type": "Point", "coordinates": [ 121.739995272826292, 31.043892581096944 ] } },
{ "type": "Feature", "properties": { "addr": "上海市 浦东新区 千汇苑三村  " }, "geometry": { "type": "Point", "coordinates": [ 121.770726034830986, 31.119139828427794 ] } },
{ "type": "Feature", "properties": { "addr": "上海市 浦东新区 广益路9弄  " }, "geometry": { "type": "Point", "coordinates": [ 121.550454606831948, 31.227348292436346 ] } },
{ "type": "Feature", "properties": { "addr": "上海市 浦东新区 拱海路78弄  " }, "geometry": { "type": "Point", "coordinates": [ 121.774859587635135, 31.060910455271795 ] } },
{ "type": "Feature", "properties": { "addr": "上海市 浦东新区 云台路115号  " }, "geometry": { "type": "Point", "coordinates": [ 121.508155376639209, 31.18732649318131 ] } },
{ "type": "Feature", "properties": { "addr": "上海市 浦东新区 和龙路619弄  " }, "geometry": { "type": "Point", "coordinates": [ 121.573083461611603, 31.356593890993594 ] } },
{ "type": "Feature", "properties": { "addr": "上海市 浦东新区 航城三路86弄  " }, "geometry": { "type": "Point", "coordinates": [ 121.75078428132332, 31.154422072757939 ] } },
{ "type": "Feature", "properties": { "addr": "上海市 浦东新区 康杉路151弄  " }, "geometry": { "type": "Point", "coordinates": [ 121.567301338535529, 31.15772404321492 ] } },
{ "type": "Feature", "properties": { "addr": "上海市 浦东新区 上南路5600号  " }, "geometry": { "type": "Point", "coordinates": [ 121.533819246414879, 31.131871701189322 ] } },
{ "type": "Feature", "properties": { "addr": "上海市 浦东新区 牡丹路258弄  " }, "geometry": { "type": "Point", "coordinates": [ 121.5556305533499, 31.213972712771053 ] } },
{ "type": "Feature", "properties": { "addr": "上海市 浦东新区 新环北路1333弄  " }, "geometry": { "type": "Point", "coordinates": [ 121.641548355037884, 31.035528578829364 ] } },
{ "type": "Feature", "properties": { "addr": "上海市 浦东新区 三彩路59弄  " }, "geometry": { "type": "Point", "coordinates": [ 121.506355531719436, 31.132930313734967 ] } },
{ "type": "Feature", "properties": { "addr": "上海市 浦东新区 金光村陆家湾队陆家宅  " }, "geometry": { "type": "Point", "coordinates": [ 121.641269251515936, 31.302648472007601 ] } },
{ "type": "Feature", "properties": { "addr": "上海市 浦东新区 南桥路988弄  " }, "geometry": { "type": "Point", "coordinates": [ 121.699463009571673, 31.194190877945008 ] } },
{ "type": "Feature", "properties": { "addr": "上海市 浦东新区 城南路747弄  " }, "geometry": { "type": "Point", "coordinates": [ 121.699236097599851, 31.194663266652281 ] } },
{ "type": "Feature", "properties": { "addr": "上海市 浦东新区 东明村池河队养鸭滩  " }, "geometry": { "type": "Point", "coordinates": [ 121.526656697261615, 31.170035953725652 ] } },
{ "type": "Feature", "properties": { "addr": "上海市 浦东新区 三航路1301工地生活区  " }, "geometry": { "type": "Point", "coordinates": [ 121.498537489035542, 31.140575786421891 ] } },
{ "type": "Feature", "properties": { "addr": "上海市 浦东新区 绿林路320弄  " }, "geometry": { "type": "Point", "coordinates": [ 121.554834744498592, 31.176162646734344 ] } },
{ "type": "Feature", "properties": { "addr": "上海市 浦东新区 环桥路1137弄  " }, "geometry": { "type": "Point", "coordinates": [ 121.584859707864112, 31.120077939878794 ] } },
{ "type": "Feature", "properties": { "addr": "上海市 浦东新区 三林路360弄  " }, "geometry": { "type": "Point", "coordinates": [ 121.536884264814915, 31.189702255537771 ] } },
{ "type": "Feature", "properties": { "addr": "上海市 浦东新区 东书房路390弄  " }, "geometry": { "type": "Point", "coordinates": [ 121.5416177958692, 31.169666487058681 ] } },
{ "type": "Feature", "properties": { "addr": "上海市 浦东新区 灵岩南路499弄  " }, "geometry": { "type": "Point", "coordinates": [ 121.504091801834278, 31.156965620082993 ] } },
{ "type": "Feature", "properties": { "addr": "上海市 浦东新区 杨高南路3288弄  " }, "geometry": { "type": "Point", "coordinates": [ 121.525582413702239, 31.17462515993693 ] } },
{ "type": "Feature", "properties": { "addr": "上海市 浦东新区 秀沿路1168弄  " }, "geometry": { "type": "Point", "coordinates": [ 121.584859707864112, 31.120077939878794 ] } },
{ "type": "Feature", "properties": { "addr": "上海市 浦东新区 康花路58号  " }, "geometry": { "type": "Point", "coordinates": [ 121.567456835219318, 31.156575474391179 ] } },
{ "type": "Feature", "properties": { "addr": "上海市 浦东新区 华夏东路2345弄  " }, "geometry": { "type": "Point", "coordinates": [ 121.704621978115483, 31.206484796404514 ] } },
{ "type": "Feature", "properties": { "addr": "上海市 浦东新区 浦东南路2351弄  " }, "geometry": { "type": "Point", "coordinates": [ 121.519461719279448, 31.205598665834319 ] } },
{ "type": "Feature", "properties": { "addr": "上海市 浦东新区 秀沿路2501弄  " }, "geometry": { "type": "Point", "coordinates": [ 121.60721008793567, 31.144675483422116 ] } },
{ "type": "Feature", "properties": { "addr": "上海市 浦东新区 思浦路17弄  " }, "geometry": { "type": "Point", "coordinates": [ 121.499381626723263, 31.163825815929631 ] } },
{ "type": "Feature", "properties": { "addr": "上海市 浦东新区 杨南路797弄  " }, "geometry": { "type": "Point", "coordinates": [ 121.509163634743615, 31.158170194327642 ] } },
{ "type": "Feature", "properties": { "addr": "上海市 浦东新区 川周公路2828弄  " }, "geometry": { "type": "Point", "coordinates": [ 121.624521962232308, 31.149124848312649 ] } },
{ "type": "Feature", "properties": { "addr": "上海市 浦东新区 中圩村  " }, "geometry": { "type": "Point", "coordinates": [ 121.789701211609881, 31.06911298525122 ] } },
{ "type": "Feature", "properties": { "addr": "上海市 浦东新区 杨高北路1887弄  " }, "geometry": { "type": "Point", "coordinates": [ 121.60744131177394, 31.331408519255408 ] } },
{ "type": "Feature", "properties": { "addr": "上海市 浦东新区 浦东南路1271号  " }, "geometry": { "type": "Point", "coordinates": [ 121.523739809440158, 31.232203946225361 ] } },
{ "type": "Feature", "properties": { "addr": "上海市 浦东新区 新环西路58弄  " }, "geometry": { "type": "Point", "coordinates": [ 121.650009584466915, 31.021482350787366 ] } },
{ "type": "Feature", "properties": { "addr": "上海市 浦东新区 金皖路501号  " }, "geometry": { "type": "Point", "coordinates": [ 121.627484843295875, 31.259878598373501 ] } },
{ "type": "Feature", "properties": { "addr": "上海市 浦东新区 坦南村  " }, "geometry": { "type": "Point", "coordinates": [ 121.658849629329509, 31.072493887859476 ] } },
{ "type": "Feature", "properties": { "addr": "上海市 浦东新区 海桐路73弄  " }, "geometry": { "type": "Point", "coordinates": [ 121.557854578131511, 31.211290727286364 ] } },
{ "type": "Feature", "properties": { "addr": "上海市 浦东新区 上南路6733弄  " }, "geometry": { "type": "Point", "coordinates": [ 121.584859707864112, 31.120077939878794 ] } },
{ "type": "Feature", "properties": { "addr": "上海市 浦东新区 海院新村  " }, "geometry": { "type": "Point", "coordinates": [ 121.546705870510451, 31.248404698532461 ] } },
{ "type": "Feature", "properties": { "addr": "上海市 浦东新区 沪南公路3468弄  " }, "geometry": { "type": "Point", "coordinates": [ 121.602676429857368, 31.044510909823853 ] } },
{ "type": "Feature", "properties": { "addr": "上海市 浦东新区 峨山路601603号  " }, "geometry": { "type": "Point", "coordinates": [ 121.528969744119266, 31.220642444191558 ] } },
{ "type": "Feature", "properties": { "addr": "上海市 浦东新区 对面村对面队  " }, "geometry": { "type": "Point", "coordinates": [ 121.691241358222143, 31.205470100533521 ] } },
{ "type": "Feature", "properties": { "addr": "上海市 浦东新区 营房村  " }, "geometry": { "type": "Point", "coordinates": [ 121.572398952813003, 31.142485338113978 ] } },
{ "type": "Feature", "properties": { "addr": "上海市 浦东新区 储店村北傅家宅  " }, "geometry": { "type": "Point", "coordinates": [ 121.740370584868344, 31.143527450316178 ] } },
{ "type": "Feature", "properties": { "addr": "上海市 浦东新区 凌兆路379弄  " }, "geometry": { "type": "Point", "coordinates": [ 121.525530311982649, 31.139159418419815 ] } },
{ "type": "Feature", "properties": { "addr": "上海市 浦东新区 金杨路308弄  " }, "geometry": { "type": "Point", "coordinates": [ 121.583875524347391, 31.253610128402997 ] } },
{ "type": "Feature", "properties": { "addr": "上海市 浦东新区 新德路506弄  " }, "geometry": { "type": "Point", "coordinates": [ 121.699537928251203, 31.20325612431559 ] } },
{ "type": "Feature", "properties": { "addr": "上海市 浦东新区 严杨路166弄  " }, "geometry": { "type": "Point", "coordinates": [ 121.536194994997118, 31.20036688077375 ] } },
{ "type": "Feature", "properties": { "addr": "上海市 浦东新区 华丰路50弄  " }, "geometry": { "type": "Point", "coordinates": [ 121.514504959305938, 31.197495463859788 ] } },
{ "type": "Feature", "properties": { "addr": "上海市 浦东新区 西泰林路158弄  " }, "geometry": { "type": "Point", "coordinates": [ 121.539297472736919, 31.159803282444798 ] } },
{ "type": "Feature", "properties": { "addr": "上海市 浦东新区 西门路7号  " }, "geometry": { "type": "Point", "coordinates": [ 121.750323181105045, 31.052988349108322 ] } },
{ "type": "Feature", "properties": { "addr": "上海市 浦东新区 周秀路168弄  " }, "geometry": { "type": "Point", "coordinates": [ 121.613096863603658, 31.104055414085327 ] } },
{ "type": "Feature", "properties": { "addr": "上海市 浦东新区 上南路6500弄  " },