{
"type": "FeatureCollection",
"crs": { "type": "name", "properties": { "name": "urn:ogc:def:crs:OGC:1.3:CRS84" } },
"features": [
{ "type": "Feature", "properties": { "addr": "上海市 浦东新区 板泉路2000弄  " }, "geometry": { "type": "Point", "coordinates": [ 121.536884264814915, 31.189702255537771 ] } },
{ "type": "Feature", "properties": { "addr": "上海市 浦东新区 北艾路155弄  " }, "geometry": { "type": "Point", "coordinates": [ 121.549882026899894, 31.192539931368604 ] } },
{ "type": "Feature", "properties": { "addr": "上海市 浦东新区 北艾路1765弄  " }, "geometry": { "type": "Point", "coordinates": [ 121.528398601476013, 31.184265453706548 ] } },
{ "type": "Feature", "properties": { "addr": "上海市 浦东新区 北艾路73弄  " }, "geometry": { "type": "Point", "coordinates": [ 121.550455145815263, 31.191186130381443 ] } },
{ "type": "Feature", "properties": { "addr": "上海市 浦东新区 北蔡大街31弄  " }, "geometry": { "type": "Point", "coordinates": [ 121.56054356584508, 31.19367809757782 ] } },
{ "type": "Feature", "properties": { "addr": "上海市 浦东新区 北蔡镇联勤村李家队李家宅  " }, "geometry": { "type": "Point", "coordinates": [ 121.557185969340424, 31.173231011079945 ] } },
{ "type": "Feature", "properties": { "addr": "上海市 浦东新区 北蔡镇南新村西钟家宅  " }, "geometry": { "type": "Point", "coordinates": [ 121.548654941573261, 31.173251634963325 ] } },
{ "type": "Feature", "properties": { "addr": "上海市 浦东新区 北蔡镇南新村赵家厍  " }, "geometry": { "type": "Point", "coordinates": [ 121.54343515774643, 31.176791383130574 ] } },
{ "type": "Feature", "properties": { "addr": "上海市 浦东新区 北蔡镇五星村陈家队陈家宅  " }, "geometry": { "type": "Point", "coordinates": [ 121.578579474382749, 31.194413133383005 ] } },
{ "type": "Feature", "properties": { "addr": "上海市 浦东新区 北蔡镇五星村陈家队奚家宅  " }, "geometry": { "type": "Point", "coordinates": [ 121.578579474382749, 31.194413133383005 ] } },
{ "type": "Feature", "properties": { "addr": "上海市 浦东新区 北蔡镇五星村东平队秦家宅  " }, "geometry": { "type": "Point", "coordinates": [ 121.578783479564066, 31.180063756685708 ] } },
{ "type": "Feature", "properties": { "addr": "上海市 浦东新区 北蔡镇五星村家务队顾家宅  " }, "geometry": { "type": "Point", "coordinates": [ 121.578365498010271, 31.179988450201478 ] } },
{ "type": "Feature", "properties": { "addr": "上海市 浦东新区 北蔡镇一六村赵家队南赵家宅  " }, "geometry": { "type": "Point", "coordinates": [ 121.602726734965927, 31.173188295681612 ] } },
{ "type": "Feature", "properties": { "addr": "上海市 浦东新区 北蔡镇御桥村印家队东印家圈  " }, "geometry": { "type": "Point", "coordinates": [ 121.564637683037347, 31.17407504173234 ] } },
{ "type": "Feature", "properties": { "addr": "上海市 浦东新区 北蔡镇中界村复兴队顾家宅  " }, "geometry": { "type": "Point", "coordinates": [ 121.578066721597665, 31.193715783941315 ] } },
{ "type": "Feature", "properties": { "addr": "上海市 浦东新区 北蔡镇中界村庄家队蔡家宅  " }, "geometry": { "type": "Point", "coordinates": [ 121.578579474382749, 31.194413133383005 ] } },
{ "type": "Feature", "properties": { "addr": "上海市 浦东新区 北中路278弄  " }, "geometry": { "type": "Point", "coordinates": [ 121.562802804202676, 31.189024178541377 ] } },
{ "type": "Feature", "properties": { "addr": "上海市 浦东新区 碧云路199弄  " }, "geometry": { "type": "Point", "coordinates": [ 121.579663100319436, 31.242832393822923 ] } },
{ "type": "Feature", "properties": { "addr": "上海市 浦东新区 博华路1018弄  " }, "geometry": { "type": "Point", "coordinates": [ 121.557501993218835, 31.176850857976813 ] } },
{ "type": "Feature", "properties": { "addr": "上海市 浦东新区 博华路930弄  " }, "geometry": { "type": "Point", "coordinates": [ 121.556749213201471, 31.180320029991151 ] } },
{ "type": "Feature", "properties": { "addr": "上海市 浦东新区 博山东路440弄  " }, "geometry": { "type": "Point", "coordinates": [ 121.575265715186987, 31.258583187628979 ] } },
{ "type": "Feature", "properties": { "addr": "上海市 浦东新区 博山路78弄  " }, "geometry": { "type": "Point", "coordinates": [ 121.562071314025886, 31.251466597237592 ] } },
{ "type": "Feature", "properties": { "addr": "上海市 浦东新区 博兴路1663弄  " }, "geometry": { "type": "Point", "coordinates": [ 121.607201015050023, 31.280776093952529 ] } },
{ "type": "Feature", "properties": { "addr": "上海市 浦东新区 博兴路760弄  " }, "geometry": { "type": "Point", "coordinates": [ 121.594819310883793, 31.27043152166808 ] } },
{ "type": "Feature", "properties": { "addr": "上海市 浦东新区 博兴路986弄  " }, "geometry": { "type": "Point", "coordinates": [ 121.597262971362582, 31.27067103482398 ] } },
{ "type": "Feature", "properties": { "addr": "上海市 浦东新区 曹路镇光明村沙桥宅  " }, "geometry": { "type": "Point", "coordinates": [ 121.65818551206597, 31.292967682842971 ] } },
{ "type": "Feature", "properties": { "addr": "上海市 浦东新区 曹路镇联合村南浜宅  " }, "geometry": { "type": "Point", "coordinates": [ 121.682533094777867, 31.303874852703139 ] } },
{ "type": "Feature", "properties": { "addr": "上海市 浦东新区 曹路镇联合村西柴场  " }, "geometry": { "type": "Point", "coordinates": [ 121.677463148310096, 31.303329042391074 ] } },
{ "type": "Feature", "properties": { "addr": "上海市 浦东新区 曹路镇五四村沈孙家宅  " }, "geometry": { "type": "Point", "coordinates": [ 121.658040076403907, 31.260398733224751 ] } },
{ "type": "Feature", "properties": { "addr": "上海市 浦东新区 曹路镇五四村唐朱家宅  " }, "geometry": { "type": "Point", "coordinates": [ 121.668338969414705, 31.258308838536237 ] } },
{ "type": "Feature", "properties": { "addr": "上海市 浦东新区 曹路镇直一村  " }, "geometry": { "type": "Point", "coordinates": [ 121.685375513072543, 31.270101495608021 ] } },
{ "type": "Feature", "properties": { "addr": "上海市 浦东新区 草高支路170弄  " }, "geometry": { "type": "Point", "coordinates": [ 121.58842607056927, 31.357988852803931 ] } },
{ "type": "Feature", "properties": { "addr": "上海市 浦东新区 长清路119弄  " }, "geometry": { "type": "Point", "coordinates": [ 121.496880384861271, 31.174483266516244 ] } },
{ "type": "Feature", "properties": { "addr": "上海市 浦东新区 长清路177弄  " }, "geometry": { "type": "Point", "coordinates": [ 121.536884264814915, 31.189702255537771 ] } },
{ "type": "Feature", "properties": { "addr": "上海市 浦东新区 长清路2060号  " }, "geometry": { "type": "Point", "coordinates": [ 121.503652530439908, 31.145449690849507 ] } },
{ "type": "Feature", "properties": { "addr": "上海市 浦东新区 长清路693弄  " }, "geometry": { "type": "Point", "coordinates": [ 121.536884264814915, 31.189702255537771 ] } },
{ "type": "Feature", "properties": { "addr": "上海市 浦东新区 长清路773弄  " }, "geometry": { "type": "Point", "coordinates": [ 121.49801207014275, 31.161973865099831 ] } },
{ "type": "Feature", "properties": { "addr": "上海市 浦东新区 长清路937弄  " }, "geometry": { "type": "Point", "coordinates": [ 121.536884264814915, 31.189702255537771 ] } },
{ "type": "Feature", "properties": { "addr": "上海市 浦东新区 长清路94号工地生活区  " }, "geometry": { "type": "Point", "coordinates": [ 121.495131428948625, 31.176750909317537 ] } },
{ "type": "Feature", "properties": { "addr": "上海市 浦东新区 昌里东路190弄  " }, "geometry": { "type": "Point", "coordinates": [ 121.514451330466997, 31.181876268964892 ] } },
{ "type": "Feature", "properties": { "addr": "上海市 浦东新区 昌里东路411弄  " }, "geometry": { "type": "Point", "coordinates": [ 121.519301551407025, 31.185511228668684 ] } },
{ "type": "Feature", "properties": { "addr": "上海市 浦东新区 昌里东路71弄  " }, "geometry": { "type": "Point", "coordinates": [ 121.510706923609746, 31.182664380728731 ] } },
{ "type": "Feature", "properties": { "addr": "上海市 浦东新区 昌里路167弄  " }, "geometry": { "type": "Point", "coordinates": [ 121.504545446116822, 31.181091626219736 ] } },
{ "type": "Feature", "properties": { "addr": "上海市 浦东新区 昌里路340弄  " }, "geometry": { "type": "Point", "coordinates": [ 121.500968393576088, 31.178239082858738 ] } },
{ "type": "Feature", "properties": { "addr": "上海市 浦东新区 陈春东路99弄  " }, "geometry": { "type": "Point", "coordinates": [ 121.565897017531782, 31.181856496573577 ] } },
{ "type": "Feature", "properties": { "addr": "上海市 浦东新区 陈春路620弄  " }, "geometry": { "type": "Point", "coordinates": [ 121.552907609688049, 31.178078194108803 ] } },
{ "type": "Feature", "properties": { "addr": "上海市 浦东新区 成山路248弄  " }, "geometry": { "type": "Point", "coordinates": [ 121.505634012733807, 31.174695836220423 ] } },
{ "type": "Feature", "properties": { "addr": "上海市 浦东新区 成山路24弄  " }, "geometry": { "type": "Point", "coordinates": [ 121.492308997951554, 31.174146877064409 ] } },
{ "type": "Feature", "properties": { "addr": "上海市 浦东新区 城南路48弄  " }, "geometry": { "type": "Point", "coordinates": [ 121.711583935648349, 31.19890091235186 ] } },
{ "type": "Feature", "properties": { "addr": "上海市 浦东新区 川沙新镇陈行村金家宅  " }, "geometry": { "type": "Point", "coordinates": [ 121.724247617914159, 31.17426080933306 ] } },
{ "type": "Feature", "properties": { "addr": "上海市 浦东新区 川沙新镇虹桥村南朱家宅  " }, "geometry": { "type": "Point", "coordinates": [ 121.642227114681219, 31.100333193663175 ] } },
{ "type": "Feature", "properties": { "addr": "上海市 浦东新区 川沙新镇黄楼村姚家宅  " }, "geometry": { "type": "Point", "coordinates": [ 121.670267451683529, 31.168147433085426 ] } },
{ "type": "Feature", "properties": { "addr": "上海市 浦东新区 川沙新镇界龙村孙家宅  " }, "geometry": { "type": "Point", "coordinates": [ 121.692611992769272, 31.176436773231853 ] } },
{ "type": "Feature", "properties": { "addr": "上海市 浦东新区 川沙新镇其成村新生  " }, "geometry": { "type": "Point", "coordinates": [ 121.687842798986253, 31.104689967159082 ] } },
{ "type": "Feature", "properties": { "addr": "上海市 浦东新区 川周公路4318弄  " }, "geometry": { "type": "Point", "coordinates": [ 121.587429400605956, 31.126894771815071 ] } },
{ "type": "Feature", "properties": { "addr": "上海市 浦东新区 川周路8288弄  " }, "geometry": { "type": "Point", "coordinates": [ 121.715516642677414, 31.183847890376406 ] } },
{ "type": "Feature", "properties": { "addr": "上海市 浦东新区 创新中路593弄  " }, "geometry": { "type": "Point", "coordinates": [ 121.67577702886787, 31.216838837693654 ] } },
{ "type": "Feature", "properties": { "addr": "上海市 浦东新区 德平路1189弄  " }, "geometry": { "type": "Point", "coordinates": [ 121.57681313625848, 31.2458715286161 ] } },
{ "type": "Feature", "properties": { "addr": "上海市 浦东新区 德平路155弄  " }, "geometry": { "type": "Point", "coordinates": [ 121.567954047319077, 31.256601836594431 ] } },
{ "type": "Feature", "properties": { "addr": "上海市 浦东新区 德州路150弄  " }, "geometry": { "type": "Point", "coordinates": [ 121.492570315024409, 31.172044319095718 ] } },
{ "type": "Feature", "properties": { "addr": "上海市 浦东新区 东波路195弄  " }, "geometry": { "type": "Point", "coordinates": [ 121.586241571230104, 31.290794581956991 ] } },
{ "type": "Feature", "properties": { "addr": "上海市 浦东新区 东方路1800弄  " }, "geometry": { "type": "Point", "coordinates": [ 121.528473609986094, 31.209089242825165 ] } },
{ "type": "Feature", "properties": { "addr": "上海市 浦东新区 东方路402弄  " }, "geometry": { "type": "Point", "coordinates": [ 121.529156322173677, 31.239920983733214 ] } },
{ "type": "Feature", "properties": { "addr": "上海市 浦东新区 东后老街262号  " }, "geometry": { "type": "Point", "coordinates": [ 121.654271235636813, 31.029269324648787 ] } },
{ "type": "Feature", "properties": { "addr": "上海市 浦东新区 东陆路1018弄  " }, "geometry": { "type": "Point", "coordinates": [ 121.599020955245621, 31.277911928226455 ] } },
{ "type": "Feature", "properties": { "addr": "上海市 浦东新区 东陆路1268弄  " }, "geometry": { "type": "Point", "coordinates": [ 121.601560554752865, 31.272878863483545 ] } },
{ "type": "Feature", "properties": { "addr": "上海市 浦东新区 东明路383弄  " }, "geometry": { "type": "Point", "coordinates": [ 121.516660892529885, 31.188568057018159 ] } },
{ "type": "Feature", "properties": { "addr": "上海市 浦东新区 东三街102弄  " }, "geometry": { "type": "Point", "coordinates": [ 121.517106182571183, 31.20763978042601 ] } },
{ "type": "Feature", "properties": { "addr": "上海市 浦东新区 东书房路390弄  " }, "geometry": { "type": "Point", "coordinates": [ 121.5416177958692, 31.169666487058681 ] } },
{ "type": "Feature", "properties": { "addr": "上海市 浦东新区 东书房路560弄  " }, "geometry": { "type": "Point", "coordinates": [ 121.543073679609208, 31.167733309908424 ] } },
{ "type": "Feature", "properties": { "addr": "上海市 浦东新区 东泰林路799弄  " }, "geometry": { "type": "Point", "coordinates": [ 121.550311416933667, 31.14966815921915 ] } },
{ "type": "Feature", "properties": { "addr": "上海市 浦东新区 东塘路222弄  " }, "geometry": { "type": "Point", "coordinates": [ 121.574045816304448, 31.306423442223387 ] } },
{ "type": "Feature", "properties": { "addr": "上海市 浦东新区 东绣路1389弄  " }, "geometry": { "type": "Point", "coordinates": [ 121.538790289445998, 31.20467631206504 ] } },
{ "type": "Feature", "properties": { "addr": "上海市 浦东新区 东绣路66弄  " }, "geometry": { "type": "Point", "coordinates": [ 121.544462190435993, 31.221947567668298 ] } },
{ "type": "Feature", "properties": { "addr": "上海市 浦东新区 繁荣东路150弄  " }, "geometry": { "type": "Point", "coordinates": [ 121.593214488090211, 31.112016970902442 ] } },
{ "type": "Feature", "properties": { "addr": "上海市 浦东新区 繁荣东路159弄  " }, "geometry": { "type": "Point", "coordinates": [ 121.59187017389452, 31.112814326185486 ] } },
{ "type": "Feature", "properties": { "addr": "上海市 浦东新区 芳草路153弄  " }, "geometry": { "type": "Point", "coordinates": [ 121.5599919164314, 31.199247251777845 ] } },
{ "type": "Feature", "properties": { "addr": "上海市 浦东新区 芳草路352弄  " }, "geometry": { "type": "Point", "coordinates": [ 121.561626023984601, 31.199214895930286 ] } },
{ "type": "Feature", "properties": { "addr": "上海市 浦东新区 芳华路229弄  " }, "geometry": { "type": "Point", "coordinates": [ 121.560810542242635, 31.202551968217783 ] } },
{ "type": "Feature", "properties": { "addr": "上海市 浦东新区 芳华路329弄  " }, "geometry": { "type": "Point", "coordinates": [ 121.563650175790229, 31.202246644364951 ] } },
{ "type": "Feature", "properties": { "addr": "上海市 浦东新区 芳华路371弄  " }, "geometry": { "type": "Point", "coordinates": [ 121.564425503275885, 31.203020685498792 ] } },
{ "type": "Feature", "properties": { "addr": "上海市 浦东新区 芳华路455弄  " }, "geometry": { "type": "Point", "coordinates": [ 121.566150609177257, 31.20261752700328 ] } },
{ "type": "Feature", "properties": { "addr": "上海市 浦东新区 芳华路63号  " }, "geometry": { "type": "Point", "coordinates": [ 121.558171590145975, 31.200731052684031 ] } },
{ "type": "Feature", "properties": { "addr": "上海市 浦东新区 芳华路933弄  " }, "geometry": { "type": "Point", "coordinates": [ 121.536884264814915, 31.189702255537771 ] } },
{ "type": "Feature", "properties": { "addr": "上海市 浦东新区 福山路102弄  " }, "geometry": { "type": "Point", "coordinates": [ 121.53400762108032, 31.237370810745112 ] } },
{ "type": "Feature", "properties": { "addr": "上海市 浦东新区 高东镇竞赛村沈家宅  " }, "geometry": { "type": "Point", "coordinates": [ 121.652243490609138, 31.304821682548539 ] } },
{ "type": "Feature", "properties": { "addr": "上海市 浦东新区 高东镇珊黄村苍头宅  " }, "geometry": { "type": "Point", "coordinates": [ 121.646532423498897, 31.336547689860097 ] } },
{ "type": "Feature", "properties": { "addr": "上海市 浦东新区 高东镇先锋村卢家宅  " }, "geometry": { "type": "Point", "coordinates": [ 121.591521541526092, 31.290378301115442 ] } },
{ "type": "Feature", "properties": { "addr": "上海市 浦东新区 高科西路3000弄  " }, "geometry": { "type": "Point", "coordinates": [ 121.570701963874114, 31.195867897271857 ] } },
{ "type": "Feature", "properties": { "addr": "上海市 浦东新区 高桥镇南塘村顾家宅  " }, "geometry": { "type": "Point", "coordinates": [ 121.574680918300004, 31.345394276906958 ] } },
{ "type": "Feature", "properties": { "addr": "上海市 浦东新区 高桥镇三岔港村三岔港  " }, "geometry": { "type": "Point", "coordinates": [ 121.51447127284932, 31.371531268842322 ] } },
{ "type": "Feature", "properties": { "addr": "上海市 浦东新区 高桥镇西浜头  " }, "geometry": { "type": "Point", "coordinates": [ 121.615635834297066, 31.292504199206448 ] } },
{ "type": "Feature", "properties": { "addr": "上海市 浦东新区 高桥镇西新村尖角圩  " }, "geometry": { "type": "Point", "coordinates": [ 121.523275744813702, 31.361953760539233 ] } },
{ "type": "Feature", "properties": { "addr": "上海市 浦东新区 高桥镇新农村沈家宅  " }, "geometry": { "type": "Point", "coordinates": [ 121.558501268268131, 31.362552263234768 ] } },
{ "type": "Feature", "properties": { "addr": "上海市 浦东新区 高青路2878弄  " }, "geometry": { "type": "Point", "coordinates": [ 121.534383741597352, 31.16614786788632 ] } },
{ "type": "Feature", "properties": { "addr": "上海市 浦东新区 拱川路411弄  " }, "geometry": { "type": "Point", "coordinates": [ 121.74965897401097, 31.069907843106915 ] } },
{ "type": "Feature", "properties": { "addr": "上海市 浦东新区 古棕路168弄  " }, "geometry": { "type": "Point", "coordinates": [ 121.923877781904906, 30.890266510779377 ] } },
{ "type": "Feature", "properties": { "addr": "上海市 浦东新区 崮山路95号  " }, "geometry": { "type": "Point", "coordinates": [ 121.557378206719562, 31.253687382281104 ] } },
{ "type": "Feature", "properties": { "addr": "上海市 浦东新区 崮山路968号  " }, "geometry": { "type": "Point", "coordinates": [ 121.568139277915236, 31.241428762610123 ] } },
{ "type": "Feature", "properties": { "addr": "上海市 浦东新区 关岳路181弄  " }, "geometry": { "type": "Point", "coordinates": [ 121.593389118681344, 31.126134708539809 ] } },
{ "type": "Feature", "properties": { "addr": "上海市 浦东新区 关岳路229弄  " }, "geometry": { "type": "Point", "coordinates": [ 121.594448041216509, 31.127375227553234 ] } },
{ "type": "Feature", "properties": { "addr": "上海市 浦东新区 海鸣路98弄  " }, "geometry": { "type": "Point", "coordinates": [ 121.677548217841903, 31.288627833747729 ] } },
{ "type": "Feature", "properties": { "addr": "上海市 浦东新区 海鹏路301弄  " }, "geometry": { "type": "Point", "coordinates": [ 121.680730914263762, 31.295363983048894 ] } },
{ "type": "Feature", "properties": { "addr": "上海市 浦东新区 海容路99弄  " }, "geometry": { "type": "Point", "coordinates": [ 121.680835027872362, 31.286961889101804 ] } },
{ "type": "Feature", "properties": { "addr": "上海市 浦东新区 海松路421弄  " }, "geometry": { "type": "Point", "coordinates": [ 121.687246593619278, 31.286058313469407 ] } },
{ "type": "Feature", "properties": { "addr": "上海市 浦东新区 海阳路1080弄  " }, "geometry": { "type": "Point", "coordinates": [ 121.513439479140558, 31.164135359227771 ] } },
{ "type": "Feature", "properties": { "addr": "上海市 浦东新区 海阳路1125弄  " }, "geometry": { "type": "Point", "coordinates": [ 121.515260254578735, 31.165597159209877 ] } },
{ "type": "Feature", "properties": { "addr": "上海市 浦东新区 海阳路612弄  " }, "geometry": { "type": "Point", "coordinates": [ 121.502090197496955, 31.160427107031765 ] } },
{ "type": "Feature", "properties": { "addr": "上海市 浦东新区 海阳路654弄  " }, "geometry": { "type": "Point", "coordinates": [ 121.503540152420612, 31.16119539056016 ] } },
{ "type": "Feature", "properties": { "addr": "上海市 浦东新区 航梅路526弄  " }, "geometry": { "type": "Point", "coordinates": [ 121.58752462099001, 31.028592642453045 ] } },
{ "type": "Feature", "properties": { "addr": "上海市 浦东新区 航瑞路388弄  " }, "geometry": { "type": "Point", "coordinates": [ 121.598209066725687, 31.080684738771261 ] } },
{ "type": "Feature", "properties": { "addr": "上海市 浦东新区 航瑞路459弄  " }, "geometry": { "type": "Point", "coordinates": [ 121.597673676641747, 31.082369817171895 ] } },
{ "type": "Feature", "properties": { "addr": "上海市 浦东新区 航头路988弄  " }, "geometry": { "type": "Point", "coordinates": [ 121.60690466406227, 31.040624900894645 ] } },
{ "type": "Feature", "properties": { "addr": "上海市 浦东新区 航头镇鹤鸣村许冯  " }, "geometry": { "type": "Point", "coordinates": [ 121.600562088178521, 31.050200132685855 ] } },
{ "type": "Feature", "properties": { "addr": "上海市 浦东新区 航绣路50弄  " }, "geometry": { "type": "Point", "coordinates": [ 121.604393630670245, 31.076577146786715 ] } },
{ "type": "Feature", "properties": { "addr": "上海市 浦东新区 合庆镇蔡路村西蔡家宅  " }, "geometry": { "type": "Point", "coordinates": [ 121.737464297051915, 31.219746024972316 ] } },
{ "type": "Feature", "properties": { "addr": "上海市 浦东新区 合庆镇蔡路村杨家宅  " }, "geometry": { "type": "Point", "coordinates": [ 121.74440496474422, 31.209984837533348 ] } },
{ "type": "Feature", "properties": { "addr": "上海市 浦东新区 合庆镇益民村四村宅  " }, "geometry": { "type": "Point", "coordinates": [ 121.712265030886016, 31.223873990851512 ] } },
{ "type": "Feature", "properties": { "addr": "上海市 浦东新区 合庆镇永红村秦家宅  " }, "geometry": { "type": "Point", "coordinates": [ 121.716091812358513, 31.24084075180815 ] } },
{ "type": "Feature", "properties": { "addr": "上海市 浦东新区 和炯路77弄  " }, "geometry": { "type": "Point", "coordinates": [ 121.525530311982649, 31.139159418419815 ] } },
{ "type": "Feature", "properties": { "addr": "上海市 浦东新区 和龙路295弄  " }, "geometry": { "type": "Point", "coordinates": [ 121.577540943382672, 31.349205602767256 ] } },
{ "type": "Feature", "properties": { "addr": "上海市 浦东新区 和融路55弄  " }, "geometry": { "type": "Point", "coordinates": [ 121.506367658843814, 31.130799475794813 ] } },
{ "type": "Feature", "properties": { "addr": "上海市 浦东新区 鹤沙路201弄  " }, "geometry": { "type": "Point", "coordinates": [ 121.605880595780903, 31.087527234505693 ] } },
{ "type": "Feature", "properties": { "addr": "上海市 浦东新区 鹤永路880弄  " }, "geometry": { "type": "Point", "coordinates": [ 121.608757223508491, 31.077784708707878 ] } },
{ "type": "Feature", "properties": { "addr": "上海市 浦东新区 洪山路851弄  " }, "geometry": { "type": "Point", "coordinates": [ 121.511211771306364, 31.166624337590093 ] } },
{ "type": "Feature", "properties": { "addr": "上海市 浦东新区 后长街91弄  " }, "geometry": { "type": "Point", "coordinates": [ 121.503168343770028, 31.169034458539137 ] } },
{ "type": "Feature", "properties": { "addr": "上海市 浦东新区 沪南路1087号  " }, "geometry": { "type": "Point", "coordinates": [ 121.562292476842444, 31.187502039999586 ] } },
{ "type": "Feature", "properties": { "addr": "上海市 浦东新区 沪南路2688弄  " }, "geometry": { "type": "Point", "coordinates": [ 121.570334646751078, 31.143972355375933 ] } },
{ "type": "Feature", "properties": { "addr": "上海市 浦东新区 沪南路3468弄  " }, "geometry": { "type": "Point", "coordinates": [ 121.571596496500945, 31.122291020369307 ] } },
{ "type": "Feature", "properties": { "addr": "上海市 浦东新区 花木街道龙王庙村南杨家堂  " }, "geometry": { "type": "Point", "coordinates": [ 121.558963805775221, 31.202723239483021 ] } },
{ "type": "Feature", "properties": { "addr": "上海市 浦东新区 华春路100弄  " }, "geometry": { "type": "Point", "coordinates": [ 121.526840041416207, 31.213179845684934 ] } },
{ "type": "Feature", "properties": { "addr": "上海市 浦东新区 华夏二路1455弄  " }, "geometry": { "type": "Point", "coordinates": [ 121.699507026541667, 31.17862187802573 ] } },
{ "type": "Feature", "properties": { "addr": "上海市 浦东新区 环林东路875弄  " }, "geometry": { "type": "Point", "coordinates": [ 121.53759150074292, 31.147101543815356 ] } },
{ "type": "Feature", "properties": { "addr": "上海市 浦东新区 环林东路906弄  " }, "geometry": { "type": "Point", "coordinates": [ 121.535471409908823, 31.147928347932531 ] } },
{ "type": "Feature", "properties": { "addr": "上海市 浦东新区 季景北路185弄  " }, "geometry": { "type": "Point", "coordinates": [ 121.591100326072478, 31.348164315361803 ] } },
{ "type": "Feature", "properties": { "addr": "上海市 浦东新区 季景路19弄  " }, "geometry": { "type": "Point", "coordinates": [ 121.593380674609563, 31.346510613548009 ] } },
{ "type": "Feature", "properties": { "addr": "上海市 浦东新区 季景路333弄  " }, "geometry": { "type": "Point", "coordinates": [ 121.597617712208475, 31.340393689407513 ] } },
{ "type": "Feature", "properties": { "addr": "上海市 浦东新区 佳林路898弄  " }, "geometry": { "type": "Point", "coordinates": [ 121.617268145239237, 31.270574349980258 ] } },
{ "type": "Feature", "properties": { "addr": "上海市 浦东新区 江东路25号  " }, "geometry": { "type": "Point", "coordinates": [ 121.555930138237471, 31.368827676072844 ] } },
{ "type": "Feature", "properties": { "addr": "上海市 浦东新区 金沪路1218弄  " }, "geometry": { "type": "Point", "coordinates": [ 121.610691291278485, 31.246915347325004 ] } },
{ "type": "Feature", "properties": { "addr": "上海市 浦东新区 金口路25弄  " }, "geometry": { "type": "Point", "coordinates": [ 121.582217432037069, 31.257752497777116 ] } },
{ "type": "Feature", "properties": { "addr": "上海市 浦东新区 金桥路2618号  " }, "geometry": { "type": "Point", "coordinates": [ 121.61007999437895, 31.23895589678164 ] } },
{ "type": "Feature", "properties": { "addr": "上海市 浦东新区 金杨路660弄  " }, "geometry": { "type": "Point", "coordinates": [ 121.588399929878932, 31.25750168417267 ] } },
{ "type": "Feature", "properties": { "addr": "上海市 浦东新区 金杨路750弄  " }, "geometry": { "type": "Point", "coordinates": [ 121.589772181375977, 31.258610198044636 ] } },
{ "type": "Feature", "properties": { "addr": "上海市 浦东新区 金杨新村街道高庙村塔水桥  " }, "geometry": { "type": "Point", "coordinates": [ 121.577133310308355, 31.27190453328442 ] } },
{ "type": "Feature", "properties": { "addr": "上海市 浦东新区 金杨新村街道金浜村  " }, "geometry": { "type": "Point", "coordinates": [ 121.568140715204052, 31.263265828168379 ] } },
{ "type": "Feature", "properties": { "addr": "上海市 浦东新区 锦和路99弄  " }, "geometry": { "type": "Point", "coordinates": [ 121.538124016249228, 31.212289840714956 ] } },
{ "type": "Feature", "properties": { "addr": "上海市 浦东新区 锦绣路3336弄  " }, "geometry": { "type": "Point", "coordinates": [ 121.547059550987541, 31.183574979857113 ] } },
{ "type": "Feature", "properties": { "addr": "上海市 浦东新区 居家桥路911弄  " }, "geometry": { "type": "Point", "coordinates": [ 121.578577677771719, 31.251674052823255 ] } },
{ "type": "Feature", "properties": { "addr": "上海市 浦东新区 巨峰路176弄  " }, "geometry": { "type": "Point", "coordinates": [ 121.603201669089032, 31.285412489153977 ] } },
{ "type": "Feature", "properties": { "addr": "上海市 浦东新区 巨峰路90弄  " }, "geometry": { "type": "Point", "coordinates": [ 121.602480239933982, 31.284755704928653 ] } },
{ "type": "Feature", "properties": { "addr": "上海市 浦东新区 康桥路1558弄  " }, "geometry": { "type": "Point", "coordinates": [ 121.58763637019544, 31.155405954675448 ] } },
{ "type": "Feature", "properties": { "addr": "上海市 浦东新区 康桥路90弄  " }, "geometry": { "type": "Point", "coordinates": [ 121.584859707864112, 31.120077939878794 ] } },
{ "type": "Feature", "properties": { "addr": "上海市 浦东新区 康桥镇叠桥村  " }, "geometry": { "type": "Point", "coordinates": [ 121.622828746176552, 31.13384997321586 ] } },
{ "type": "Feature", "properties": { "addr": "上海市 浦东新区 康桥镇花墙村  " }, "geometry": { "type": "Point", "coordinates": [ 121.552741692660348, 31.156328175262196 ] } },
{ "type": "Feature", "properties": { "addr": "上海市 浦东新区 康桥镇火箭村  " }, "geometry": { "type": "Point", "coordinates": [ 121.614989413652083, 31.14512934591589 ] } },
{ "type": "Feature", "properties": { "addr": "上海市 浦东新区 康桥镇人南村  " }, "geometry": { "type": "Point", "coordinates": [ 121.633575534314616, 31.145293227288391 ] } },
{ "type": "Feature", "properties": { "addr": "上海市 浦东新区 康桥镇太平村  " }, "geometry": { "type": "Point", "coordinates": [ 121.560021740174335, 31.129383964974782 ] } },
{ "type": "Feature", "properties": { "addr": "上海市 浦东新区 康桥镇汤巷村  " }, "geometry": { "type": "Point", "coordinates": [ 121.61059382513065, 31.144564683154275 ] } },
{ "type": "Feature", "properties": { "addr": "上海市 浦东新区 康杉路118号  " }, "geometry": { "type": "Point", "coordinates": [ 121.5643592981598, 31.163154813399263 ] } },
{ "type": "Feature", "properties": { "addr": "上海市 浦东新区 康杉路359弄  " }, "geometry": { "type": "Point", "coordinates": [ 121.536884264814915, 31.189702255537771 ] } },
{ "type": "Feature", "properties": { "addr": "上海市 浦东新区 康沈公路1300弄  " }, "geometry": { "type": "Point", "coordinates": [ 121.578537793007087, 31.143909537196446 ] } },
{ "type": "Feature", "properties": { "addr": "上海市 浦东新区 康沈路1602弄  " }, "geometry": { "type": "Point", "coordinates": [ 121.581599487676741, 31.123776425290853 ] } },
{ "type": "Feature", "properties": { "addr": "上海市 浦东新区 康沈路1938弄  " }, "geometry": { "type": "Point", "coordinates": [ 121.582681317002411, 31.114757754737909 ] } },
{ "type": "Feature", "properties": { "addr": "上海市 浦东新区 康泽路550弄  " }, "geometry": { "type": "Point", "coordinates": [ 121.550454606831948, 31.227348292436346 ] } },
{ "type": "Feature", "properties": { "addr": "上海市 浦东新区 莱阳路201弄  " }, "geometry": { "type": "Point", "coordinates": [ 121.586405332324574, 31.27945497158419 ] } },
{ "type": "Feature", "properties": { "addr": "上海市 浦东新区 莱阳路301弄  " }, "geometry": { "type": "Point", "coordinates": [ 121.585947196514496, 31.280357685263912 ] } },
{ "type": "Feature", "properties": { "addr": "上海市 浦东新区 莱阳路3766弄  " }, "geometry": { "type": "Point", "coordinates": [ 121.589537813468425, 31.332463488478048 ] } },
{ "type": "Feature", "properties": { "addr": "上海市 浦东新区 蓝村路471弄  " }, "geometry": { "type": "Point", "coordinates": [ 121.533601586989803, 31.217902204702717 ] } },
{ "type": "Feature", "properties": { "addr": "上海市 浦东新区 崂山路645弄  " }, "geometry": { "type": "Point", "coordinates": [ 121.531348816431887, 31.227805460283697 ] } },
{ "type": "Feature", "properties": { "addr": "上海市 浦东新区 崂山三村  " }, "geometry": { "type": "Point", "coordinates": [ 121.52639681747759, 31.238932508563483 ] } },
{ "type": "Feature", "properties": { "addr": "上海市 浦东新区 崂山四村  " }, "geometry": { "type": "Point", "coordinates": [ 121.524541996260581, 31.24117281086977 ] } },
{ "type": "Feature", "properties": { "addr": "上海市 浦东新区 历城路100弄  " }, "geometry": { "type": "Point", "coordinates": [ 121.49791550230043, 31.179897773390458 ] } },
{ "type": "Feature", "properties": { "addr": "上海市 浦东新区 利津路385弄  " }, "geometry": { "type": "Point", "coordinates": [ 121.590995673480563, 31.282764879081132 ] } },
{ "type": "Feature", "properties": { "addr": "上海市 浦东新区 利津路53弄  " }, "geometry": { "type": "Point", "coordinates": [ 121.584910282464321, 31.285692544924771 ] } },
{ "type": "Feature", "properties": { "addr": "上海市 浦东新区 利津路729弄  " }, "geometry": { "type": "Point", "coordinates": [ 121.596582954091531, 31.280678570870514 ] } },
{ "type": "Feature", "properties": { "addr": "上海市 浦东新区 莲溪路780弄  " }, "geometry": { "type": "Point", "coordinates": [ 121.568717157849804, 31.183478204983921 ] } },
{ "type": "Feature", "properties": { "addr": "上海市 浦东新区 莲园路18弄  " }, "geometry": { "type": "Point", "coordinates": [ 121.550383281374465, 31.19091583120769 ] } },
{ "type": "Feature", "properties": { "addr": "上海市 浦东新区 莲园路468弄  " }, "geometry": { "type": "Point", "coordinates": [ 121.536884264814915, 31.189702255537771 ] } },
{ "type": "Feature", "properties": { "addr": "上海市 浦东新区 莲园路508弄  " }, "geometry": { "type": "Point", "coordinates": [ 121.536884264814915, 31.189702255537771 ] } },
{ "type": "Feature", "properties": { "addr": "上海市 浦东新区 莲园路555弄  " }, "geometry": { "type": "Point", "coordinates": [ 121.536884264814915, 31.189702255537771 ] } },
{ "type": "Feature", "properties": { "addr": "上海市 浦东新区 莲中路356弄  " }, "geometry": { "type": "Point", "coordinates": [ 121.564929991650288, 31.185761076768486 ] } },
{ "type": "Feature", "properties": { "addr": "上海市 浦东新区 林德路718弄  " }, "geometry": { "type": "Point", "coordinates": [ 121.517756825252064, 31.134869848898855 ] } },
{ "type": "Feature", "properties": { "addr": "上海市 浦东新区 林培路红临路交界口工地生活区  " }, "geometry": { "type": "Point", "coordinates": [ 121.500511874715912, 31.128436904689458 ] } },
{ "type": "Feature", "properties": { "addr": "上海市 浦东新区 林悦路125弄  " }, "geometry": { "type": "Point", "coordinates": [ 121.525530311982649, 31.139159418419815 ] } },
{ "type": "Feature", "properties": { "addr": "上海市 浦东新区 林展路267弄  " }, "geometry": { "type": "Point", "coordinates": [ 121.513993014995805, 31.13367888524202 ] } },
{ "type": "Feature", "properties": { "addr": "上海市 浦东新区 林展路411弄  " }, "geometry": { "type": "Point", "coordinates": [ 121.515681739524013, 31.128169902288004 ] } },
{ "type": "Feature", "properties": { "addr": "上海市 浦东新区 临沂路181弄  " }, "geometry": { "type": "Point", "coordinates": [ 121.520668143579343, 31.197579250803219 ] } },
{ "type": "Feature", "properties": { "addr": "上海市 浦东新区 临沂路81弄  " }, "geometry": { "type": "Point", "coordinates": [ 121.525886040964608, 31.201341632054891 ] } },
{ "type": "Feature", "properties": { "addr": "上海市 浦东新区 灵山路1724弄  " }, "geometry": { "type": "Point", "coordinates": [ 121.574529733482663, 31.246303135635344 ] } },
{ "type": "Feature", "properties": { "addr": "上海市 浦东新区 灵岩南路380弄  " }, "geometry": { "type": "Point", "coordinates": [ 121.503294286202518, 31.159025485187325 ] } },
{ "type": "Feature", "properties": { "addr": "上海市 浦东新区 灵岩南路769弄  " }, "geometry": { "type": "Point", "coordinates": [ 121.504644708875659, 31.155998287562003 ] } },
{ "type": "Feature", "properties": { "addr": "上海市 浦东新区 凌河路188弄  " }, "geometry": { "type": "Point", "coordinates": [ 121.602161970291789, 31.281903851498075 ] } },
{ "type": "Feature", "properties": { "addr": "上海市 浦东新区 凌河路420弄  " }, "geometry": { "type": "Point", "coordinates": [ 121.605932248347727, 31.279917054061343 ] } },
{ "type": "Feature", "properties": { "addr": "上海市 浦东新区 凌空北路东靖路交界口工地生活区  " }, "geometry": { "type": "Point", "coordinates": [ 121.704172915191037, 31.256209327467289 ] } },
{ "type": "Feature", "properties": { "addr": "上海市 浦东新区 凌兆路127弄  " }, "geometry": { "type": "Point", "coordinates": [ 121.500027777876596, 31.147796072125399 ] } },
{ "type": "Feature", "properties": { "addr": "上海市 浦东新区 凌兆路379弄  " }, "geometry": { "type": "Point", "coordinates": [ 121.525530311982649, 31.139159418419815 ] } },
{ "type": "Feature", "properties": { "addr": "上海市 浦东新区 龙东大道1号  " }, "geometry": { "type": "Point", "coordinates": [ 121.589196906527377, 31.218623616640123 ] } },
{ "type": "Feature", "properties": { "addr": "上海市 浦东新区 龙居路180弄  " }, "geometry": { "type": "Point", "coordinates": [ 121.56897173763133, 31.258551238155807 ] } },
{ "type": "Feature", "properties": { "addr": "上海市 浦东新区 龙居路30弄  " }, "geometry": { "type": "Point", "coordinates": [ 121.58962611690005, 31.28158489894264 ] } },
{ "type": "Feature", "properties": { "addr": "上海市 浦东新区 龙阳路1188号  " }, "geometry": { "type": "Point", "coordinates": [ 121.537174956477955, 31.204222274391203 ] } },
{ "type": "Feature", "properties": { "addr": "上海市 浦东新区 龙阳路1880弄  " }, "geometry": { "type": "Point", "coordinates": [ 121.559292495761312, 31.206698915055398 ] } },
{ "type": "Feature", "properties": { "addr": "上海市 浦东新区 罗山路108弄  " }, "geometry": { "type": "Point", "coordinates": [ 121.558879454887844, 31.254641589752865 ] } },
{ "type": "Feature", "properties": { "addr": "上海市 浦东新区 罗山路1502弄  " }, "geometry": { "type": "Point", "coordinates": [ 121.575171482938998, 31.234888265801676 ] } },
{ "type": "Feature", "properties": { "addr": "上海市 浦东新区 罗山路1507弄  " }, "geometry": { "type": "Point", "coordinates": [ 121.577347448375818, 31.234486633997271 ] } },
{ "type": "Feature", "properties": { "addr": "上海市 浦东新区 绿林路320弄  " }, "geometry": { "type": "Point", "coordinates": [ 121.554834744498592, 31.176162646734344 ] } },
{ "type": "Feature", "properties": { "addr": "上海市 浦东新区 民生路423号  " }, "geometry": { "type": "Point", "coordinates": [ 121.549549653861192, 31.246153400950913 ] } },
{ "type": "Feature", "properties": { "addr": "上海市 浦东新区 牟平路56弄  " }, "geometry": { "type": "Point", "coordinates": [ 121.603134745328546, 31.271459942371283 ] } },
{ "type": "Feature", "properties": { "addr": "上海市 浦东新区 南码头路450弄  " }, "geometry": { "type": "Point", "coordinates": [ 121.5163195364361, 31.200368116304254 ] } },
{ "type": "Feature", "properties": { "addr": "上海市 浦东新区 南泉北路101弄  " }, "geometry": { "type": "Point", "coordinates": [ 121.522040215415288, 31.244123854864959 ] } },
{ "type": "Feature", "properties": { "addr": "上海市 浦东新区 南泉北路301弄  " }, "geometry": { "type": "Point", "coordinates": [ 121.523199299014806, 31.239984741026475 ] } },
{ "type": "Feature", "properties": { "addr": "上海市 浦东新区 南泉路1211弄  " }, "geometry": { "type": "Point", "coordinates": [ 121.529722254644966, 31.219263571698672 ] } },
{ "type": "Feature", "properties": { "addr": "上海市 浦东新区 南泉路1250弄  " }, "geometry": { "type": "Point", "coordinates": [ 121.527931123288624, 31.217747714972386 ] } },
{ "type": "Feature", "properties": { "addr": "上海市 浦东新区 欧高路138弄  " }, "geometry": { "type": "Point", "coordinates": [ 121.584067851557052, 31.355366970307948 ] } },
{ "type": "Feature", "properties": { "addr": "上海市 浦东新区 牌楼东路33号  " }, "geometry": { "type": "Point", "coordinates": [ 121.653767196415146, 31.031454061355259 ] } },
{ "type": "Feature", "properties": { "addr": "上海市 浦东新区 鹏岳路152弄  " }, "geometry": { "type": "Point", "coordinates": [ 121.560933340605843, 31.177214966797443 ] } },
{ "type": "Feature", "properties": { "addr": "上海市 浦东新区 浦城路366弄  " }, "geometry": { "type": "Point", "coordinates": [ 121.519347814140787, 31.23366854412388 ] } },
{ "type": "Feature", "properties": { "addr": "上海市 浦东新区 浦城路580弄  " }, "geometry": { "type": "Point", "coordinates": [ 121.521080555638974, 31.230158967011022 ] } },
{ "type": "Feature", "properties": { "addr": "上海市 浦东新区 浦电路218号  " }, "geometry": { "type": "Point", "coordinates": [ 121.53050378043865, 31.225407427168228 ] } },
{ "type": "Feature", "properties": { "addr": "上海市 浦东新区 浦电路221号  " }, "geometry": { "type": "Point", "coordinates": [ 121.530044566661957, 31.224988307387651 ] } },
{ "type": "Feature", "properties": { "addr": "上海市 浦东新区 浦电路29弄  " }, "geometry": { "type": "Point", "coordinates": [ 121.521798301741455, 31.221982772166619 ] } },
{ "type": "Feature", "properties": { "addr": "上海市 浦东新区 浦电路330弄  " }, "geometry": { "type": "Point", "coordinates": [ 121.534528817937215, 31.22662717934152 ] } },
{ "type": "Feature", "properties": { "addr": "上海市 浦东新区 浦电路331弄  " }, "geometry": { "type": "Point", "coordinates": [ 121.535182335195714, 31.225922581402024 ] } },
{ "type": "Feature", "properties": { "addr": "上海市 浦东新区 浦东大道136弄  " }, "geometry": { "type": "Point", "coordinates": [ 121.520173536565551, 31.24402420953977 ] } },
{ "type": "Feature", "properties": { "addr": "上海市 浦东新区 浦东大道140弄  " }, "geometry": { "type": "Point", "coordinates": [ 121.521669035578569, 31.244048831438676 ] } },
{ "type": "Feature", "properties": { "addr": "上海市 浦东新区 浦东大道1585弄  " }, "geometry": { "type": "Point", "coordinates": [ 121.547254752774862, 31.250760642806057 ] } },
{ "type": "Feature", "properties": { "addr": "上海市 浦东新区 浦东大道1695弄  " }, "geometry": { "type": "Point", "coordinates": [ 121.550783925631904, 31.253683600624225 ] } },
{ "type": "Feature", "properties": { "addr": "上海市 浦东新区 浦东大道1851弄  " }, "geometry": { "type": "Point", "coordinates": [ 121.552497443392198, 31.253101686701353 ] } },
{ "type": "Feature", "properties": { "addr": "上海市 浦东新区 浦东大道2511弄  " }, "geometry": { "type": "Point", "coordinates": [ 121.566406266925384, 31.265127505972 ] } },
{ "type": "Feature", "properties": { "addr": "上海市 浦东新区 浦东大道2639弄  " }, "geometry": { "type": "Point", "coordinates": [ 121.573829414507088, 31.270096402842292 ] } },
{ "type": "Feature", "properties": { "addr": "上海市 浦东新区 浦东大道2641弄  " }, "geometry": { "type": "Point", "coordinates": [ 121.57542031356526, 31.271472442613302 ] } },
{ "type": "Feature", "properties": { "addr": "上海市 浦东新区 浦东大道290弄  " }, "geometry": { "type": "Point", "coordinates": [ 121.52343779912772, 31.24488774737473 ] } },
{ "type": "Feature", "properties": { "addr": "上海市 浦东新区 浦东南路1475弄  " }, "geometry": { "type": "Point", "coordinates": [ 121.525751744290872, 31.228549414736456 ] } },
{ "type": "Feature", "properties": { "addr": "上海市 浦东新区 浦东南路1533号  " }, "geometry": { "type": "Point", "coordinates": [ 121.527644653661497, 31.227372301137734 ] } },
{ "type": "Feature", "properties": { "addr": "上海市 浦东新区 浦东南路1700弄  " }, "geometry": { "type": "Point", "coordinates": [ 121.525060767692594, 31.223784977741762 ] } },
{ "type": "Feature", "properties": { "addr": "上海市 浦东新区 浦东南路1862弄  " }, "geometry": { "type": "Point", "coordinates": [ 121.524135153695099, 31.221747612042826 ] } },
{ "type": "Feature", "properties": { "addr": "上海市 浦东新区 浦东南路2108号  " }, "geometry": { "type": "Point", "coordinates": [ 121.52288614971404, 31.215786267718542 ] } },
{ "type": "Feature", "properties": { "addr": "上海市 浦东新区 浦东南路2141弄  " }, "geometry": { "type": "Point", "coordinates": [ 121.522955588729957, 31.214304635560897 ] } },
{ "type": "Feature", "properties": { "addr": "上海市 浦东新区 浦东南路2380弄  " }, "geometry": { "type": "Point", "coordinates": [ 121.517424003060611, 31.205794563493857 ] } },
{ "type": "Feature", "properties": { "addr": "上海市 浦东新区 浦建路60弄  " }, "geometry": { "type": "Point", "coordinates": [ 121.524453692828942, 31.213159230587877 ] } },
{ "type": "Feature", "properties": { "addr": "上海市 浦东新区 浦三路2801弄  " }, "geometry": { "type": "Point", "coordinates": [ 121.536884264814915, 31.189702255537771 ] } },
{ "type": "Feature", "properties": { "addr": "上海市 浦东新区 浦三路28弄  " }, "geometry": { "type": "Point", "coordinates": [ 121.522452447813819, 31.194323397234179 ] } },
{ "type": "Feature", "properties": { "addr": "上海市 浦东新区 浦三路秀浦路交界口工地生活区  " }, "geometry": { "type": "Point", "coordinates": [ 121.616024890413428, 31.135717238318502 ] } },
{ "type": "Feature", "properties": { "addr": "上海市 浦东新区 栖山路1489弄  " }, "geometry": { "type": "Point", "coordinates": [ 121.571031731826807, 31.263823525136839 ] } },
{ "type": "Feature", "properties": { "addr": "上海市 浦东新区 栖山路401弄  " }, "geometry": { "type": "Point", "coordinates": [ 121.55603344337112, 31.253987830572694 ] } },
{ "type": "Feature", "properties": { "addr": "上海市 浦东新区 栖山路470弄  " }, "geometry": { "type": "Point", "coordinates": [ 121.557950157837752, 31.253805230981168 ] } },
{ "type": "Feature", "properties": { "addr": "上海市 浦东新区 栖霞路190弄  " }, "geometry": { "type": "Point", "coordinates": [ 121.526081152921378, 31.244186142787363 ] } },
{ "type": "Feature", "properties": { "addr": "上海市 浦东新区 齐河路257弄  " }, "geometry": { "type": "Point", "coordinates": [ 121.508970139736761, 31.185906891982349 ] } },
{ "type": "Feature", "properties": { "addr": "上海市 浦东新区 齐河路28弄  " }, "geometry": { "type": "Point", "coordinates": [ 121.536884264814915, 31.189702255537771 ] } },
{ "type": "Feature", "properties": { "addr": "上海市 浦东新区 千汇路581弄  " }, "geometry": { "type": "Point", "coordinates": [ 121.771476030101255, 31.117495908121153 ] } },
{ "type": "Feature", "properties": { "addr": "上海市 浦东新区 乳山路161弄  " }, "geometry": { "type": "Point", "coordinates": [ 121.528018079261983, 31.241597184030631 ] } },
{ "type": "Feature", "properties": { "addr": "上海市 浦东新区 乳山路313弄  " }, "geometry": { "type": "Point", "coordinates": [ 121.52639681747759, 31.238932508563483 ] } },
{ "type": "Feature", "properties": { "addr": "上海市 浦东新区 瑞福路52弄  " }, "geometry": { "type": "Point", "coordinates": [ 121.607602647443528, 31.101758418286778 ] } },
{ "type": "Feature", "properties": { "addr": "上海市 浦东新区 瑞和路555弄  " }, "geometry": { "type": "Point", "coordinates": [ 121.601290254624914, 31.094585694557914 ] } },
{ "type": "Feature", "properties": { "addr": "上海市 浦东新区 瑞阳路81弄  " }, "geometry": { "type": "Point", "coordinates": [ 121.594743853220947, 31.10537166826629 ] } },
{ "type": "Feature", "properties": { "addr": "上海市 浦东新区 瑞意路399弄  " }, "geometry": { "type": "Point", "coordinates": [ 121.592686284450338, 31.102791860761887 ] } },
{ "type": "Feature", "properties": { "addr": "上海市 浦东新区 三彩路166弄  " }, "geometry": { "type": "Point", "coordinates": [ 121.525530311982649, 31.139159418419815 ] } },
{ "type": "Feature", "properties": { "addr": "上海市 浦东新区 三彩路52弄  " }, "geometry": { "type": "Point", "coordinates": [ 121.525530311982649, 31.139159418419815 ] } },
{ "type": "Feature", "properties": { "addr": "上海市 浦东新区 三彩路59弄  " }, "geometry": { "type": "Point", "coordinates": [ 121.506355531719436, 31.132930313734967 ] } },
{ "type": "Feature", "properties": { "addr": "上海市 浦东新区 三林路168号  " }, "geometry": { "type": "Point", "coordinates": [ 121.502638523180238, 31.141592189223104 ] } },
{ "type": "Feature", "properties": { "addr": "上海市 浦东新区 三林路184号  " }, "geometry": { "type": "Point", "coordinates": [ 121.502530996010705, 31.14241486936929 ] } },
{ "type": "Feature", "properties": { "addr": "上海市 浦东新区 三林路788弄  " }, "geometry": { "type": "Point", "coordinates": [ 121.514306433788235, 31.147340445444716 ] } },
{ "type": "Feature", "properties": { "addr": "上海市 浦东新区 三林路88弄  " }, "geometry": { "type": "Point", "coordinates": [ 121.536884264814915, 31.189702255537771 ] } },
{ "type": "Feature", "properties": { "addr": "上海市 浦东新区 三林镇红旗村东桥队毛家塘  " }, "geometry": { "type": "Point", "coordinates": [ 121.507890556174871, 31.133660107274697 ] } },
{ "type": "Feature", "properties": { "addr": "上海市 浦东新区 三林镇临江村临江队王家渡  " }, "geometry": { "type": "Point", "coordinates": [ 121.48103454515693, 31.130823354677393 ] } },
{ "type": "Feature", "properties": { "addr": "上海市 浦东新区 三林镇临江村庞家队庞家宅  " }, "geometry": { "type": "Point", "coordinates": [ 121.482806722267, 31.124007039641032 ] } },
{ "type": "Feature", "properties": { "addr": "上海市 浦东新区 三林镇临江村王家渡队王家渡  " }, "geometry": { "type": "Point", "coordinates": [ 121.48103454515693, 31.130823354677393 ] } },
{ "type": "Feature", "properties": { "addr": "上海市 浦东新区 三林镇临江村王家宅队王家宅  " }, "geometry": { "type": "Point", "coordinates": [ 121.484029855049386, 31.126877924520862 ] } },
{ "type": "Feature", "properties": { "addr": "上海市 浦东新区 三林镇临江村筠西队庞家宅  " }, "geometry": { "type": "Point", "coordinates": [ 121.482806722267, 31.124007039641032 ] } },
{ "type": "Feature", "properties": { "addr": "上海市 浦东新区 三林镇临江村周南队周家宅  " }, "geometry": { "type": "Point", "coordinates": [ 121.478736410170754, 31.124012372204763 ] } },
{ "type": "Feature", "properties": { "addr": "上海市 浦东新区 三林镇南阜村东汤队东汤家宅  " }, "geometry": { "type": "Point", "coordinates": [ 121.526167659741986, 31.136051601892248 ] } },
{ "type": "Feature", "properties": { "addr": "上海市 浦东新区 三林镇天花庵村北陈队大陈家宅  " }, "geometry": { "type": "Point", "coordinates": [ 121.531939542135248, 31.128535900177152 ] } },
{ "type": "Feature", "properties": { "addr": "上海市 浦东新区 三林镇天花庵村南王家队南王家宅  " }, "geometry": { "type": "Point", "coordinates": [ 121.553801423670478, 31.162845112362536 ] } },
{ "type": "Feature", "properties": { "addr": "上海市 浦东新区 三林镇西林村圈门队西林街  " }, "geometry": { "type": "Point", "coordinates": [ 121.505050473474526, 31.142465402882358 ] } },
{ "type": "Feature", "properties": { "addr": "上海市 浦东新区 三林镇懿德村吴家队吴家宅  " }, "geometry": { "type": "Point", "coordinates": [ 121.522180979888702, 31.125604863131734 ] } },
{ "type": "Feature", "properties": { "addr": "上海市 浦东新区 三舒路181弄  " }, "geometry": { "type": "Point", "coordinates": [ 121.525530311982649, 31.139159418419815 ] } },
{ "type": "Feature", "properties": { "addr": "上海市 浦东新区 三舒路288弄  " }, "geometry": { "type": "Point", "coordinates": [ 121.525530311982649, 31.139159418419815 ] } },
{ "type": "Feature", "properties": { "addr": "上海市 浦东新区 三舒路33弄  " }, "geometry": { "type": "Point", "coordinates": [ 121.511249500137779, 31.131499302275618 ] } },
{ "type": "Feature", "properties": { "addr": "上海市 浦东新区 三舒路62弄  " }, "geometry": { "type": "Point", "coordinates": [ 121.509892699495524, 31.130409298630166 ] } },
{ "type": "Feature", "properties": { "addr": "上海市 浦东新区 三新路5弄  " }, "geometry": { "type": "Point", "coordinates": [ 121.839406970732398, 30.979778270401592 ] } },
{ "type": "Feature", "properties": { "addr": "上海市 浦东新区 商城路1028弄  " }, "geometry": { "type": "Point", "coordinates": [ 121.532816917126837, 31.237543716492585 ] } },
{ "type": "Feature", "properties": { "addr": "上海市 浦东新区 上南路1000弄  " }, "geometry": { "type": "Point", "coordinates": [ 121.500667461230236, 31.180593835385782 ] } },
{ "type": "Feature", "properties": { "addr": "上海市 浦东新区 上南路1251弄  " }, "geometry": { "type": "Point", "coordinates": [ 121.502606274012422, 31.178521236106434 ] } },
{ "type": "Feature", "properties": { "addr": "上海市 浦东新区 上南路1551弄  " }, "geometry": { "type": "Point", "coordinates": [ 121.504524605428983, 31.17454150695551 ] } },
{ "type": "Feature", "properties": { "addr": "上海市 浦东新区 上南路3500弄  " }, "geometry": { "type": "Point", "coordinates": [ 121.525530311982649, 31.139159418419815 ] } },
{ "type": "Feature", "properties": { "addr": "上海市 浦东新区 上南路3521号  " }, "geometry": { "type": "Point", "coordinates": [ 121.511585466398515, 31.161595328123152 ] } },
{ "type": "Feature", "properties": { "addr": "上海市 浦东新区 上南路3651弄  " }, "geometry": { "type": "Point", "coordinates": [ 121.513459421522867, 31.160585322193327 ] } },
{ "type": "Feature", "properties": { "addr": "上海市 浦东新区 上南路3827弄  " }, "geometry": { "type": "Point", "coordinates": [ 121.513376418093756, 31.157441286606257 ] } },
{ "type": "Feature", "properties": { "addr": "上海市 浦东新区 上南路3848弄  " }, "geometry": { "type": "Point", "coordinates": [ 121.511836003805257, 31.156075235710073 ] } },
{ "type": "Feature", "properties": { "addr": "上海市 浦东新区 上南路5588号  " }, "geometry": { "type": "Point", "coordinates": [ 121.534100685531158, 31.12914416758575 ] } },
{ "type": "Feature", "properties": { "addr": "上海市 浦东新区 上南路6333弄  " }, "geometry": { "type": "Point", "coordinates": [ 121.584859707864112, 31.120077939878794 ] } },
{ "type": "Feature", "properties": { "addr": "上海市 浦东新区 上南路929弄  " }, "geometry": { "type": "Point", "coordinates": [ 121.50767882556616, 31.186093717393579 ] } },
{ "type": "Feature", "properties": { "addr": "上海市 浦东新区 上浦路276弄  " }, "geometry": { "type": "Point", "coordinates": [ 121.525530311982649, 31.139159418419815 ] } },
{ "type": "Feature", "properties": { "addr": "上海市 浦东新区 上浦路510弄  " }, "geometry": { "type": "Point", "coordinates": [ 121.506222941826138, 31.152101739360106 ] } },
{ "type": "Feature", "properties": { "addr": "上海市 浦东新区 沈家弄路900弄  " }, "geometry": { "type": "Point", "coordinates": [ 121.551370339468832, 31.244946021226362 ] } },
{ "type": "Feature", "properties": { "addr": "上海市 浦东新区 盛夏路1107弄  " }, "geometry": { "type": "Point", "coordinates": [ 121.640893669982205, 31.203976413616545 ] } },
{ "type": "Feature", "properties": { "addr": "上海市 浦东新区 石家街116号  " }, "geometry": { "type": "Point", "coordinates": [ 121.586840381683061, 31.350472386518977 ] } },
{ "type": "Feature", "properties": { "addr": "上海市 浦东新区 世博家园大道站路94弄  " }, "geometry": { "type": "Point", "coordinates": [ 121.545610314708298, 31.165459346349106 ] } },
{ "type": "Feature", "properties": { "addr": "上海市 浦东新区 寿光路78弄  " }, "geometry": { "type": "Point", "coordinates": [ 121.592102026546655, 31.279390855434528 ] } },
{ "type": "Feature", "properties": { "addr": "上海市 浦东新区 思浦路13弄  " }, "geometry": { "type": "Point", "coordinates": [ 121.50015946946435, 31.164910255877725 ] } },
{ "type": "Feature", "properties": { "addr": "上海市 浦东新区 思浦路6弄  " }, "geometry": { "type": "Point", "coordinates": [ 121.550454606831948, 31.227348292436346 ] } },
{ "type": "Feature", "properties": { "addr": "上海市 浦东新区 松林路283号  " }, "geometry": { "type": "Point", "coordinates": [ 121.540448022434106, 31.233375904274755 ] } },
{ "type": "Feature", "properties": { "addr": "上海市 浦东新区 松林路333弄  " }, "geometry": { "type": "Point", "coordinates": [ 121.540645649646308, 31.232864650767048 ] } },
{ "type": "Feature", "properties": { "addr": "上海市 浦东新区 孙环路177弄  " }, "geometry": { "type": "Point", "coordinates": [ 121.644806267509367, 31.190250417895971 ] } },
{ "type": "Feature", "properties": { "addr": "上海市 浦东新区 唐镇前进村西李家宅  " }, "geometry": { "type": "Point", "coordinates": [ 121.648552173607527, 31.214166662680899 ] } },
{ "type": "Feature", "properties": { "addr": "上海市 浦东新区 唐镇小湾村东张家宅  " }, "geometry": { "type": "Point", "coordinates": [ 121.691947606014082, 31.236233793114234 ] } },
{ "type": "Feature", "properties": { "addr": "上海市 浦东新区 唐镇小湾村小湾新村  " }, "geometry": { "type": "Point", "coordinates": [ 121.696664967569191, 31.239619872733037 ] } },
{ "type": "Feature", "properties": { "addr": "上海市 浦东新区 唐镇新虹村刘家宅  " }, "geometry": { "type": "Point", "coordinates": [ 121.655033627523125, 31.248713367963926 ] } },
{ "type": "Feature", "properties": { "addr": "上海市 浦东新区 塘南路123号  " }, "geometry": { "type": "Point", "coordinates": [ 121.515400839391049, 31.207814053753751 ] } },
{ "type": "Feature", "properties": { "addr": "上海市 浦东新区 塘桥路400弄  " }, "geometry": { "type": "Point", "coordinates": [ 121.524547925076945, 31.217074087356593 ] } },
{ "type": "Feature", "properties": { "addr": "上海市 浦东新区 塘桥路551号  " }, "geometry": { "type": "Point", "coordinates": [ 121.527653007902742, 31.21690585341106 ] } },
{ "type": "Feature", "properties": { "addr": "上海市 浦东新区 桃林路1141弄  " }, "geometry": { "type": "Point", "coordinates": [ 121.548694197524057, 31.233673638874418 ] } },
{ "type": "Feature", "properties": { "addr": "上海市 浦东新区 潍坊路120号  " }, "geometry": { "type": "Point", "coordinates": [ 121.529380988381732, 31.230432935525588 ] } },
{ "type": "Feature", "properties": { "addr": "上海市 浦东新区 潍坊路126弄  " }, "geometry": { "type": "Point", "coordinates": [ 121.530665475430453, 31.229645611618768 ] } },
{ "type": "Feature", "properties": { "addr": "上海市 浦东新区 潍坊路268号  " }, "geometry": { "type": "Point", "coordinates": [ 121.540119601939651, 31.234022474240376 ] } },
{ "type": "Feature", "properties": { "addr": "上海市 浦东新区 潍坊路270弄  " }, "geometry": { "type": "Point", "coordinates": [ 121.540247969797036, 31.233813898791766 ] } },
{ "type": "Feature", "properties": { "addr": "上海市 浦东新区 潍坊路278号  " }, "geometry": { "type": "Point", "coordinates": [ 121.540730090364249, 31.234260459648702 ] } },
{ "type": "Feature", "properties": { "addr": "上海市 浦东新区 潍坊路280号  " }, "geometry": { "type": "Point", "coordinates": [ 121.541086987143359, 31.234311638397287 ] } },
{ "type": "Feature", "properties": { "addr": "上海市 浦东新区 潍坊路282号  " }, "geometry": { "type": "Point", "coordinates": [ 121.540762429362601, 31.234285006925273 ] } },
{ "type": "Feature", "properties": { "addr": "上海市 浦东新区 潍坊路333弄  " }, "geometry": { "type": "Point", "coordinates": [ 121.526092202079155, 31.229300465379932 ] } },
{ "type": "Feature", "properties": { "addr": "上海市 浦东新区 潍坊路335弄  " }, "geometry": { "type": "Point", "coordinates": [ 121.53827061970847, 31.233788347881376 ] } },
{ "type": "Feature", "properties": { "addr": "上海市 浦东新区 潍坊路355弄  " }, "geometry": { "type": "Point", "coordinates": [ 121.53821797900558, 31.235145392618922 ] } },
{ "type": "Feature", "properties": { "addr": "上海市 浦东新区 潍坊路375弄  " }, "geometry": { "type": "Point", "coordinates": [ 121.541472090715487, 31.234748161879693 ] } },
{ "type": "Feature", "properties": { "addr": "上海市 浦东新区 潍坊西路100弄  " }, "geometry": { "type": "Point", "coordinates": [ 121.522905283621412, 31.228227886947543 ] } },
{ "type": "Feature", "properties": { "addr": "上海市 浦东新区 五莲路1047弄  " }, "geometry": { "type": "Point", "coordinates": [ 121.601390415689281, 31.277745809783077 ] } },
{ "type": "Feature", "properties": { "addr": "上海市 浦东新区 五莲路108弄  " }, "geometry": { "type": "Point", "coordinates": [ 121.588773624971083, 31.277157873113886 ] } },
{ "type": "Feature", "properties": { "addr": "上海市 浦东新区 五莲路201弄  " }, "geometry": { "type": "Point", "coordinates": [ 121.587086158070576, 31.282666663701544 ] } },
{ "type": "Feature", "properties": { "addr": "上海市 浦东新区 五莲路30弄  " }, "geometry": { "type": "Point", "coordinates": [ 121.584500744982321, 31.281555271944608 ] } },
{ "type": "Feature", "properties": { "addr": "上海市 浦东新区 五莲路759弄  " }, "geometry": { "type": "Point", "coordinates": [ 121.597702871570817, 31.276387222961237 ] } },
{ "type": "Feature", "properties": { "addr": "上海市 浦东新区 五星路231弄  " }, "geometry": { "type": "Point", "coordinates": [ 121.536884264814915, 31.189702255537771 ] } },
{ "type": "Feature", "properties": { "addr": "上海市 浦东新区 西泰林路158弄  " }, "geometry": { "type": "Point", "coordinates": [ 121.539297472736919, 31.159803282444798 ] } },
{ "type": "Feature", "properties": { "addr": "上海市 浦东新区 西泰林路480弄  " }, "geometry": { "type": "Point", "coordinates": [ 121.541024734571508, 31.154043505314505 ] } },
{ "type": "Feature", "properties": { "addr": "上海市 浦东新区 西泰林路750弄  " }, "geometry": { "type": "Point", "coordinates": [ 121.544512854866753, 31.149023324850859 ] } },
{ "type": "Feature", "properties": { "addr": "上海市 浦东新区 西泰林路901弄  " }, "geometry": { "type": "Point", "coordinates": [ 121.545070972080111, 31.149459936767588 ] } },
{ "type": "Feature", "properties": { "addr": "上海市 浦东新区 西营南路18弄  " }, "geometry": { "type": "Point", "coordinates": [ 121.493133642409703, 31.165473482991562 ] } },
{ "type": "Feature", "properties": { "addr": "上海市 浦东新区 下南路115弄  " }, "geometry": { "type": "Point", "coordinates": [ 121.55020362027247, 31.172402344328333 ] } },
{ "type": "Feature", "properties": { "addr": "上海市 浦东新区 下南路225弄  " }, "geometry": { "type": "Point", "coordinates": [ 121.552785889291457, 31.17539958371751 ] } },
{ "type": "Feature", "properties": { "addr": "上海市 浦东新区 下南路309弄  " }, "geometry": { "type": "Point", "coordinates": [ 121.529696185109415, 31.207201251711854 ] } },
{ "type": "Feature", "properties": { "addr": "上海市 浦东新区 下南路339弄  " }, "geometry": { "type": "Point", "coordinates": [ 121.550641274716938, 31.176791074170239 ] } },
{ "type": "Feature", "properties": { "addr": "上海市 浦东新区 下南路474号  " }, "geometry": { "type": "Point", "coordinates": [ 121.546493708346802, 31.177988210602106 ] } },
{ "type": "Feature", "properties": { "addr": "上海市 浦东新区 下南路500弄  " }, "geometry": { "type": "Point", "coordinates": [ 121.543720818898606, 31.177967587760506 ] } },
{ "type": "Feature", "properties": { "addr": "上海市 浦东新区 下南路526弄  " }, "geometry": { "type": "Point", "coordinates": [ 121.544402003966823, 31.17804189176027 ] } },
{ "type": "Feature", "properties": { "addr": "上海市 浦东新区 下南路551弄  " }, "geometry": { "type": "Point", "coordinates": [ 121.546799042389651, 31.179016875274282 ] } },
{ "type": "Feature", "properties": { "addr": "上海市 浦东新区 新场镇果园村  " }, "geometry": { "type": "Point", "coordinates": [ 121.642441899528649, 31.025361102765 ] } },
{ "type": "Feature", "properties": { "addr": "上海市 浦东新区 新场镇坦南村  " }, "geometry": { "type": "Point", "coordinates": [ 121.658849629329509, 31.072493887859476 ] } },
{ "type": "Feature", "properties": { "addr": "上海市 浦东新区 新村路59弄  " }, "geometry": { "type": "Point", "coordinates": [ 121.503186399710771, 31.170014556678424 ] } },
{ "type": "Feature", "properties": { "addr": "上海市 浦东新区 新德路785弄  " }, "geometry": { "type": "Point", "coordinates": [ 121.697403105206732, 31.202564477671565 ] } },
{ "type": "Feature", "properties": { "addr": "上海市 浦东新区 新德西路99弄  " }, "geometry": { "type": "Point", "coordinates": [ 121.684706275467605, 31.197659253750228 ] } },
{ "type": "Feature", "properties": { "addr": "上海市 浦东新区 新金桥路230号  " }, "geometry": { "type": "Point", "coordinates": [ 121.606037799245144, 31.255251663107057 ] } },
{ "type": "Feature", "properties": { "addr": "上海市 浦东新区 新浦路251弄  " }, "geometry": { "type": "Point", "coordinates": [ 121.541342016077635, 31.17422589586613 ] } },
{ "type": "Feature", "properties": { "addr": "上海市 浦东新区 新浦路380弄  " }, "geometry": { "type": "Point", "coordinates": [ 121.536884264814915, 31.189702255537771 ] } },
{ "type": "Feature", "properties": { "addr": "上海市 浦东新区 新浦路543弄  " }, "geometry": { "type": "Point", "coordinates": [ 121.536926664834994, 31.175801005536101 ] } },
{ "type": "Feature", "properties": { "addr": "上海市 浦东新区 新浦路587弄  " }, "geometry": { "type": "Point", "coordinates": [ 121.532965137535996, 31.192722959436448 ] } },
{ "type": "Feature", "properties": { "addr": "上海市 浦东新区 新元南路正茂路交界口工地生活区  " }, "geometry": { "type": "Point", "coordinates": [ 121.827883417819848, 30.883671131631182 ] } },
{ "type": "Feature", "properties": { "addr": "上海市 浦东新区 新园路251弄  " }, "geometry": { "type": "Point", "coordinates": [ 121.652778790862527, 31.290487771739045 ] } },
{ "type": "Feature", "properties": { "addr": "上海市 浦东新区 秀康路958弄  " }, "geometry": { "type": "Point", "coordinates": [ 121.584859707864112, 31.120077939878794 ] } },
{ "type": "Feature", "properties": { "addr": "上海市 浦东新区 秀浦路886弄  " }, "geometry": { "type": "Point", "coordinates": [ 121.574563240278195, 31.132106468618911 ] } },
{ "type": "Feature", "properties": { "addr": "上海市 浦东新区 秀沿路1155弄  " }, "geometry": { "type": "Point", "coordinates": [ 121.584859707864112, 31.120077939878794 ] } },
{ "type": "Feature", "properties": { "addr": "上海市 浦东新区 宣中路697弄  " }, "geometry": { "type": "Point", "coordinates": [ 121.712276708857644, 31.027076259472249 ] } },
{ "type": "Feature", "properties": { "addr": "上海市 浦东新区 学前二村  " }, "geometry": { "type": "Point", "coordinates": [ 121.590492532564426, 31.352587432129926 ] } },
{ "type": "Feature", "properties": { "addr": "上海市 浦东新区 雪野二路997号工地生活区  " }, "geometry": { "type": "Point", "coordinates": [ 121.496009387838811, 31.1855776489395 ] } },
{ "type": "Feature", "properties": { "addr": "上海市 浦东新区 雪野路34弄  " }, "geometry": { "type": "Point", "coordinates": [ 121.503822310181292, 31.186552940240503 ] } },
{ "type": "Feature", "properties": { "addr": "上海市 浦东新区 严民路40弄  " }, "geometry": { "type": "Point", "coordinates": [ 121.535360828500544, 31.198209156327895 ] } },
{ "type": "Feature", "properties": { "addr": "上海市 浦东新区 严桥路150弄  " }, "geometry": { "type": "Point", "coordinates": [ 121.534482016220139, 31.195514826808072 ] } },
{ "type": "Feature", "properties": { "addr": "上海市 浦东新区 严杨路30弄  " }, "geometry": { "type": "Point", "coordinates": [ 121.532512930542268, 31.198276108155607 ] } },
{ "type": "Feature", "properties": { "addr": "上海市 浦东新区 严镇路96弄  " }, "geometry": { "type": "Point", "coordinates": [ 121.535558455712746, 31.19681134259362 ] } },
{ "type": "Feature", "properties": { "addr": "上海市 浦东新区 杨高南路3288弄  " }, "geometry": { "type": "Point", "coordinates": [ 121.525582413702239, 31.17462515993693 ] } },
{ "type": "Feature", "properties": { "addr": "上海市 浦东新区 杨高中路10弄  " }, "geometry": { "type": "Point", "coordinates": [ 121.606373585844779, 31.263420011224802 ] } },
{ "type": "Feature", "properties": { "addr": "上海市 浦东新区 杨南路1899弄  " }, "geometry": { "type": "Point", "coordinates": [ 121.525480006874105, 31.161421741370209 ] } },
{ "type": "Feature", "properties": { "addr": "上海市 浦东新区 杨南路694弄  " }, "geometry": { "type": "Point", "coordinates": [ 121.507554859405801, 31.15539096668121 ] } },
{ "type": "Feature", "properties": { "addr": "上海市 浦东新区 杨南路797弄  " }, "geometry": { "type": "Point", "coordinates": [ 121.509163634743615, 31.158170194327642 ] } },
{ "type": "Feature", "properties": { "addr": "上海市 浦东新区 杨思北街118弄  " }, "geometry": { "type": "Point", "coordinates": [ 121.499143935085314, 31.169854040045799 ] } },
{ "type": "Feature", "properties": { "addr": "上海市 浦东新区 杨思北街119弄  " }, "geometry": { "type": "Point", "coordinates": [ 121.499143935085314, 31.169854040045799 ] } },
{ "type": "Feature", "properties": { "addr": "上海市 浦东新区 杨思路1121弄  " }, "geometry": { "type": "Point", "coordinates": [ 121.512446312568727, 31.170793653236089 ] } },
{ "type": "Feature", "properties": { "addr": "上海市 浦东新区 杨思路430弄  " }, "geometry": { "type": "Point", "coordinates": [ 121.499450167433665, 31.165366647001502 ] } },
{ "type": "Feature", "properties": { "addr": "上海市 浦东新区 杨思路502弄  " }, "geometry": { "type": "Point", "coordinates": [ 121.501390507335216, 31.165181479780415 ] } },
{ "type": "Feature", "properties": { "addr": "上海市 浦东新区 杨思新村  " }, "geometry": { "type": "Point", "coordinates": [ 121.600645630590961, 31.224417177429832 ] } },
{ "type": "Feature", "properties": { "addr": "上海市 浦东新区 杨新路197弄  " }, "geometry": { "type": "Point", "coordinates": [ 121.4985201517392, 31.168845590720398 ] } },
{ "type": "Feature", "properties": { "addr": "上海市 浦东新区 杨新路198弄  " }, "geometry": { "type": "Point", "coordinates": [ 121.498479727991253, 31.16923244104267 ] } },
{ "type": "Feature", "properties": { "addr": "上海市 浦东新区 杨新路20弄  " }, "geometry": { "type": "Point", "coordinates": [ 121.502908553816539, 31.170494328286757 ] } },
{ "type": "Feature", "properties": { "addr": "上海市 浦东新区 杨新路77弄  " }, "geometry": { "type": "Point", "coordinates": [ 121.500168003366696, 31.169243023786645 ] } },
{ "type": "Feature", "properties": { "addr": "上海市 浦东新区 杨新路80弄  " }, "geometry": { "type": "Point", "coordinates": [ 121.500333510246065, 31.169613156321486 ] } },
{ "type": "Feature", "properties": { "addr": "上海市 浦东新区 杨新路93弄  " }, "geometry": { "type": "Point", "coordinates": [ 121.500194952531999, 31.169327994680454 ] } },
{ "type": "Feature", "properties": { "addr": "上海市 浦东新区 洋泾镇路89弄  " }, "geometry": { "type": "Point", "coordinates": [ 121.555696938127085, 31.247320553311472 ] } },
{ "type": "Feature", "properties": { "addr": "上海市 浦东新区 耀华路30弄  " }, "geometry": { "type": "Point", "coordinates": [ 121.536884264814915, 31.189702255537771 ] } },
{ "type": "Feature", "properties": { "addr": "上海市 浦东新区 耀华路331弄  " }, "geometry": { "type": "Point", "coordinates": [ 121.493188888198574, 31.18096820214458 ] } },
{ "type": "Feature", "properties": { "addr": "上海市 浦东新区 耀华路414弄  " }, "geometry": { "type": "Point", "coordinates": [ 121.492226982658494, 31.1790527910542 ] } },
{ "type": "Feature", "properties": { "addr": "上海市 浦东新区 耀华路550弄  " }, "geometry": { "type": "Point", "coordinates": [ 121.487451231245231, 31.175987696606491 ] } },
{ "type": "Feature", "properties": { "addr": "上海市 浦东新区 耀华路579弄  " }, "geometry": { "type": "Point", "coordinates": [ 121.486059666179727, 31.178810494440008 ] } },
{ "type": "Feature", "properties": { "addr": "上海市 浦东新区 樱花路802弄  " }, "geometry": { "type": "Point", "coordinates": [ 121.567473903023995, 31.213807021168357 ] } },
{ "type": "Feature", "properties": { "addr": "上海市 浦东新区 迎春路1355弄  " }, "geometry": { "type": "Point", "coordinates": [ 121.569082498700709, 31.235478938541977 ] } },
{ "type": "Feature", "properties": { "addr": "上海市 浦东新区 永泰路1129弄  " }, "geometry": { "type": "Point", "coordinates": [ 121.529723871594882, 31.148799725606349 ] } },
{ "type": "Feature", "properties": { "addr": "上海市 浦东新区 永泰路136弄  " }, "geometry": { "type": "Point", "coordinates": [ 121.511141254323832, 31.140667892100943 ] } },
{ "type": "Feature", "properties": { "addr": "上海市 浦东新区 永泰路2079弄  " }, "geometry": { "type": "Point", "coordinates": [ 121.525530311982649, 31.139159418419815 ] } },
{ "type": "Feature", "properties": { "addr": "上海市 浦东新区 永泰路468弄  " }, "geometry": { "type": "Point", "coordinates": [ 121.518683696877261, 31.142297035001501 ] } },
{ "type": "Feature", "properties": { "addr": "上海市 浦东新区 永泰路775弄  " }, "geometry": { "type": "Point", "coordinates": [ 121.524414706369811, 31.147980346490257 ] } },
{ "type": "Feature", "properties": { "addr": "上海市 浦东新区 羽山路1445弄  " }, "geometry": { "type": "Point", "coordinates": [ 121.567132277438546, 31.246777885619089 ] } },
{ "type": "Feature", "properties": { "addr": "上海市 浦东新区 玉泉街77弄  " }, "geometry": { "type": "Point", "coordinates": [ 121.501992641518555, 31.168991123257296 ] } },
{ "type": "Feature", "properties": { "addr": "上海市 浦东新区 御青路56弄  " }, "geometry": { "type": "Point", "coordinates": [ 121.578469072635571, 31.165031924344618 ] } },
{ "type": "Feature", "properties": { "addr": "上海市 浦东新区 御山路347弄  " }, "geometry": { "type": "Point", "coordinates": [ 121.575428038992641, 31.16371975057157 ] } },
{ "type": "Feature", "properties": { "addr": "上海市 浦东新区 御水路199弄  " }, "geometry": { "type": "Point", "coordinates": [ 121.580638210950525, 31.166554813951443 ] } },
{ "type": "Feature", "properties": { "addr": "上海市 浦东新区 园洲路189弄  " }, "geometry": { "type": "Point", "coordinates": [ 121.641902287408826, 31.321913567362007 ] } },
{ "type": "Feature", "properties": { "addr": "上海市 浦东新区 源深路600弄  " }, "geometry": { "type": "Point", "coordinates": [ 121.540367174938211, 31.237760542935803 ] } },
{ "type": "Feature", "properties": { "addr": "上海市 浦东新区 云山路839弄  " }, "geometry": { "type": "Point", "coordinates": [ 121.581552236806928, 31.260050767960063 ] } },
{ "type": "Feature", "properties": { "addr": "上海市 浦东新区 云台路183弄  " }, "geometry": { "type": "Point", "coordinates": [ 121.510618530347571, 31.18339896227592 ] } },
{ "type": "Feature", "properties": { "addr": "上海市 浦东新区 云台路529弄  " }, "geometry": { "type": "Point", "coordinates": [ 121.513630638553082, 31.174419232888098 ] } },
{ "type": "Feature", "properties": { "addr": "上海市 浦东新区 枣庄路118弄  " }, "geometry": { "type": "Point", "coordinates": [ 121.576826700671674, 31.265418040115406 ] } },
{ "type": "Feature", "properties": { "addr": "上海市 浦东新区 枣庄路210弄  " }, "geometry": { "type": "Point", "coordinates": [ 121.577389219582031, 31.264391559266734 ] } },
{ "type": "Feature", "properties": { "addr": "上海市 浦东新区 枣庄路212弄  " }, "geometry": { "type": "Point", "coordinates": [ 121.577860650313681, 31.264191617202933 ] } },
{ "type": "Feature", "properties": { "addr": "上海市 浦东新区 枣庄路552弄  " }, "geometry": { "type": "Point", "coordinates": [ 121.585578981085945, 31.25736686193547 ] } },
{ "type": "Feature", "properties": { "addr": "上海市 浦东新区 张江镇沔北村诸家宅  " }, "geometry": { "type": "Point", "coordinates": [ 121.62881011341473, 31.167725971391313 ] } },
{ "type": "Feature", "properties": { "addr": "上海市 浦东新区 张江镇钱堂村立达宅  " }, "geometry": { "type": "Point", "coordinates": [ 121.599518706328681, 31.163881745465648 ] } },
{ "type": "Feature", "properties": { "addr": "上海市 浦东新区 张江镇新丰村龚家宅  " }, "geometry": { "type": "Point", "coordinates": [ 121.651728671721358, 31.16654067747195 ] } },
{ "type": "Feature", "properties": { "addr": "上海市 浦东新区 张江镇中心村蔡家圈宅  " }, "geometry": { "type": "Point", "coordinates": [ 121.646543023503909, 31.177778892411219 ] } },
{ "type": "Feature", "properties": { "addr": "上海市 浦东新区 张杨北路2899弄  " }, "geometry": { "type": "Point", "coordinates": [ 121.594111985125238, 31.310569871178334 ] } },
{ "type": "Feature", "properties": { "addr": "上海市 浦东新区 张杨北路512弄  " }, "geometry": { "type": "Point", "coordinates": [ 121.595559065471249, 31.271399293025119 ] } },
{ "type": "Feature", "properties": { "addr": "上海市 浦东新区 张杨北路558弄  " }, "geometry": { "type": "Point", "coordinates": [ 121.594596261625668, 31.273627937729422 ] } },
{ "type": "Feature", "properties": { "addr": "上海市 浦东新区 张杨路1673弄  " }, "geometry": { "type": "Point", "coordinates": [ 121.549771894644365, 31.243332632552367 ] } },
{ "type": "Feature", "properties": { "addr": "上海市 浦东新区 张杨路1776弄  " }, "geometry": { "type": "Point", "coordinates": [ 121.556913962432006, 31.243885354258111 ] } },
{ "type": "Feature", "properties": { "addr": "上海市 浦东新区 张杨路628弄  " }, "geometry": { "type": "Point", "coordinates": [ 121.527603690930235, 31.233830340914704 ] } },
{ "type": "Feature", "properties": { "addr": "上海市 浦东新区 招远路19弄  " }, "geometry": { "type": "Point", "coordinates": [ 121.521229943845299, 31.241645116927586 ] } },
{ "type": "Feature", "properties": { "addr": "上海市 浦东新区 赵高公路587号  " }, "geometry": { "type": "Point", "coordinates": [ 121.633098983241581, 31.322174079331059 ] } },
{ "type": "Feature", "properties": { "addr": "上海市 浦东新区 赵高公路958号  " }, "geometry": { "type": "Point", "coordinates": [ 121.637129320742659, 31.316872849079196 ] } },
{ "type": "Feature", "properties": { "addr": "上海市 浦东新区 赵高路610号  " }, "geometry": { "type": "Point", "coordinates": [ 121.633474115622548, 31.321740894877177 ] } },
{ "type": "Feature", "properties": { "addr": "上海市 浦东新区 浙桥路277号  " }, "geometry": { "type": "Point", "coordinates": [ 121.607920018780192, 31.258345881498737 ] } },
{ "type": "Feature", "properties": { "addr": "上海市 浦东新区 振兴东路12弄  " }, "geometry": { "type": "Point", "coordinates": [ 121.502710207959936, 31.16838558591424 ] } },
{ "type": "Feature", "properties": { "addr": "上海市 浦东新区 中科路2166弄  " }, "geometry": { "type": "Point", "coordinates": [ 121.633922819224779, 31.194219837595877 ] } },
{ "type": "Feature", "properties": { "addr": "上海市 浦东新区 中南苑  " }, "geometry": { "type": "Point", "coordinates": [ 121.875034396071982, 30.933736912053298 ] } },
{ "type": "Feature", "properties": { "addr": "上海市 浦东新区 周浦镇北庄村  " }, "geometry": { "type": "Point", "coordinates": [ 121.663919575797266, 31.100195748827556 ] } },
{ "type": "Feature", "properties": { "addr": "上海市 浦东新区 周浦镇红桥村  " }, "geometry": { "type": "Point", "coordinates": [ 121.639952155977198, 31.108110249652228 ] } },
{ "type": "Feature", "properties": { "addr": "上海市 浦东新区 周浦镇里仁村  " }, "geometry": { "type": "Point", "coordinates": [ 121.575105367653464, 31.11385058423264 ] } },
{ "type": "Feature", "properties": { "addr": "上海市 浦东新区 周浦镇牛桥村  " }, "geometry": { "type": "Point", "coordinates": [ 121.605709019428502, 31.107148133857702 ] } },
{ "type": "Feature", "properties": { "addr": "上海市 浦东新区 周浦镇瓦南村陆弄  " }, "geometry": { "type": "Point", "coordinates": [ 121.652206210930458, 31.103491895827599 ] } },
{ "type": "Feature", "properties": { "addr": "上海市 浦东新区 周浦镇周南村  " }, "geometry": { "type": "Point", "coordinates": [ 121.589970886554781, 31.111919735760996 ] } },
{ "type": "Feature", "properties": { "addr": "上海市 浦东新区 祝桥镇邓镇二村谢家宅  " }, "geometry": { "type": "Point", "coordinates": [ 121.767960241996306, 31.147181976158844 ] } },
{ "type": "Feature", "properties": { "addr": "上海市 浦东新区 紫薇路35弄  " }, "geometry": { "type": "Point", "coordinates": [ 121.63626380338377, 31.194416454082223 ] } },
{ "type": "Feature", "properties": { "addr": "上海市 浦东新区 紫叶路101弄  " }, "geometry": { "type": "Point", "coordinates": [ 121.558130268092512, 31.189456974493609 ] } },
{ "type": "Feature", "properties": { "addr": "上海市 浦东新区 紫叶路51弄  " }, "geometry": { "type": "Point", "coordinates": [ 121.557614011915931, 31.190270894229712 ] } },
{ "type": "Feature", "properties": { "addr": "上海市 黄浦区 白渡路288号  " }, "geometry": { "type": "Point", "coordinates": [ 121.506114785842755, 31.225314787113074 ] } },
{ "type": "Feature", "properties": { "addr": "上海市 黄浦区 保屯路211弄  " }, "geometry": { "type": "Point", "coordinates": [ 121.498305816044507, 31.209535149529046 ] } },
{ "type": "Feature", "properties": { "addr": "上海市 黄浦区 保屯路50弄  " }, "geometry": { "type": "Point", "coordinates": [ 121.496314991373296, 31.211889115666636 ] } },
{ "type": "Feature", "properties": { "addr": "上海市 黄浦区 北京东路288弄  " }, "geometry": { "type": "Point", "coordinates": [ 121.490646324283119, 31.246480269913778 ] } },
{ "type": "Feature", "properties": { "addr": "上海市 黄浦区 北京东路316弄  " }, "geometry": { "type": "Point", "coordinates": [ 121.477099248378821, 31.205400451269838 ] } },
{ "type": "Feature", "properties": { "addr": "上海市 黄浦区 北京东路345号  " }, "geometry": { "type": "Point", "coordinates": [ 121.489809552700592, 31.245917375379019 ] } },
{ "type": "Feature", "properties": { "addr": "上海市 黄浦区 北京东路431弄  " }, "geometry": { "type": "Point", "coordinates": [ 121.48868846742414, 31.24544624864965 ] } },
{ "type": "Feature", "properties": { "addr": "上海市 黄浦区 北京东路432号  " }, "geometry": { "type": "Point", "coordinates": [ 121.48809298070158, 31.245994404064763 ] } },
{ "type": "Feature", "properties": { "addr": "上海市 黄浦区 北京东路460号  " }, "geometry": { "type": "Point", "coordinates": [ 121.487887178909247, 31.245762623168268 ] } },
{ "type": "Feature", "properties": { "addr": "上海市 黄浦区 北京东路495号  " }, "geometry": { "type": "Point", "coordinates": [ 121.487367239680054, 31.245358954101494 ] } },
{ "type": "Feature", "properties": { "addr": "上海市 黄浦区 北京西路239弄  " }, "geometry": { "type": "Point", "coordinates": [ 121.475743795194802, 31.241462338857026 ] } },
{ "type": "Feature", "properties": { "addr": "上海市 黄浦区 北京西路240弄  " }, "geometry": { "type": "Point", "coordinates": [ 121.475833086762492, 31.24201761876455 ] } },
{ "type": "Feature", "properties": { "addr": "上海市 黄浦区 北京西路256号  " }, "geometry": { "type": "Point", "coordinates": [ 121.475433161149454, 31.241795244763107 ] } },
{ "type": "Feature", "properties": { "addr": "上海市 黄浦区 北无锡路5号  " }, "geometry": { "type": "Point", "coordinates": [ 121.487666465245439, 31.24524418210029 ] } },
{ "type": "Feature", "properties": { "addr": "上海市 黄浦区 长乐路324号  " }, "geometry": { "type": "Point", "coordinates": [ 121.47015067559802, 31.227536038772953 ] } },
{ "type": "Feature", "properties": { "addr": "上海市 黄浦区 曹家街65号  " }, "geometry": { "type": "Point", "coordinates": [ 121.493186911926443, 31.224226027992877 ] } },
{ "type": "Feature", "properties": { "addr": "上海市 黄浦区 曹市弄20弄  " }, "geometry": { "type": "Point", "coordinates": [ 121.495654826654018, 31.224911724605651 ] } },
{ "type": "Feature", "properties": { "addr": "上海市 黄浦区 曹市弄42弄  " }, "geometry": { "type": "Point", "coordinates": [ 121.495654826654018, 31.224911724605651 ] } },
{ "type": "Feature", "properties": { "addr": "上海市 黄浦区 重庆北路114号  " }, "geometry": { "type": "Point", "coordinates": [ 121.47694797373093, 31.231623596921796 ] } },
{ "type": "Feature", "properties": { "addr": "上海市 黄浦区 重庆北路116号  " }, "geometry": { "type": "Point", "coordinates": [ 121.476886349972943, 31.231585539838498 ] } },
{ "type": "Feature", "properties": { "addr": "上海市 黄浦区 重庆北路126号  " }, "geometry": { "type": "Point", "coordinates": [ 121.476874402509651, 31.231774049620821 ] } },
{ "type": "Feature", "properties": { "addr": "上海市 黄浦区 重庆北路177弄  " }, "geometry": { "type": "Point", "coordinates": [ 121.476319968348903, 31.232554871312299 ] } },
{ "type": "Feature", "properties": { "addr": "上海市 黄浦区 重庆北路212号  " }, "geometry": { "type": "Point", "coordinates": [ 121.476441509084395, 31.233133439385597 ] } },
{ "type": "Feature", "properties": { "addr": "上海市 黄浦区 重庆北路235号  " }, "geometry": { "type": "Point", "coordinates": [ 121.475467027267172, 31.233620838718963 ] } },
{ "type": "Feature", "properties": { "addr": "上海市 黄浦区 重庆北路352号  " }, "geometry": { "type": "Point", "coordinates": [ 121.475050213510542, 31.235194718277018 ] } },
{ "type": "Feature", "properties": { "addr": "上海市 黄浦区 重庆南路169弄  " }, "geometry": { "type": "Point", "coordinates": [ 121.478156104811291, 31.223155630252226 ] } },
{ "type": "Feature", "properties": { "addr": "上海市 黄浦区 重庆南路18号  " }, "geometry": { "type": "Point", "coordinates": [ 121.477852747040572, 31.226858853258328 ] } },
{ "type": "Feature", "properties": { "addr": "上海市 黄浦区 重庆南路205弄  " }, "geometry": { "type": "Point", "coordinates": [ 121.477585501151353, 31.220500929265803 ] } },
{ "type": "Feature", "properties": { "addr": "上海市 黄浦区 重庆南路26弄  " }, "geometry": { "type": "Point", "coordinates": [ 121.491585592524359, 31.23724715206362 ] } },
{ "type": "Feature", "properties": { "addr": "上海市 黄浦区 重庆南路283号  " }, "geometry": { "type": "Point", "coordinates": [ 121.479915436152595, 31.215368262979844 ] } },
{ "type": "Feature", "properties": { "addr": "上海市 黄浦区 车站支路38号  " }, "geometry": { "type": "Point", "coordinates": [ 121.500372906853528, 31.213714832889671 ] } },
{ "type": "Feature", "properties": { "addr": "上海市 黄浦区 车站支路99弄  " }, "geometry": { "type": "Point", "coordinates": [ 121.499215979187213, 31.213917353586929 ] } },
{ "type": "Feature", "properties": { "addr": "上海市 黄浦区 成都北路262弄  " }, "geometry": { "type": "Point", "coordinates": [ 121.474451223396485, 31.234991008544441 ] } },
{ "type": "Feature", "properties": { "addr": "上海市 黄浦区 成都南路99弄  " }, "geometry": { "type": "Point", "coordinates": [ 121.474386096247017, 31.227539744288958 ] } },
{ "type": "Feature", "properties": { "addr": "上海市 黄浦区 打浦路303弄  " }, "geometry": { "type": "Point", "coordinates": [ 121.478195181100986, 31.205904673705177 ] } },
{ "type": "Feature", "properties": { "addr": "上海市 黄浦区 打浦路316弄  " }, "geometry": { "type": "Point", "coordinates": [ 121.4771429060266, 31.205298679857936 ] } },
{ "type": "Feature", "properties": { "addr": "上海市 黄浦区 打浦路339弄  " }, "geometry": { "type": "Point", "coordinates": [ 121.478552257541196, 31.205296749443139 ] } },
{ "type": "Feature", "properties": { "addr": "上海市 黄浦区 打浦路399号  " }, "geometry": { "type": "Point", "coordinates": [ 121.478892086515629, 31.204535854046981 ] } },
{ "type": "Feature", "properties": { "addr": "上海市 黄浦区 打浦路470弄  " }, "geometry": { "type": "Point", "coordinates": [ 121.4793632477556, 31.203063078428812 ] } },
{ "type": "Feature", "properties": { "addr": "上海市 黄浦区 打浦路480弄  " }, "geometry": { "type": "Point", "coordinates": [ 121.479416966425106, 31.202757833460705 ] } },
{ "type": "Feature", "properties": { "addr": "上海市 黄浦区 打浦路90弄  " }, "geometry": { "type": "Point", "coordinates": [ 121.477225280641861, 31.208560869587441 ] } },
{ "type": "Feature", "properties": { "addr": "上海市 黄浦区 大沽路139弄  " }, "geometry": { "type": "Point", "coordinates": [ 121.478150894639327, 31.232003780930505 ] } },
{ "type": "Feature", "properties": { "addr": "上海市 黄浦区 大沽路141号  " }, "geometry": { "type": "Point", "coordinates": [ 121.478041391197664, 31.232261842007876 ] } },
{ "type": "Feature", "properties": { "addr": "上海市 黄浦区 大沽路171号  " }, "geometry": { "type": "Point", "coordinates": [ 121.477528907904244, 31.23209957933755 ] } },
{ "type": "Feature", "properties": { "addr": "上海市 黄浦区 大沽路177号  " }, "geometry": { "type": "Point", "coordinates": [ 121.477430453620329, 31.232068469954232 ] } },
{ "type": "Feature", "properties": { "addr": "上海市 黄浦区 大沽路183弄  " }, "geometry": { "type": "Point", "coordinates": [ 121.477665540172296, 31.231942951592927 ] } },
{ "type": "Feature", "properties": { "addr": "上海市 黄浦区 大沽路193号  " }, "geometry": { "type": "Point", "coordinates": [ 121.477124939916393, 31.231969197758669 ] } },
{ "type": "Feature", "properties": { "addr": "上海市 黄浦区 大沽路195号  " }, "geometry": { "type": "Point", "coordinates": [ 121.477142995857136, 31.231929905701932 ] } },
{ "type": "Feature", "properties": { "addr": "上海市 黄浦区 大吉路310弄  " }, "geometry": { "type": "Point", "coordinates": [ 121.468393051037197, 31.223077810739706 ] } },
{ "type": "Feature", "properties": { "addr": "上海市 黄浦区 大吉路320号  " }, "geometry": { "type": "Point", "coordinates": [ 121.488214611267622, 31.218845196459458 ] } },
{ "type": "Feature", "properties": { "addr": "上海市 黄浦区 大吉路44弄  " }, "geometry": { "type": "Point", "coordinates": [ 121.492894333821837, 31.220721578194794 ] } },
{ "type": "Feature", "properties": { "addr": "上海市 黄浦区 大林路190号  " }, "geometry": { "type": "Point", "coordinates": [ 121.491957670666594, 31.218075069221168 ] } },
{ "type": "Feature", "properties": { "addr": "上海市 黄浦区 大林路338号  " }, "geometry": { "type": "Point", "coordinates": [ 121.490415998750379, 31.218038859574012 ] } },
{ "type": "Feature", "properties": { "addr": "上海市 黄浦区 大林路43弄  " }, "geometry": { "type": "Point", "coordinates": [ 121.493319501819713, 31.219241105018995 ] } },
{ "type": "Feature", "properties": { "addr": "上海市 黄浦区 淡水路139号  " }, "geometry": { "type": "Point", "coordinates": [ 121.479914448016515, 31.225795124804062 ] } },
{ "type": "Feature", "properties": { "addr": "上海市 黄浦区 淡水路214弄  " }, "geometry": { "type": "Point", "coordinates": [ 121.479010483181838, 31.223387544368109 ] } },
{ "type": "Feature", "properties": { "addr": "上海市 黄浦区 淡水路223弄  " }, "geometry": { "type": "Point", "coordinates": [ 121.479911483608333, 31.222843579792674 ] } },
{ "type": "Feature", "properties": { "addr": "上海市 黄浦区 淡水路225弄  " }, "geometry": { "type": "Point", "coordinates": [ 121.47987824630448, 31.222755183320498 ] } },
{ "type": "Feature", "properties": { "addr": "上海市 黄浦区 淡水路229弄  " }, "geometry": { "type": "Point", "coordinates": [ 121.48032443465128, 31.222361837307538 ] } },
{ "type": "Feature", "properties": { "addr": "上海市 黄浦区 淡水路345弄  " }, "geometry": { "type": "Point", "coordinates": [ 121.481436087719885, 31.219080518285622 ] } },
{ "type": "Feature", "properties": { "addr": "上海市 黄浦区 定兴路36号  " }, "geometry": { "type": "Point", "coordinates": [ 121.477466296010192, 31.241107665019452 ] } },
{ "type": "Feature", "properties": { "addr": "上海市 黄浦区 东唐家弄29号  " }, "geometry": { "type": "Point", "coordinates": [ 121.491585592524359, 31.23724715206362 ] } },
{ "type": "Feature", "properties": { "addr": "上海市 黄浦区 多稼路168号  " }, "geometry": { "type": "Point", "coordinates": [ 121.508546139536051, 31.217449003221493 ] } },
{ "type": "Feature", "properties": { "addr": "上海市 黄浦区 多稼路208号  " }, "geometry": { "type": "Point", "coordinates": [ 121.508549193774783, 31.217548136407576 ] } },
{ "type": "Feature", "properties": { "addr": "上海市 黄浦区 方浜西路63弄  " }, "geometry": { "type": "Point", "coordinates": [ 121.488941789577936, 31.22685144217224 ] } },
{ "type": "Feature", "properties": { "addr": "上海市 黄浦区 方浜中路593号  " }, "geometry": { "type": "Point", "coordinates": [ 121.493116664435561, 31.229502025997476 ] } },
{ "type": "Feature", "properties": { "addr": "上海市 黄浦区 方斜路401弄  " }, "geometry": { "type": "Point", "coordinates": [ 121.490010862965377, 31.220407821129211 ] } },
{ "type": "Feature", "properties": { "addr": "上海市 黄浦区 方斜支路35弄  " }, "geometry": { "type": "Point", "coordinates": [ 121.492374664084323, 31.22161652121175 ] } },
{ "type": "Feature", "properties": { "addr": "上海市 黄浦区 凤阳路228弄  " }, "geometry": { "type": "Point", "coordinates": [ 121.478205960767099, 31.240573683460127 ] } },
{ "type": "Feature", "properties": { "addr": "上海市 黄浦区 凤阳路470号  " }, "geometry": { "type": "Point", "coordinates": [ 121.473705450162115, 31.239238021526596 ] } },
{ "type": "Feature", "properties": { "addr": "上海市 黄浦区 福建中路225号  " }, "geometry": { "type": "Point", "coordinates": [ 121.487760697493428, 31.240106234828197 ] } },
{ "type": "Feature", "properties": { "addr": "上海市 黄浦区 福佑路427号  " }, "geometry": { "type": "Point", "coordinates": [ 121.49478562624256, 31.233895877798528 ] } },
{ "type": "Feature", "properties": { "addr": "上海市 黄浦区 福州路37号  " }, "geometry": { "type": "Point", "coordinates": [ 121.49599995563095, 31.241006858673476 ] } },
{ "type": "Feature", "properties": { "addr": "上海市 黄浦区 福州路384弄  " }, "geometry": { "type": "Point", "coordinates": [ 121.489639054314793, 31.240033446629219 ] } },
{ "type": "Feature", "properties": { "addr": "上海市 黄浦区 福州路614弄  " }, "geometry": { "type": "Point", "coordinates": [ 121.48585503218456, 31.238969867958666 ] } },
{ "type": "Feature", "properties": { "addr": "上海市 黄浦区 抚安街10号  " }, "geometry": { "type": "Point", "coordinates": [ 121.50384872036328, 31.226729236365895 ] } },
{ "type": "Feature", "properties": { "addr": "上海市 黄浦区 复兴东路316号  " }, "geometry": { "type": "Point", "coordinates": [ 121.505060534496238, 31.226431016473043 ] } },
{ "type": "Feature", "properties": { "addr": "上海市 黄浦区 复兴东路346号  " }, "geometry": { "type": "Point", "coordinates": [ 121.50437126467844, 31.226603324847012 ] } },
{ "type": "Feature", "properties": { "addr": "上海市 黄浦区 复兴东路404弄  " }, "geometry": { "type": "Point", "coordinates": [ 121.503635193143552, 31.226892511933613 ] } },
{ "type": "Feature", "properties": { "addr": "上海市 黄浦区 复兴东路673号  " }, "geometry": { "type": "Point", "coordinates": [ 121.497880827707746, 31.2278543266236 ] } },
{ "type": "Feature", "properties": { "addr": "上海市 黄浦区 复兴中路408弄  " }, "geometry": { "type": "Point", "coordinates": [ 121.480135790494188, 31.222547895195856 ] } },
{ "type": "Feature", "properties": { "addr": "上海市 黄浦区 复兴中路50号  " }, "geometry": { "type": "Point", "coordinates": [ 121.488382145245239, 31.224586247083035 ] } },
{ "type": "Feature", "properties": { "addr": "上海市 黄浦区 复兴中路586号  " }, "geometry": { "type": "Point", "coordinates": [ 121.471218940510482, 31.220881004056693 ] } },
{ "type": "Feature", "properties": { "addr": "上海市 黄浦区 高家弄66弄  " }, "geometry": { "type": "Point", "coordinates": [ 121.484578540054883, 31.235498236464565 ] } },
{ "type": "Feature", "properties": { "addr": "上海市 黄浦区 牯岭路145弄  " }, "geometry": { "type": "Point", "coordinates": [ 121.477555497747318, 31.241767920743111 ] } },
{ "type": "Feature", "properties": { "addr": "上海市 黄浦区 光启路111号  " }, "geometry": { "type": "Point", "coordinates": [ 121.500877215566817, 31.229626003702819 ] } },
{ "type": "Feature", "properties": { "addr": "上海市 黄浦区 光启路129号  " }, "geometry": { "type": "Point", "coordinates": [ 121.500787744338027, 31.229329722961083 ] } },
{ "type": "Feature", "properties": { "addr": "上海市 黄浦区 光启路215号  " }, "geometry": { "type": "Point", "coordinates": [ 121.500806518923184, 31.228077968930979 ] } },
{ "type": "Feature", "properties": { "addr": "上海市 黄浦区 广东路138号  " }, "geometry": { "type": "Point", "coordinates": [ 121.494688699078026, 31.239072374652263 ] } },
{ "type": "Feature", "properties": { "addr": "上海市 黄浦区 广东路154号  " }, "geometry": { "type": "Point", "coordinates": [ 121.494732266895269, 31.23924836479793 ] } },
{ "type": "Feature", "properties": { "addr": "上海市 黄浦区 广东路339号  " }, "geometry": { "type": "Point", "coordinates": [ 121.491338019525813, 31.238043829129953 ] } },
{ "type": "Feature", "properties": { "addr": "上海市 黄浦区 广东路543号  " }, "geometry": { "type": "Point", "coordinates": [ 121.487577892322165, 31.237774668670987 ] } },
{ "type": "Feature", "properties": { "addr": "上海市 黄浦区 广西北路228弄  " }, "geometry": { "type": "Point", "coordinates": [ 121.485099557250678, 31.239119228201453 ] } },
{ "type": "Feature", "properties": { "addr": "上海市 黄浦区 广西北路425号  " }, "geometry": { "type": "Point", "coordinates": [ 121.483259827566229, 31.242142814863154 ] } },
{ "type": "Feature", "properties": { "addr": "上海市 黄浦区 广西北路480号  " }, "geometry": { "type": "Point", "coordinates": [ 121.483163978368324, 31.242952880513574 ] } },
{ "type": "Feature", "properties": { "addr": "上海市 黄浦区 广西北路515号  " }, "geometry": { "type": "Point", "coordinates": [ 121.482805015486534, 31.243499198102377 ] } },
{ "type": "Feature", "properties": { "addr": "上海市 黄浦区 贵州路167号  " }, "geometry": { "type": "Point", "coordinates": [ 121.482425481408569, 31.242783149378084 ] } },
{ "type": "Feature", "properties": { "addr": "上海市 黄浦区 贵州路175号  " }, "geometry": { "type": "Point", "coordinates": [ 121.482364216972798, 31.242932194789123 ] } },
{ "type": "Feature", "properties": { "addr": "上海市 黄浦区 贵州路68号  " }, "geometry": { "type": "Point", "coordinates": [ 121.482970034208719, 31.24088088918182 ] } },
{ "type": "Feature", "properties": { "addr": "上海市 黄浦区 国货路8号  " }, "geometry": { "type": "Point", "coordinates": [ 121.504192412051395, 31.213402056068396 ] } },
{ "type": "Feature", "properties": { "addr": "上海市 黄浦区 海潮路230弄  " }, "geometry": { "type": "Point", "coordinates": [ 121.504837036085348, 31.215277852030805 ] } },
{ "type": "Feature", "properties": { "addr": "上海市 黄浦区 海潮路33号  " }, "geometry": { "type": "Point", "coordinates": [ 121.504920039514474, 31.216254532724125 ] } },
{ "type": "Feature", "properties": { "addr": "上海市 黄浦区 海南西弄54号  " }, "geometry": { "type": "Point", "coordinates": [ 121.503859500029392, 31.216539428176748 ] } },
{ "type": "Feature", "properties": { "addr": "上海市 黄浦区 海南西弄58号  " }, "geometry": { "type": "Point", "coordinates": [ 121.503719993183694, 31.216579189939271 ] } },
{ "type": "Feature", "properties": { "addr": "上海市 黄浦区 汉口路425号  " }, "geometry": { "type": "Point", "coordinates": [ 121.488895077691424, 31.240695562433778 ] } },
{ "type": "Feature", "properties": { "addr": "上海市 黄浦区 汉口路678号  " }, "geometry": { "type": "Point", "coordinates": [ 121.484266828042919, 31.239647583321876 ] } },
{ "type": "Feature", "properties": { "addr": "上海市 黄浦区 合肥路592弄  " }, "geometry": { "type": "Point", "coordinates": [ 121.47806654375195, 31.220031759048009 ] } },
{ "type": "Feature", "properties": { "addr": "上海市 黄浦区 河南南路1001弄  " }, "geometry": { "type": "Point", "coordinates": [ 121.499793589630144, 31.219506535756029 ] } },
{ "type": "Feature", "properties": { "addr": "上海市 黄浦区 河南南路368弄  " }, "geometry": { "type": "Point", "coordinates": [ 121.495119526400615, 31.22978456523602 ] } },
{ "type": "Feature", "properties": { "addr": "上海市 黄浦区 河南南路555弄  " }, "geometry": { "type": "Point", "coordinates": [ 121.49758088349796, 31.226237323571752 ] } },
{ "type": "Feature", "properties": { "addr": "上海市 黄浦区 河南南路582弄  " }, "geometry": { "type": "Point", "coordinates": [ 121.497028156117679, 31.226081535207985 ] } },
{ "type": "Feature", "properties": { "addr": "上海市 黄浦区 淮海中路606弄  " }, "geometry": { "type": "Point", "coordinates": [ 121.473667092516834, 31.226468072064126 ] } },
{ "type": "Feature", "properties": { "addr": "上海市 黄浦区 淮海中路613弄  " }, "geometry": { "type": "Point", "coordinates": [ 121.473823038353359, 31.225783544850167 ] } },
{ "type": "Feature", "properties": { "addr": "上海市 黄浦区 淮海中路697弄  " }, "geometry": { "type": "Point", "coordinates": [ 121.471974235783279, 31.224941446761353 ] } },
{ "type": "Feature", "properties": { "addr": "上海市 黄浦区 淮海中路796号  " }, "geometry": { "type": "Point", "coordinates": [ 121.469207364981997, 31.224978502942243 ] } },
{ "type": "Feature", "properties": { "addr": "上海市 黄浦区 淮海中路833弄  " }, "geometry": { "type": "Point", "coordinates": [ 121.468989885218036, 31.224196151207956 ] } },
{ "type": "Feature", "properties": { "addr": "上海市 黄浦区 淮海中路899弄  " }, "geometry": { "type": "Point", "coordinates": [ 121.466966002904044, 31.223149994515893 ] } },
{ "type": "Feature", "properties": { "addr": "上海市 黄浦区 淮海中路927弄  " }, "geometry": { "type": "Point", "coordinates": [ 121.467196957250678, 31.222619693369211 ] } },
{ "type": "Feature", "properties": { "addr": "上海市 黄浦区 黄陂南路506弄  " }, "geometry": { "type": "Point", "coordinates": [ 121.482329632210664, 31.223976205280724 ] } },
{ "type": "Feature", "properties": { "addr": "上海市 黄浦区 黄陂南路590号  " }, "geometry": { "type": "Point", "coordinates": [ 121.483066781712139, 31.221907576577372 ] } },
{ "type": "Feature", "properties": { "addr": "上海市 黄浦区 黄陂南路596弄  " }, "geometry": { "type": "Point", "coordinates": [ 121.482998420662838, 31.221857703494099 ] } },
{ "type": "Feature", "properties": { "addr": "上海市 黄浦区 黄陂南路751号  " }, "geometry": { "type": "Point", "coordinates": [ 121.484169092403434, 31.218816553244043 ] } },
{ "type": "Feature", "properties": { "addr": "上海市 黄浦区 黄河路110号  " }, "geometry": { "type": "Point", "coordinates": [ 121.477251331501648, 31.24079876192188 ] } },
{ "type": "Feature", "properties": { "addr": "上海市 黄浦区 黄河路125弄  " }, "geometry": { "type": "Point", "coordinates": [ 121.476317992076787, 31.241027544823773 ] } },
{ "type": "Feature", "properties": { "addr": "上海市 黄浦区 黄河路132弄  " }, "geometry": { "type": "Point", "coordinates": [ 121.477042924623319, 31.241237030431375 ] } },
{ "type": "Feature", "properties": { "addr": "上海市 黄浦区 黄河路215弄  " }, "geometry": { "type": "Point", "coordinates": [ 121.434456955311802, 31.253372886823801 ] } },
{ "type": "Feature", "properties": { "addr": "上海市 黄浦区 黄河路223弄  " }, "geometry": { "type": "Point", "coordinates": [ 121.476039876690876, 31.242534611188706 ] } },
{ "type": "Feature", "properties": { "addr": "上海市 黄浦区 黄河路253弄  " }, "geometry": { "type": "Point", "coordinates": [ 121.475294193287056, 31.242852770826993 ] } },
{ "type": "Feature", "properties": { "addr": "上海市 黄浦区 黄河路265号  " }, "geometry": { "type": "Point", "coordinates": [ 121.47578646470653, 31.243098375125292 ] } },
{ "type": "Feature", "properties": { "addr": "上海市 黄浦区 黄河路267号  " }, "geometry": { "type": "Point", "coordinates": [ 121.475769396901839, 31.243122688526402 ] } },
{ "type": "Feature", "properties": { "addr": "上海市 黄浦区 黄河路281弄  " }, "geometry": { "type": "Point", "coordinates": [ 121.475632764633772, 31.243446480678184 ] } },
{ "type": "Feature", "properties": { "addr": "上海市 黄浦区 黄家路55弄  " }, "geometry": { "type": "Point", "coordinates": [ 121.503348004872024, 31.22150874557353 ] } },
{ "type": "Feature", "properties": { "addr": "上海市 黄浦区 黄家路88弄  " }, "geometry": { "type": "Point", "coordinates": [ 121.503590637190257, 31.221234519321271 ] } },
{ "type": "Feature", "properties": { "addr": "上海市 黄浦区 黄家阙路114号  " }, "geometry": { "type": "Point", "coordinates": [ 121.494543443077063, 31.219944209169917 ] } },
{ "type": "Feature", "properties": { "addr": "上海市 黄浦区 黄家阙路68弄  " }, "geometry": { "type": "Point", "coordinates": [ 121.493950022457184, 31.220714861457605 ] } },
{ "type": "Feature", "properties": { "addr": "上海市 黄浦区 黄家阙路88弄  " }, "geometry": { "type": "Point", "coordinates": [ 121.49395819703733, 31.219937955604067 ] } },
{ "type": "Feature", "properties": { "addr": "上海市 黄浦区 徽宁路164号  " }, "geometry": { "type": "Point", "coordinates": [ 121.499877401534221, 31.217161176678207 ] } },
{ "type": "Feature", "properties": { "addr": "上海市 黄浦区 徽宁路501弄  " }, "geometry": { "type": "Point", "coordinates": [ 121.494252481922388, 31.215749285106345 ] } },
{ "type": "Feature", "properties": { "addr": "上海市 黄浦区 徽宁路6弄  " }, "geometry": { "type": "Point", "coordinates": [ 121.491585592524359, 31.23724715206362 ] } },
{ "type": "Feature", "properties": { "addr": "上海市 黄浦区 建国东路143弄  " }, "geometry": { "type": "Point", "coordinates": [ 121.48532709803635, 31.21823318708983 ] } },
{ "type": "Feature", "properties": { "addr": "上海市 黄浦区 建国东路31弄  " }, "geometry": { "type": "Point", "coordinates": [ 121.487159910768355, 31.219353129543443 ] } },
{ "type": "Feature", "properties": { "addr": "上海市 黄浦区 建国西路120弄  " }, "geometry": { "type": "Point", "coordinates": [ 121.471453488079149, 31.214046756593756 ] } },
{ "type": "Feature", "properties": { "addr": "上海市 黄浦区 建国西路56弄  " }, "geometry": { "type": "Point", "coordinates": [ 121.471644557661122, 31.215209059354372 ] } },
{ "type": "Feature", "properties": { "addr": "上海市 黄浦区 建国西路91弄  " }, "geometry": { "type": "Point", "coordinates": [ 121.478096367494885, 31.218166326734593 ] } },
{ "type": "Feature", "properties": { "addr": "上海市 黄浦区 建国新路77弄  " }, "geometry": { "type": "Point", "coordinates": [ 121.488309023176711, 31.219829019963946 ] } },
{ "type": "Feature", "properties": { "addr": "上海市 黄浦区 建国中路103弄  " }, "geometry": { "type": "Point", "coordinates": [ 121.475834883373523, 31.215426014761544 ] } },
{ "type": "Feature", "properties": { "addr": "上海市 黄浦区 建国中路109号  " }, "geometry": { "type": "Point", "coordinates": [ 121.475814402007884, 31.215568695481245 ] } },
{ "type": "Feature", "properties": { "addr": "上海市 黄浦区 建国中路137弄  " }, "geometry": { "type": "Point", "coordinates": [ 121.474957149059719, 31.214963536258708 ] } },
{ "type": "Feature", "properties": { "addr": "上海市 黄浦区 建国中路155弄  " }, "geometry": { "type": "Point", "coordinates": [ 121.474450414921535, 31.214790279950861 ] } },
{ "type": "Feature", "properties": { "addr": "上海市 黄浦区 建国中路167号  " }, "geometry": { "type": "Point", "coordinates": [ 121.473990302839326, 31.214806725416317 ] } },
{ "type": "Feature", "properties": { "addr": "上海市 黄浦区 建国中路169号  " }, "geometry": { "type": "Point", "coordinates": [ 121.47415280630608, 31.214511633104152 ] } },
{ "type": "Feature", "properties": { "addr": "上海市 黄浦区 建国中路18号  " }, "geometry": { "type": "Point", "coordinates": [ 121.476397222622765, 31.216079503028311 ] } },
{ "type": "Feature", "properties": { "addr": "上海市 黄浦区 建国中路1号  " }, "geometry": { "type": "Point", "coordinates": [ 121.477465397704677, 31.216027233399753 ] } },
{ "type": "Feature", "properties": { "addr": "上海市 黄浦区 建国中路26号  " }, "geometry": { "type": "Point", "coordinates": [ 121.474417986092632, 31.215156866448304 ] } },
{ "type": "Feature", "properties": { "addr": "上海市 黄浦区 江滨路99号  " }, "geometry": { "type": "Point", "coordinates": [ 121.479935019212704, 31.197853855228029 ] } },
{ "type": "Feature", "properties": { "addr": "上海市 黄浦区 江西南路29号  " }, "geometry": { "type": "Point", "coordinates": [ 121.495330179042696, 31.236761006673749 ] } },
{ "type": "Feature", "properties": { "addr": "上海市 黄浦区 江西中路105号  " }, "geometry": { "type": "Point", "coordinates": [ 121.494252841244588, 31.239174804044865 ] } },
{ "type": "Feature", "properties": { "addr": "上海市 黄浦区 江西中路128号  " }, "geometry": { "type": "Point", "coordinates": [ 121.494365129433334, 31.239559511477676 ] } },
{ "type": "Feature", "properties": { "addr": "上海市 黄浦区 江西中路130号  " }, "geometry": { "type": "Point", "coordinates": [ 121.494356056547687, 31.239589614921922 ] } },
{ "type": "Feature", "properties": { "addr": "上海市 黄浦区 江西中路135弄  " }, "geometry": { "type": "Point", "coordinates": [ 121.494035091988962, 31.239906240817817 ] } },
{ "type": "Feature", "properties": { "addr": "上海市 黄浦区 江西中路141号  " }, "geometry": { "type": "Point", "coordinates": [ 121.494076234381325, 31.239927776279842 ] } },
{ "type": "Feature", "properties": { "addr": "上海市 黄浦区 江西中路147号  " }, "geometry": { "type": "Point", "coordinates": [ 121.4939873919664, 31.240064476175899 ] } },
{ "type": "Feature", "properties": { "addr": "上海市 黄浦区 江西中路170号  " }, "geometry": { "type": "Point", "coordinates": [ 121.494544970196429, 31.240514866571189 ] } },
{ "type": "Feature", "properties": { "addr": "上海市 黄浦区 江西中路34弄  " }, "geometry": { "type": "Point", "coordinates": [ 121.494850663561479, 31.238477093249102 ] } },
{ "type": "Feature", "properties": { "addr": "上海市 黄浦区 江西中路38号  " }, "geometry": { "type": "Point", "coordinates": [ 121.494728404181586, 31.238386936191723 ] } },
{ "type": "Feature", "properties": { "addr": "上海市 黄浦区 江西中路42号  " }, "geometry": { "type": "Point", "coordinates": [ 121.494795417772622, 31.238426071157956 ] } },
{ "type": "Feature", "properties": { "addr": "上海市 黄浦区 江西中路451号  " }, "geometry": { "type": "Point", "coordinates": [ 121.491606253551097, 31.24738391965078 ] } },
{ "type": "Feature", "properties": { "addr": "上海市 黄浦区 江阴街401弄  " }, "geometry": { "type": "Point", "coordinates": [ 121.494666061779171, 31.21858223442759 ] } },
{ "type": "Feature", "properties": { "addr": "上海市 黄浦区 江阴路106弄  " }, "geometry": { "type": "Point", "coordinates": [ 121.475053177918724, 31.235742625011795 ] } },
{ "type": "Feature", "properties": { "addr": "上海市 黄浦区 江阴路126号  " }, "geometry": { "type": "Point", "coordinates": [ 121.474691430289866, 31.235627532443225 ] } },
{ "type": "Feature", "properties": { "addr": "上海市 黄浦区 江阴路130弄  " },