{
"type": "FeatureCollection",
"crs": { "type": "name", "properties": { "name": "urn:ogc:def:crs:OGC:1.3:CRS84" } },
"features": [
{ "type": "Feature", "properties": { "addr": "上海市 浦东新区 八灶村滕家宅  " }, "geometry": { "type": "Point", "coordinates": [ 121.718520021982542, 31.154318082751118 ] } },
{ "type": "Feature", "properties": { "addr": "上海市 浦东新区 八灶村张家宅  " }, "geometry": { "type": "Point", "coordinates": [ 121.725438052375992, 31.172091669652595 ] } },
{ "type": "Feature", "properties": { "addr": "上海市 浦东新区 白杨路1065弄  " }, "geometry": { "type": "Point", "coordinates": [ 121.565649983516536, 31.199409880283916 ] } },
{ "type": "Feature", "properties": { "addr": "上海市 浦东新区 百龙新村  " }, "geometry": { "type": "Point", "coordinates": [ 121.62288596823754, 31.147202837562336 ] } },
{ "type": "Feature", "properties": { "addr": "上海市 浦东新区 百曲村  " }, "geometry": { "type": "Point", "coordinates": [ 121.554663071129198, 31.117902747608948 ] } },
{ "type": "Feature", "properties": { "addr": "上海市 浦东新区 板泉路2101弄  " }, "geometry": { "type": "Point", "coordinates": [ 121.539604693221335, 31.168815850763366 ] } },
{ "type": "Feature", "properties": { "addr": "上海市 浦东新区 北艾路1200弄  " }, "geometry": { "type": "Point", "coordinates": [ 121.538886767457754, 31.188481867872763 ] } },
{ "type": "Feature", "properties": { "addr": "上海市 浦东新区 北艾路1500弄  " }, "geometry": { "type": "Point", "coordinates": [ 121.540195598585811, 31.188778664031886 ] } },
{ "type": "Feature", "properties": { "addr": "上海市 浦东新区 北艾路1660弄  " }, "geometry": { "type": "Point", "coordinates": [ 121.530288187116255, 31.187040813780268 ] } },
{ "type": "Feature", "properties": { "addr": "上海市 浦东新区 北艾路1765弄  " }, "geometry": { "type": "Point", "coordinates": [ 121.528398601476013, 31.184265453706548 ] } },
{ "type": "Feature", "properties": { "addr": "上海市 浦东新区 北艾路73弄  " }, "geometry": { "type": "Point", "coordinates": [ 121.550455145815263, 31.191186130381443 ] } },
{ "type": "Feature", "properties": { "addr": "上海市 浦东新区 北艾路862弄  " }, "geometry": { "type": "Point", "coordinates": [ 121.543408388242241, 31.190227723220929 ] } },
{ "type": "Feature", "properties": { "addr": "上海市 浦东新区 北蔡大街31弄  " }, "geometry": { "type": "Point", "coordinates": [ 121.56054356584508, 31.19367809757782 ] } },
{ "type": "Feature", "properties": { "addr": "上海市 浦东新区 北新园路350弄  " }, "geometry": { "type": "Point", "coordinates": [ 121.633354461328622, 31.32701601446308 ] } },
{ "type": "Feature", "properties": { "addr": "上海市 浦东新区 北新园路460弄  " }, "geometry": { "type": "Point", "coordinates": [ 121.634743151816494, 31.326191717177842 ] } },
{ "type": "Feature", "properties": { "addr": "上海市 浦东新区 北洋泾路609号  " }, "geometry": { "type": "Point", "coordinates": [ 121.557758010289191, 31.249171357565341 ] } },
{ "type": "Feature", "properties": { "addr": "上海市 浦东新区 北窑村  " }, "geometry": { "type": "Point", "coordinates": [ 121.860284938242557, 30.931306128826886 ] } },
{ "type": "Feature", "properties": { "addr": "上海市 浦东新区 北园路258弄  " }, "geometry": { "type": "Point", "coordinates": [ 121.530865977220273, 31.209652667790809 ] } },
{ "type": "Feature", "properties": { "addr": "上海市 浦东新区 北张家浜路112号  " }, "geometry": { "type": "Point", "coordinates": [ 121.529740220755173, 31.222597304697402 ] } },
{ "type": "Feature", "properties": { "addr": "上海市 浦东新区 北张家浜路28弄  " }, "geometry": { "type": "Point", "coordinates": [ 121.526166761436471, 31.221579772512371 ] } },
{ "type": "Feature", "properties": { "addr": "上海市 浦东新区 北张家浜路58号  " }, "geometry": { "type": "Point", "coordinates": [ 121.527623453651458, 31.222173076955738 ] } },
{ "type": "Feature", "properties": { "addr": "上海市 浦东新区 北中路354弄  " }, "geometry": { "type": "Point", "coordinates": [ 121.566413902522214, 31.190149799113598 ] } },
{ "type": "Feature", "properties": { "addr": "上海市 浦东新区 北中路383弄  " }, "geometry": { "type": "Point", "coordinates": [ 121.565356237614779, 31.190476323086649 ] } },
{ "type": "Feature", "properties": { "addr": "上海市 浦东新区 北中路408弄  " }, "geometry": { "type": "Point", "coordinates": [ 121.536884264814915, 31.189702255537771 ] } },
{ "type": "Feature", "properties": { "addr": "上海市 浦东新区 北中路480弄  " }, "geometry": { "type": "Point", "coordinates": [ 121.569617529462462, 31.190517717719096 ] } },
{ "type": "Feature", "properties": { "addr": "上海市 浦东新区 碧云路199弄  " }, "geometry": { "type": "Point", "coordinates": [ 121.579663100319436, 31.242832393822923 ] } },
{ "type": "Feature", "properties": { "addr": "上海市 浦东新区 滨海一村傅家宅  " }, "geometry": { "type": "Point", "coordinates": [ 121.769681754675631, 31.157447003551589 ] } },
{ "type": "Feature", "properties": { "addr": "上海市 浦东新区 滨海一村西王家宅  " }, "geometry": { "type": "Point", "coordinates": [ 121.793150255615458, 31.143344171689513 ] } },
{ "type": "Feature", "properties": { "addr": "上海市 浦东新区 滨江大道1773弄  " }, "geometry": { "type": "Point", "coordinates": [ 121.520309700948431, 31.250217785487866 ] } },
{ "type": "Feature", "properties": { "addr": "上海市 浦东新区 博华路1018弄  " }, "geometry": { "type": "Point", "coordinates": [ 121.557501993218835, 31.176850857976813 ] } },
{ "type": "Feature", "properties": { "addr": "上海市 浦东新区 博华路237弄  " }, "geometry": { "type": "Point", "coordinates": [ 121.551452264931342, 31.189134154004869 ] } },
{ "type": "Feature", "properties": { "addr": "上海市 浦东新区 博华路300弄  " }, "geometry": { "type": "Point", "coordinates": [ 121.555614024528509, 31.189005566108175 ] } },
{ "type": "Feature", "properties": { "addr": "上海市 浦东新区 博华路498弄  " }, "geometry": { "type": "Point", "coordinates": [ 121.555804016143867, 31.184793268876849 ] } },
{ "type": "Feature", "properties": { "addr": "上海市 浦东新区 博华路999弄  " }, "geometry": { "type": "Point", "coordinates": [ 121.557113925238525, 31.176806290465709 ] } },
{ "type": "Feature", "properties": { "addr": "上海市 浦东新区 博山东路20弄  " }, "geometry": { "type": "Point", "coordinates": [ 121.566038859971798, 31.253391023400393 ] } },
{ "type": "Feature", "properties": { "addr": "上海市 浦东新区 博山东路440弄  " }, "geometry": { "type": "Point", "coordinates": [ 121.575265715186987, 31.258583187628979 ] } },
{ "type": "Feature", "properties": { "addr": "上海市 浦东新区 博山东路459弄  " }, "geometry": { "type": "Point", "coordinates": [ 121.573680385622978, 31.259882148265088 ] } },
{ "type": "Feature", "properties": { "addr": "上海市 浦东新区 博山东路811弄  " }, "geometry": { "type": "Point", "coordinates": [ 121.579818147850474, 31.265442810713736 ] } },
{ "type": "Feature", "properties": { "addr": "上海市 浦东新区 博山路11弄  " }, "geometry": { "type": "Point", "coordinates": [ 121.564218982839137, 31.251892158534069 ] } },
{ "type": "Feature", "properties": { "addr": "上海市 浦东新区 博山路12弄  " }, "geometry": { "type": "Point", "coordinates": [ 121.563217821348275, 31.253252567913812 ] } },
{ "type": "Feature", "properties": { "addr": "上海市 浦东新区 博山路13弄  " }, "geometry": { "type": "Point", "coordinates": [ 121.56423874556036, 31.250936765313728 ] } },
{ "type": "Feature", "properties": { "addr": "上海市 浦东新区 博山路200弄  " }, "geometry": { "type": "Point", "coordinates": [ 121.558865980305185, 31.250307986372629 ] } },
{ "type": "Feature", "properties": { "addr": "上海市 浦东新区 博山路51弄  " }, "geometry": { "type": "Point", "coordinates": [ 121.563650984265195, 31.250794833134776 ] } },
{ "type": "Feature", "properties": { "addr": "上海市 浦东新区 博山路78弄  " }, "geometry": { "type": "Point", "coordinates": [ 121.562071314025886, 31.251466597237592 ] } },
{ "type": "Feature", "properties": { "addr": "上海市 浦东新区 博兴路1663弄  " }, "geometry": { "type": "Point", "coordinates": [ 121.607201015050023, 31.280776093952529 ] } },
{ "type": "Feature", "properties": { "addr": "上海市 浦东新区 博兴路1768弄  " }, "geometry": { "type": "Point", "coordinates": [ 121.58962611690005, 31.28158489894264 ] } },
{ "type": "Feature", "properties": { "addr": "上海市 浦东新区 博兴路462弄  " }, "geometry": { "type": "Point", "coordinates": [ 121.589409086288853, 31.27201836204534 ] } },
{ "type": "Feature", "properties": { "addr": "上海市 浦东新区 博兴路465弄  " }, "geometry": { "type": "Point", "coordinates": [ 121.58987225260978, 31.272066665151705 ] } },
{ "type": "Feature", "properties": { "addr": "上海市 浦东新区 博兴路616弄  " }, "geometry": { "type": "Point", "coordinates": [ 121.59050564782487, 31.26885013299071 ] } },
{ "type": "Feature", "properties": { "addr": "上海市 浦东新区 博兴路799弄  " }, "geometry": { "type": "Point", "coordinates": [ 121.59697731021042, 31.27188533546996 ] } },
{ "type": "Feature", "properties": { "addr": "上海市 浦东新区 博兴路916弄  " }, "geometry": { "type": "Point", "coordinates": [ 121.597995000522658, 31.270420178729555 ] } },
{ "type": "Feature", "properties": { "addr": "上海市 浦东新区 博兴路986弄  " }, "geometry": { "type": "Point", "coordinates": [ 121.597262971362582, 31.27067103482398 ] } },
{ "type": "Feature", "properties": { "addr": "上海市 浦东新区 蔡路村包家宅  " }, "geometry": { "type": "Point", "coordinates": [ 121.764207480897824, 31.205888844405063 ] } },
{ "type": "Feature", "properties": { "addr": "上海市 浦东新区 蔡路村北丁家宅  " }, "geometry": { "type": "Point", "coordinates": [ 121.726683193643368, 31.222466060651534 ] } },
{ "type": "Feature", "properties": { "addr": "上海市 浦东新区 蔡路村东蔡家宅  " }, "geometry": { "type": "Point", "coordinates": [ 121.751834430791277, 31.230186868212748 ] } },
{ "type": "Feature", "properties": { "addr": "上海市 浦东新区 蔡路村西蔡家宅  " }, "geometry": { "type": "Point", "coordinates": [ 121.737464297051915, 31.219746024972316 ] } },
{ "type": "Feature", "properties": { "addr": "上海市 浦东新区 蔡路村西家宅  " }, "geometry": { "type": "Point", "coordinates": [ 121.737464297051915, 31.219746024972316 ] } },
{ "type": "Feature", "properties": { "addr": "上海市 浦东新区 蔡路村杨家宅  " }, "geometry": { "type": "Point", "coordinates": [ 121.74440496474422, 31.209984837533348 ] } },
{ "type": "Feature", "properties": { "addr": "上海市 浦东新区 蔡路村赵家宅  " }, "geometry": { "type": "Point", "coordinates": [ 121.737464297051915, 31.219746024972316 ] } },
{ "type": "Feature", "properties": { "addr": "上海市 浦东新区 柴场村  " }, "geometry": { "type": "Point", "coordinates": [ 121.732663662576044, 31.186753897798436 ] } },
{ "type": "Feature", "properties": { "addr": "上海市 浦东新区 长浜村  " }, "geometry": { "type": "Point", "coordinates": [ 121.568301062737575, 31.047479279855114 ] } },
{ "type": "Feature", "properties": { "addr": "上海市 浦东新区 长岛路1201弄  " }, "geometry": { "type": "Point", "coordinates": [ 121.596729737211859, 31.2693476089323 ] } },
{ "type": "Feature", "properties": { "addr": "上海市 浦东新区 长岛路1203弄  " }, "geometry": { "type": "Point", "coordinates": [ 121.600997586689758, 31.270094010785566 ] } },
{ "type": "Feature", "properties": { "addr": "上海市 浦东新区 长岛路1267弄  " }, "geometry": { "type": "Point", "coordinates": [ 121.60152282592145, 31.268319782291993 ] } },
{ "type": "Feature", "properties": { "addr": "上海市 浦东新区 长岛路1398弄  " }, "geometry": { "type": "Point", "coordinates": [ 121.605978421250938, 31.269798784217294 ] } },
{ "type": "Feature", "properties": { "addr": "上海市 浦东新区 长岛路259弄  " }, "geometry": { "type": "Point", "coordinates": [ 121.583252369815099, 31.273179327236935 ] } },
{ "type": "Feature", "properties": { "addr": "上海市 浦东新区 长岛路588弄  " }, "geometry": { "type": "Point", "coordinates": [ 121.58873194359542, 31.266885513110953 ] } },
{ "type": "Feature", "properties": { "addr": "上海市 浦东新区 长岛路728弄  " }, "geometry": { "type": "Point", "coordinates": [ 121.58962611690005, 31.28158489894264 ] } },
{ "type": "Feature", "properties": { "addr": "上海市 浦东新区 长岛路823弄  " }, "geometry": { "type": "Point", "coordinates": [ 121.593831983297775, 31.268428892953793 ] } },
{ "type": "Feature", "properties": { "addr": "上海市 浦东新区 长岛路85弄  " }, "geometry": { "type": "Point", "coordinates": [ 121.584693431514211, 31.274539040952714 ] } },
{ "type": "Feature", "properties": { "addr": "上海市 浦东新区 长岛路99号  " }, "geometry": { "type": "Point", "coordinates": [ 121.583231618957825, 31.273668138186082 ] } },
{ "type": "Feature", "properties": { "addr": "上海市 浦东新区 长丰村北张家宅  " }, "geometry": { "type": "Point", "coordinates": [ 121.713216246590534, 31.145940096183317 ] } },
{ "type": "Feature", "properties": { "addr": "上海市 浦东新区 长丰村陆家宅  " }, "geometry": { "type": "Point", "coordinates": [ 121.666225615871937, 31.197467509120983 ] } },
{ "type": "Feature", "properties": { "addr": "上海市 浦东新区 长丰村南张家宅  " }, "geometry": { "type": "Point", "coordinates": [ 121.683731703819831, 31.189947613169206 ] } },
{ "type": "Feature", "properties": { "addr": "上海市 浦东新区 长路村  " }, "geometry": { "type": "Point", "coordinates": [ 121.785972255607419, 31.078967774136117 ] } },
{ "type": "Feature", "properties": { "addr": "上海市 浦东新区 长桥村吴家宅  " }, "geometry": { "type": "Point", "coordinates": [ 121.742139617909146, 31.153104574205411 ] } },
{ "type": "Feature", "properties": { "addr": "上海市 浦东新区 长清路595弄  " }, "geometry": { "type": "Point", "coordinates": [ 121.498337885551209, 31.165653164939044 ] } },
{ "type": "Feature", "properties": { "addr": "上海市 浦东新区 长清路693弄  " }, "geometry": { "type": "Point", "coordinates": [ 121.536884264814915, 31.189702255537771 ] } },
{ "type": "Feature", "properties": { "addr": "上海市 浦东新区 长清路773弄  " }, "geometry": { "type": "Point", "coordinates": [ 121.49801207014275, 31.161973865099831 ] } },
{ "type": "Feature", "properties": { "addr": "上海市 浦东新区 长元村曹家宅  " }, "geometry": { "type": "Point", "coordinates": [ 121.657988244175982, 31.17533578243895 ] } },
{ "type": "Feature", "properties": { "addr": "上海市 浦东新区 昌里东路320弄  " }, "geometry": { "type": "Point", "coordinates": [ 121.517463438672507, 31.182139411291217 ] } },
{ "type": "Feature", "properties": { "addr": "上海市 浦东新区 昌里东路395弄  " }, "geometry": { "type": "Point", "coordinates": [ 121.518966483451806, 31.183302341690439 ] } },
{ "type": "Feature", "properties": { "addr": "上海市 浦东新区 昌里东路411弄  " }, "geometry": { "type": "Point", "coordinates": [ 121.519301551407025, 31.185511228668684 ] } },
{ "type": "Feature", "properties": { "addr": "上海市 浦东新区 昌里东路550弄  " }, "geometry": { "type": "Point", "coordinates": [ 121.521399004942268, 31.183535899194091 ] } },
{ "type": "Feature", "properties": { "addr": "上海市 浦东新区 昌里东路650弄  " }, "geometry": { "type": "Point", "coordinates": [ 121.521399004942268, 31.183535899194091 ] } },
{ "type": "Feature", "properties": { "addr": "上海市 浦东新区 昌里东路675弄  " }, "geometry": { "type": "Point", "coordinates": [ 121.524150963872088, 31.186762393304466 ] } },
{ "type": "Feature", "properties": { "addr": "上海市 浦东新区 昌里东路80弄  " }, "geometry": { "type": "Point", "coordinates": [ 121.512747873728429, 31.180374404948385 ] } },
{ "type": "Feature", "properties": { "addr": "上海市 浦东新区 昌里路167弄  " }, "geometry": { "type": "Point", "coordinates": [ 121.504545446116822, 31.181091626219736 ] } },
{ "type": "Feature", "properties": { "addr": "上海市 浦东新区 昌里路340弄  " }, "geometry": { "type": "Point", "coordinates": [ 121.500968393576088, 31.178239082858738 ] } },
{ "type": "Feature", "properties": { "addr": "上海市 浦东新区 昌里路98弄  " }, "geometry": { "type": "Point", "coordinates": [ 121.509564638323255, 31.180671999148611 ] } },
{ "type": "Feature", "properties": { "addr": "上海市 浦东新区 昌邑路607弄  " }, "geometry": { "type": "Point", "coordinates": [ 121.58962611690005, 31.28158489894264 ] } },
{ "type": "Feature", "properties": { "addr": "上海市 浦东新区 朝阳村胡家宅  " }, "geometry": { "type": "Point", "coordinates": [ 121.737822720950405, 31.256825718864068 ] } },
{ "type": "Feature", "properties": { "addr": "上海市 浦东新区 车站村  " }, "geometry": { "type": "Point", "coordinates": [ 121.76588668338762, 30.977901100303054 ] } },
{ "type": "Feature", "properties": { "addr": "上海市 浦东新区 陈春东路88弄  " }, "geometry": { "type": "Point", "coordinates": [ 121.565995831137883, 31.181447145347832 ] } },
{ "type": "Feature", "properties": { "addr": "上海市 浦东新区 陈春东路99弄  " }, "geometry": { "type": "Point", "coordinates": [ 121.565897017531782, 31.181856496573577 ] } },
{ "type": "Feature", "properties": { "addr": "上海市 浦东新区 陈春路620弄  " }, "geometry": { "type": "Point", "coordinates": [ 121.552907609688049, 31.178078194108803 ] } },
{ "type": "Feature", "properties": { "addr": "上海市 浦东新区 陈胡村胡家宅  " }, "geometry": { "type": "Point", "coordinates": [ 121.775553708302709, 31.200086337706974 ] } },
{ "type": "Feature", "properties": { "addr": "上海市 浦东新区 陈桥村  " }, "geometry": { "type": "Point", "coordinates": [ 121.562680275331104, 31.180177836239409 ] } },
{ "type": "Feature", "properties": { "addr": "上海市 浦东新区 陈行村张家宅  " }, "geometry": { "type": "Point", "coordinates": [ 121.725438052375992, 31.172091669652595 ] } },
{ "type": "Feature", "properties": { "addr": "上海市 浦东新区 晨晖路377弄  " }, "geometry": { "type": "Point", "coordinates": [ 121.616949875597058, 31.212694270152028 ] } },
{ "type": "Feature", "properties": { "addr": "上海市 浦东新区 晨晖路825弄  " }, "geometry": { "type": "Point", "coordinates": [ 121.602138614348533, 31.244250205910852 ] } },
{ "type": "Feature", "properties": { "addr": "上海市 浦东新区 成山路1066弄  " }, "geometry": { "type": "Point", "coordinates": [ 121.527222719563454, 31.179217231083737 ] } },
{ "type": "Feature", "properties": { "addr": "上海市 浦东新区 成山路1488弄  " }, "geometry": { "type": "Point", "coordinates": [ 121.533431537756769, 31.181979842243411 ] } },
{ "type": "Feature", "properties": { "addr": "上海市 浦东新区 成山路226弄  " }, "geometry": { "type": "Point", "coordinates": [ 121.503720083014244, 31.176390428994402 ] } },
{ "type": "Feature", "properties": { "addr": "上海市 浦东新区 成山路2388弄  " }, "geometry": { "type": "Point", "coordinates": [ 121.55237302807906, 31.185659824651268 ] } },
{ "type": "Feature", "properties": { "addr": "上海市 浦东新区 成山路2399弄  " }, "geometry": { "type": "Point", "coordinates": [ 121.550359476278445, 31.187413841859218 ] } },
{ "type": "Feature", "properties": { "addr": "上海市 浦东新区 成山路24弄  " }, "geometry": { "type": "Point", "coordinates": [ 121.492308997951554, 31.174146877064409 ] } },
{ "type": "Feature", "properties": { "addr": "上海市 浦东新区 成山路544弄  " }, "geometry": { "type": "Point", "coordinates": [ 121.514758730612513, 31.174425412250987 ] } },
{ "type": "Feature", "properties": { "addr": "上海市 浦东新区 成山路601弄  " }, "geometry": { "type": "Point", "coordinates": [ 121.515312086806659, 31.180125469338968 ] } },
{ "type": "Feature", "properties": { "addr": "上海市 浦东新区 成山路608弄  " }, "geometry": { "type": "Point", "coordinates": [ 121.515115986713823, 31.177611823719104 ] } },
{ "type": "Feature", "properties": { "addr": "上海市 浦东新区 成山路648弄  " }, "geometry": { "type": "Point", "coordinates": [ 121.515115986713823, 31.177611823719104 ] } },
{ "type": "Feature", "properties": { "addr": "上海市 浦东新区 成山路668弄  " }, "geometry": { "type": "Point", "coordinates": [ 121.519473037928876, 31.175870831284065 ] } },
{ "type": "Feature", "properties": { "addr": "上海市 浦东新区 成一村  " }, "geometry": { "type": "Point", "coordinates": [ 121.838843912838755, 31.069752336372705 ] } },
{ "type": "Feature", "properties": { "addr": "上海市 浦东新区 城丰路130弄  " }, "geometry": { "type": "Point", "coordinates": [ 121.694570298781017, 31.197132514944595 ] } },
{ "type": "Feature", "properties": { "addr": "上海市 浦东新区 城丰路212弄  " }, "geometry": { "type": "Point", "coordinates": [ 121.693195891350754, 31.196568782990489 ] } },
{ "type": "Feature", "properties": { "addr": "上海市 浦东新区 城丰路245号  " }, "geometry": { "type": "Point", "coordinates": [ 121.693058989591037, 31.195732986208398 ] } },
{ "type": "Feature", "properties": { "addr": "上海市 浦东新区 城丰路288弄  " }, "geometry": { "type": "Point", "coordinates": [ 121.691273517559409, 31.196028214917238 ] } },
{ "type": "Feature", "properties": { "addr": "上海市 浦东新区 城丰路70弄  " }, "geometry": { "type": "Point", "coordinates": [ 121.695835112939079, 31.197620178960314 ] } },
{ "type": "Feature", "properties": { "addr": "上海市 浦东新区 城南村  " }, "geometry": { "type": "Point", "coordinates": [ 121.705982641471437, 31.19406291479385 ] } },
{ "type": "Feature", "properties": { "addr": "上海市 浦东新区 城南路1111弄  " }, "geometry": { "type": "Point", "coordinates": [ 121.639786957593927, 30.909245403394209 ] } },
{ "type": "Feature", "properties": { "addr": "上海市 浦东新区 城南路229弄  " }, "geometry": { "type": "Point", "coordinates": [ 121.712862853202907, 31.197509518449081 ] } },
{ "type": "Feature", "properties": { "addr": "上海市 浦东新区 城南路41弄  " }, "geometry": { "type": "Point", "coordinates": [ 121.711334062987703, 31.198713079628778 ] } },
{ "type": "Feature", "properties": { "addr": "上海市 浦东新区 城南路48弄  " }, "geometry": { "type": "Point", "coordinates": [ 121.711583935648349, 31.19890091235186 ] } },
{ "type": "Feature", "properties": { "addr": "上海市 浦东新区 城南路627弄  " }, "geometry": { "type": "Point", "coordinates": [ 121.701626219070249, 31.19559058416537 ] } },
{ "type": "Feature", "properties": { "addr": "上海市 浦东新区 池月路588弄  " }, "geometry": { "type": "Point", "coordinates": [ 121.817608958718935, 30.912303847980453 ] } },
{ "type": "Feature", "properties": { "addr": "上海市 浦东新区 储店村桂家宅  " }, "geometry": { "type": "Point", "coordinates": [ 121.768268809938988, 31.1213499941544 ] } },
{ "type": "Feature", "properties": { "addr": "上海市 浦东新区 储店村陆家宅  " }, "geometry": { "type": "Point", "coordinates": [ 121.74377839665101, 31.149597541341144 ] } },
{ "type": "Feature", "properties": { "addr": "上海市 浦东新区 川环南路1049弄  " }, "geometry": { "type": "Point", "coordinates": [ 121.700530016856419, 31.190089097038609 ] } },
{ "type": "Feature", "properties": { "addr": "上海市 浦东新区 川环南路1223弄  " }, "geometry": { "type": "Point", "coordinates": [ 121.694842215858884, 31.191976480692698 ] } },
{ "type": "Feature", "properties": { "addr": "上海市 浦东新区 川六公路1269弄  " }, "geometry": { "type": "Point", "coordinates": [ 121.724713209659981, 31.161252866722013 ] } },
{ "type": "Feature", "properties": { "addr": "上海市 浦东新区 川沙路1258号  " }, "geometry": { "type": "Point", "coordinates": [ 121.684650311034332, 31.267619048052797 ] } },
{ "type": "Feature", "properties": { "addr": "上海市 浦东新区 川沙路2015弄  " }, "geometry": { "type": "Point", "coordinates": [ 121.652778790862527, 31.290487771739045 ] } },
{ "type": "Feature", "properties": { "addr": "上海市 浦东新区 川沙路326弄  " }, "geometry": { "type": "Point", "coordinates": [ 121.672769322359372, 31.286348319613808 ] } },
{ "type": "Feature", "properties": { "addr": "上海市 浦东新区 川沙路4650弄  " }, "geometry": { "type": "Point", "coordinates": [ 121.703112735028157, 31.204157874991878 ] } },
{ "type": "Feature", "properties": { "addr": "上海市 浦东新区 川沙路5015弄  " }, "geometry": { "type": "Point", "coordinates": [ 121.652778790862527, 31.290487771739045 ] } },
{ "type": "Feature", "properties": { "addr": "上海市 浦东新区 川沙新镇果园村  " }, "geometry": { "type": "Point", "coordinates": [ 121.707774401641643, 31.20232857380201 ] } },
{ "type": "Feature", "properties": { "addr": "上海市 浦东新区 川沙新镇太平村顾家宅  " }, "geometry": { "type": "Point", "coordinates": [ 121.766819034676416, 31.224990700598582 ] } },
{ "type": "Feature", "properties": { "addr": "上海市 浦东新区 川银路150弄  " }, "geometry": { "type": "Point", "coordinates": [ 121.694309161369276, 31.198977979741798 ] } },
{ "type": "Feature", "properties": { "addr": "上海市 浦东新区 川银路81弄  " }, "geometry": { "type": "Point", "coordinates": [ 121.692620975824369, 31.198646079849539 ] } },
{ "type": "Feature", "properties": { "addr": "上海市 浦东新区 川周公路2788号  " }, "geometry": { "type": "Point", "coordinates": [ 121.630962183924993, 31.149872904407559 ] } },
{ "type": "Feature", "properties": { "addr": "上海市 浦东新区 川周公路2828弄  " }, "geometry": { "type": "Point", "coordinates": [ 121.624521962232308, 31.149124848312649 ] } },
{ "type": "Feature", "properties": { "addr": "上海市 浦东新区 川周公路2928弄  " }, "geometry": { "type": "Point", "coordinates": [ 121.620997999547228, 31.147934683568153 ] } },
{ "type": "Feature", "properties": { "addr": "上海市 浦东新区 川周公路3010弄  " }, "geometry": { "type": "Point", "coordinates": [ 121.61762315557678, 31.147196115555047 ] } },
{ "type": "Feature", "properties": { "addr": "上海市 浦东新区 川周公路4005弄  " }, "geometry": { "type": "Point", "coordinates": [ 121.596689223633362, 31.13136406677863 ] } },
{ "type": "Feature", "properties": { "addr": "上海市 浦东新区 川周公路4020弄  " }, "geometry": { "type": "Point", "coordinates": [ 121.593799105316108, 31.132952182895288 ] } },
{ "type": "Feature", "properties": { "addr": "上海市 浦东新区 川周公路4058弄  " }, "geometry": { "type": "Point", "coordinates": [ 121.59137826179726, 31.132164580808443 ] } },
{ "type": "Feature", "properties": { "addr": "上海市 浦东新区 川周公路4318弄  " }, "geometry": { "type": "Point", "coordinates": [ 121.587429400605956, 31.126894771815071 ] } },
{ "type": "Feature", "properties": { "addr": "上海市 浦东新区 川周公路凌空路交界口工地生活区  " }, "geometry": { "type": "Point", "coordinates": [ 121.590814215767551, 31.129858766635852 ] } },
{ "type": "Feature", "properties": { "addr": "上海市 浦东新区 川周路8288弄  " }, "geometry": { "type": "Point", "coordinates": [ 121.715516642677414, 31.183847890376406 ] } },
{ "type": "Feature", "properties": { "addr": "上海市 浦东新区 川周路8682弄  " }, "geometry": { "type": "Point", "coordinates": [ 121.714481240409683, 31.18912604486345 ] } },
{ "type": "Feature", "properties": { "addr": "上海市 浦东新区 创新路21弄  " }, "geometry": { "type": "Point", "coordinates": [ 121.694740976827916, 31.224789979469399 ] } },
{ "type": "Feature", "properties": { "addr": "上海市 浦东新区 创新西路199弄  " }, "geometry": { "type": "Point", "coordinates": [ 121.660810450596685, 31.207582255485885 ] } },
{ "type": "Feature", "properties": { "addr": "上海市 浦东新区 创新西路28弄  " }, "geometry": { "type": "Point", "coordinates": [ 121.664299379366895, 31.210286275536046 ] } },
{ "type": "Feature", "properties": { "addr": "上海市 浦东新区 创新西路300弄  " }, "geometry": { "type": "Point", "coordinates": [ 121.659610224604805, 31.209471139848752 ] } },
{ "type": "Feature", "properties": { "addr": "上海市 浦东新区 创新西路333弄  " }, "geometry": { "type": "Point", "coordinates": [ 121.658090112020815, 31.20731771752115 ] } },
{ "type": "Feature", "properties": { "addr": "上海市 浦东新区 创新西路75弄  " }, "geometry": { "type": "Point", "coordinates": [ 121.663731470623475, 31.209726792242737 ] } },
{ "type": "Feature", "properties": { "addr": "上海市 浦东新区 创新中路199弄  " }, "geometry": { "type": "Point", "coordinates": [ 121.668695686532715, 31.214145121289572 ] } },
{ "type": "Feature", "properties": { "addr": "上海市 浦东新区 创新中路399弄  " }, "geometry": { "type": "Point", "coordinates": [ 121.673244705635241, 31.215325489578447 ] } },
{ "type": "Feature", "properties": { "addr": "上海市 浦东新区 创业路798号  " }, "geometry": { "type": "Point", "coordinates": [ 121.703206428292859, 31.221349089170769 ] } },
{ "type": "Feature", "properties": { "addr": "上海市 浦东新区 春晖路276弄  " }, "geometry": { "type": "Point", "coordinates": [ 121.591825168788475, 31.346406528578299 ] } },
{ "type": "Feature", "properties": { "addr": "上海市 浦东新区 春晖路368弄  " }, "geometry": { "type": "Point", "coordinates": [ 121.590196181576687, 31.344520565880408 ] } },
{ "type": "Feature", "properties": { "addr": "上海市 浦东新区 春晖路446弄  " }, "geometry": { "type": "Point", "coordinates": [ 121.586944944444426, 31.34463914803764 ] } },
{ "type": "Feature", "properties": { "addr": "上海市 浦东新区 春雷村西张家宅  " }, "geometry": { "type": "Point", "coordinates": [ 121.691947606014082, 31.236233793114234 ] } },
{ "type": "Feature", "properties": { "addr": "上海市 浦东新区 达秀路151号  " }, "geometry": { "type": "Point", "coordinates": [ 121.660133757056016, 31.243292573416156 ] } },
{ "type": "Feature", "properties": { "addr": "上海市 浦东新区 大沟村西王家宅  " }, "geometry": { "type": "Point", "coordinates": [ 121.793150255615458, 31.143344171689513 ] } },
{ "type": "Feature", "properties": { "addr": "上海市 浦东新区 大洪村南陈家宅  " }, "geometry": { "type": "Point", "coordinates": [ 121.789452650475269, 30.926398914568995 ] } },
{ "type": "Feature", "properties": { "addr": "上海市 浦东新区 大同路1010弄  " }, "geometry": { "type": "Point", "coordinates": [ 121.578601123545553, 31.341412626376524 ] } },
{ "type": "Feature", "properties": { "addr": "上海市 浦东新区 大同路922弄  " }, "geometry": { "type": "Point", "coordinates": [ 121.579332973044515, 31.3423643180898 ] } },
{ "type": "Feature", "properties": { "addr": "上海市 浦东新区 大星村老顾家宅  " }, "geometry": { "type": "Point", "coordinates": [ 121.659911336611756, 31.303725750231376 ] } },
{ "type": "Feature", "properties": { "addr": "上海市 浦东新区 大星村凌家宅  " }, "geometry": { "type": "Point", "coordinates": [ 121.728211211315838, 31.227971358702003 ] } },
{ "type": "Feature", "properties": { "addr": "上海市 浦东新区 大星村尹家宅  " }, "geometry": { "type": "Point", "coordinates": [ 121.728318558824284, 31.227287614469063 ] } },
{ "type": "Feature", "properties": { "addr": "上海市 浦东新区 大众村包家宅  " }, "geometry": { "type": "Point", "coordinates": [ 121.764207480897824, 31.205888844405063 ] } },
{ "type": "Feature", "properties": { "addr": "上海市 浦东新区 大众村立新新村  " }, "geometry": { "type": "Point", "coordinates": [ 121.64686380840152, 31.23032447527692 ] } },
{ "type": "Feature", "properties": { "addr": "上海市 浦东新区 大众村沈家宅  " }, "geometry": { "type": "Point", "coordinates": [ 121.60951972123236, 31.206682082088673 ] } },
{ "type": "Feature", "properties": { "addr": "上海市 浦东新区 大众村王家宅  " }, "geometry": { "type": "Point", "coordinates": [ 121.532353481314246, 31.222659143739939 ] } },
{ "type": "Feature", "properties": { "addr": "上海市 浦东新区 大众村西沟圈  " }, "geometry": { "type": "Point", "coordinates": [ 121.657946293308669, 31.234817171771624 ] } },
{ "type": "Feature", "properties": { "addr": "上海市 浦东新区 大众村小包队严家宅  " }, "geometry": { "type": "Point", "coordinates": [ 121.60951972123236, 31.206682082088673 ] } },
{ "type": "Feature", "properties": { "addr": "上海市 浦东新区 大众村小竹园  " }, "geometry": { "type": "Point", "coordinates": [ 121.648762466927423, 31.229521865529236 ] } },
{ "type": "Feature", "properties": { "addr": "上海市 浦东新区 大众村中心新村曹家宅  " }, "geometry": { "type": "Point", "coordinates": [ 121.654636127334953, 31.23453194599384 ] } },
{ "type": "Feature", "properties": { "addr": "上海市 浦东新区 大众村朱家宅  " }, "geometry": { "type": "Point", "coordinates": [ 121.60951972123236, 31.206682082088673 ] } },
{ "type": "Feature", "properties": { "addr": "上海市 浦东新区 道新村南金家宅  " }, "geometry": { "type": "Point", "coordinates": [ 121.76663290577477, 31.165019718880142 ] } },
{ "type": "Feature", "properties": { "addr": "上海市 浦东新区 德爱路380弄  " }, "geometry": { "type": "Point", "coordinates": [ 121.58962611690005, 31.28158489894264 ] } },
{ "type": "Feature", "properties": { "addr": "上海市 浦东新区 德恒路济阳路交界口工地生活区  " }, "geometry": { "type": "Point", "coordinates": [ 121.496724618685846, 31.145428288195056 ] } },
{ "type": "Feature", "properties": { "addr": "上海市 浦东新区 德平路100弄  " }, "geometry": { "type": "Point", "coordinates": [ 121.568682662918221, 31.253939981179144 ] } },
{ "type": "Feature", "properties": { "addr": "上海市 浦东新区 德平路1065弄  " }, "geometry": { "type": "Point", "coordinates": [ 121.574234190969889, 31.249263047832805 ] } },
{ "type": "Feature", "properties": { "addr": "上海市 浦东新区 德平路1125弄  " }, "geometry": { "type": "Point", "coordinates": [ 121.575094947309552, 31.249053580204333 ] } },
{ "type": "Feature", "properties": { "addr": "上海市 浦东新区 德平路1134弄  " }, "geometry": { "type": "Point", "coordinates": [ 121.576286010585221, 31.245640905164709 ] } },
{ "type": "Feature", "properties": { "addr": "上海市 浦东新区 德平路12弄  " }, "geometry": { "type": "Point", "coordinates": [ 121.58962611690005, 31.28158489894264 ] } },
{ "type": "Feature", "properties": { "addr": "上海市 浦东新区 德平路155弄  " }, "geometry": { "type": "Point", "coordinates": [ 121.567954047319077, 31.256601836594431 ] } },
{ "type": "Feature", "properties": { "addr": "上海市 浦东新区 德州路20弄  " }, "geometry": { "type": "Point", "coordinates": [ 121.536884264814915, 31.189702255537771 ] } },
{ "type": "Feature", "properties": { "addr": "上海市 浦东新区 德州路220弄  " }, "geometry": { "type": "Point", "coordinates": [ 121.536884264814915, 31.189702255537771 ] } },
{ "type": "Feature", "properties": { "addr": "上海市 浦东新区 德州路223弄  " }, "geometry": { "type": "Point", "coordinates": [ 121.536884264814915, 31.189702255537771 ] } },
{ "type": "Feature", "properties": { "addr": "上海市 浦东新区 德州路254号  " }, "geometry": { "type": "Point", "coordinates": [ 121.49909228251849, 31.172918021851245 ] } },
{ "type": "Feature", "properties": { "addr": "上海市 浦东新区 德州路255弄  " }, "geometry": { "type": "Point", "coordinates": [ 121.497632266573135, 31.176228764666757 ] } },
{ "type": "Feature", "properties": { "addr": "上海市 浦东新区 德州路262号  " }, "geometry": { "type": "Point", "coordinates": [ 121.499297545327522, 31.173466524744164 ] } },
{ "type": "Feature", "properties": { "addr": "上海市 浦东新区 德州路300弄  " }, "geometry": { "type": "Point", "coordinates": [ 121.536884264814915, 31.189702255537771 ] } },
{ "type": "Feature", "properties": { "addr": "上海市 浦东新区 德州路380弄  " }, "geometry": { "type": "Point", "coordinates": [ 121.493341150982502, 31.171454327607343 ] } },
{ "type": "Feature", "properties": { "addr": "上海市 浦东新区 德州路420弄  " }, "geometry": { "type": "Point", "coordinates": [ 121.490352488550826, 31.172388749436156 ] } },
{ "type": "Feature", "properties": { "addr": "上海市 浦东新区 德州路465弄  " }, "geometry": { "type": "Point", "coordinates": [ 121.536884264814915, 31.189702255537771 ] } },
{ "type": "Feature", "properties": { "addr": "上海市 浦东新区 邓一村邬家宅  " }, "geometry": { "type": "Point", "coordinates": [ 121.756384587364181, 31.142501487193847 ] } },
{ "type": "Feature", "properties": { "addr": "上海市 浦东新区 叠桥村  " }, "geometry": { "type": "Point", "coordinates": [ 121.622828746176552, 31.13384997321586 ] } },
{ "type": "Feature", "properties": { "addr": "上海市 浦东新区 丁香路1089弄  " }, "geometry": { "type": "Point", "coordinates": [ 121.562914194085891, 31.234723305955367 ] } },
{ "type": "Feature", "properties": { "addr": "上海市 浦东新区 丁香路1399弄  " }, "geometry": { "type": "Point", "coordinates": [ 121.570496790895632, 31.236774283462957 ] } },
{ "type": "Feature", "properties": { "addr": "上海市 浦东新区 丁香路1599弄  " }, "geometry": { "type": "Point", "coordinates": [ 121.572306876498232, 31.233862298835515 ] } },
{ "type": "Feature", "properties": { "addr": "上海市 浦东新区 丁香路901弄  " }, "geometry": { "type": "Point", "coordinates": [ 121.557128298126671, 31.233140000844234 ] } },
{ "type": "Feature", "properties": { "addr": "上海市 浦东新区 丁香路910弄  " }, "geometry": { "type": "Point", "coordinates": [ 121.560392021705539, 31.231240477950827 ] } },
{ "type": "Feature", "properties": { "addr": "上海市 浦东新区 东滨村东杨家宅  " }, "geometry": { "type": "Point", "coordinates": [ 121.575697620476191, 31.073519146053389 ] } },
{ "type": "Feature", "properties": { "addr": "上海市 浦东新区 东波路195弄  " }, "geometry": { "type": "Point", "coordinates": [ 121.586241571230104, 31.290794581956991 ] } },
{ "type": "Feature", "properties": { "addr": "上海市 浦东新区 东波路248弄  " }, "geometry": { "type": "Point", "coordinates": [ 121.586881434244873, 31.290047805515254 ] } },
{ "type": "Feature", "properties": { "addr": "上海市 浦东新区 东波路585弄  " }, "geometry": { "type": "Point", "coordinates": [ 121.592860016735969, 31.289979530718124 ] } },
{ "type": "Feature", "properties": { "addr": "上海市 浦东新区 东昌路490弄  " }, "geometry": { "type": "Point", "coordinates": [ 121.519723575335604, 31.237522334861659 ] } },
{ "type": "Feature", "properties": { "addr": "上海市 浦东新区 东大公路崇实路交界口工地生活区  " }, "geometry": { "type": "Point", "coordinates": [ 121.85209733267186, 30.985782379053468 ] } },
{ "type": "Feature", "properties": { "addr": "上海市 浦东新区 东方路1523弄  " }, "geometry": { "type": "Point", "coordinates": [ 121.533498012364518, 31.214799622210936 ] } },
{ "type": "Feature", "properties": { "addr": "上海市 浦东新区 东方路1600弄  " }, "geometry": { "type": "Point", "coordinates": [ 121.532426513552196, 31.214714306495512 ] } },
{ "type": "Feature", "properties": { "addr": "上海市 浦东新区 东方路1669弄  " }, "geometry": { "type": "Point", "coordinates": [ 121.531869204813816, 31.211402298055042 ] } },
{ "type": "Feature", "properties": { "addr": "上海市 浦东新区 东方路1800弄  " }, "geometry": { "type": "Point", "coordinates": [ 121.528473609986094, 31.209089242825165 ] } },
{ "type": "Feature", "properties": { "addr": "上海市 浦东新区 东方路1881弄  " }, "geometry": { "type": "Point", "coordinates": [ 121.532356805044628, 31.200948813836941 ] } },
{ "type": "Feature", "properties": { "addr": "上海市 浦东新区 东方路2880弄  " }, "geometry": { "type": "Point", "coordinates": [ 121.525536150968478, 31.201843019221233 ] } },
{ "type": "Feature", "properties": { "addr": "上海市 浦东新区 东方路3344弄  " }, "geometry": { "type": "Point", "coordinates": [ 121.520630235086827, 31.197538785966152 ] } },
{ "type": "Feature", "properties": { "addr": "上海市 浦东新区 东方路402弄  " }, "geometry": { "type": "Point", "coordinates": [ 121.529156322173677, 31.239920983733214 ] } },
{ "type": "Feature", "properties": { "addr": "上海市 浦东新区 东方路573弄  " }, "geometry": { "type": "Point", "coordinates": [ 121.531333545238212, 31.237684588126452 ] } },
{ "type": "Feature", "properties": { "addr": "上海市 浦东新区 东风村曹家宅  " }, "geometry": { "type": "Point", "coordinates": [ 121.705700034558006, 31.232450813592735 ] } },
{ "type": "Feature", "properties": { "addr": "上海市 浦东新区 东风村丁家宅  " }, "geometry": { "type": "Point", "coordinates": [ 121.705700034558006, 31.232450813592735 ] } },
{ "type": "Feature", "properties": { "addr": "上海市 浦东新区 东风村奚家宅  " }, "geometry": { "type": "Point", "coordinates": [ 121.710332613302441, 31.235344555116807 ] } },
{ "type": "Feature", "properties": { "addr": "上海市 浦东新区 东沟三村  " }, "geometry": { "type": "Point", "coordinates": [ 121.580738102523227, 31.298450778787142 ] } },
{ "type": "Feature", "properties": { "addr": "上海市 浦东新区 东沟四村  " }, "geometry": { "type": "Point", "coordinates": [ 121.580947856859808, 31.297192081979912 ] } },
{ "type": "Feature", "properties": { "addr": "上海市 浦东新区 东海村黄家宅  " }, "geometry": { "type": "Point", "coordinates": [ 121.677869901045028, 31.307054928763691 ] } },
{ "type": "Feature", "properties": { "addr": "上海市 浦东新区 东海村小梁山  " }, "geometry": { "type": "Point", "coordinates": [ 121.674418521445133, 31.306796071478161 ] } },
{ "type": "Feature", "properties": { "addr": "上海市 浦东新区 东建新村  " }, "geometry": { "type": "Point", "coordinates": [ 121.526861421087332, 31.222713416923376 ] } },
{ "type": "Feature", "properties": { "addr": "上海市 浦东新区 东街178弄  " }, "geometry": { "type": "Point", "coordinates": [ 121.591004027721809, 31.35220789314484 ] } },
{ "type": "Feature", "properties": { "addr": "上海市 浦东新区 东靖路315弄  " }, "geometry": { "type": "Point", "coordinates": [ 121.58962611690005, 31.28158489894264 ] } },
{ "type": "Feature", "properties": { "addr": "上海市 浦东新区 东靖路374弄  " }, "geometry": { "type": "Point", "coordinates": [ 121.586396439100028, 31.296492721498744 ] } },
{ "type": "Feature", "properties": { "addr": "上海市 浦东新区 东康名苑  " }, "geometry": { "type": "Point", "coordinates": [ 121.630938558490087, 31.148392161687806 ] } },
{ "type": "Feature", "properties": { "addr": "上海市 浦东新区 东陆路1018弄  " }, "geometry": { "type": "Point", "coordinates": [ 121.599020955245621, 31.277911928226455 ] } },
{ "type": "Feature", "properties": { "addr": "上海市 浦东新区 东陆路1182弄  " }, "geometry": { "type": "Point", "coordinates": [ 121.602356004281958, 31.275368269875603 ] } },
{ "type": "Feature", "properties": { "addr": "上海市 浦东新区 东陆路1221号  " }, "geometry": { "type": "Point", "coordinates": [ 121.604299398422242, 31.276973852805344 ] } },
{ "type": "Feature", "properties": { "addr": "上海市 浦东新区 东陆路1268弄  " }, "geometry": { "type": "Point", "coordinates": [ 121.601560554752865, 31.272878863483545 ] } },
{ "type": "Feature", "properties": { "addr": "上海市 浦东新区 东陆路1350弄  " }, "geometry": { "type": "Point", "coordinates": [ 121.58962611690005, 31.28158489894264 ] } },
{ "type": "Feature", "properties": { "addr": "上海市 浦东新区 东陆路1456弄  " }, "geometry": { "type": "Point", "coordinates": [ 121.58962611690005, 31.28158489894264 ] } },
{ "type": "Feature", "properties": { "addr": "上海市 浦东新区 东陆路1528弄  " }, "geometry": { "type": "Point", "coordinates": [ 121.608405552908351, 31.272890360445157 ] } },
{ "type": "Feature", "properties": { "addr": "上海市 浦东新区 东陆路2000弄  " }, "geometry": { "type": "Point", "coordinates": [ 121.61592365138246, 31.267711183214853 ] } },
{ "type": "Feature", "properties": { "addr": "上海市 浦东新区 东陆路898弄  " }, "geometry": { "type": "Point", "coordinates": [ 121.598981609464275, 31.280897766199242 ] } },
{ "type": "Feature", "properties": { "addr": "上海市 浦东新区 东明村池河队养鸭滩  " }, "geometry": { "type": "Point", "coordinates": [ 121.526656697261615, 31.170035953725652 ] } },
{ "type": "Feature", "properties": { "addr": "上海市 浦东新区 东明路355弄  " }, "geometry": { "type": "Point", "coordinates": [ 121.516695117969832, 31.189455661589559 ] } },
{ "type": "Feature", "properties": { "addr": "上海市 浦东新区 东明路560弄  " }, "geometry": { "type": "Point", "coordinates": [ 121.529696185109415, 31.207201251711854 ] } },
{ "type": "Feature", "properties": { "addr": "上海市 浦东新区 东明路660弄  " }, "geometry": { "type": "Point", "coordinates": [ 121.529696185109415, 31.207201251711854 ] } },
{ "type": "Feature", "properties": { "addr": "上海市 浦东新区 东三街102弄  " }, "geometry": { "type": "Point", "coordinates": [ 121.517106182571183, 31.20763978042601 ] } },
{ "type": "Feature", "properties": { "addr": "上海市 浦东新区 东三里桥路79弄  " }, "geometry": { "type": "Point", "coordinates": [ 121.515301666462733, 31.20609578333686 ] } },
{ "type": "Feature", "properties": { "addr": "上海市 浦东新区 东书房路390弄  " }, "geometry": { "type": "Point", "coordinates": [ 121.5416177958692, 31.169666487058681 ] } },
{ "type": "Feature", "properties": { "addr": "上海市 浦东新区 东书房路560弄  " }, "geometry": { "type": "Point", "coordinates": [ 121.543073679609208, 31.167733309908424 ] } },
{ "type": "Feature", "properties": { "addr": "上海市 浦东新区 东亭路836弄  " }, "geometry": { "type": "Point", "coordinates": [ 121.759666007561577, 31.1767994933391 ] } },
{ "type": "Feature", "properties": { "addr": "上海市 浦东新区 东绣路999弄  " }, "geometry": { "type": "Point", "coordinates": [ 121.54362263410637, 31.208004773417329 ] } },
{ "type": "Feature", "properties": { "addr": "上海市 浦东新区 东窑新村  " }, "geometry": { "type": "Point", "coordinates": [ 121.617403699540688, 31.031492818488015 ] } },
{ "type": "Feature", "properties": { "addr": "上海市 浦东新区 东园四村  " }, "geometry": { "type": "Point", "coordinates": [ 121.519432883672579, 31.236092224574762 ] } },
{ "type": "Feature", "properties": { "addr": "上海市 浦东新区 杜鹃路188弄  " }, "geometry": { "type": "Point", "coordinates": [ 121.529696185109415, 31.207201251711854 ] } },
{ "type": "Feature", "properties": { "addr": "上海市 浦东新区 杜鹃路58弄  " }, "geometry": { "type": "Point", "coordinates": [ 121.529696185109415, 31.207201251711854 ] } },
{ "type": "Feature", "properties": { "addr": "上海市 浦东新区 杜尹村徐家宅  " }, "geometry": { "type": "Point", "coordinates": [ 121.753180421440632, 31.167449733740366 ] } },
{ "type": "Feature", "properties": { "addr": "上海市 浦东新区 峨山路180弄  " }, "geometry": { "type": "Point", "coordinates": [ 121.53440970262659, 31.220273408639333 ] } },
{ "type": "Feature", "properties": { "addr": "上海市 浦东新区 峨山路187弄  " }, "geometry": { "type": "Point", "coordinates": [ 121.534061519410926, 31.220750375234989 ] } },
{ "type": "Feature", "properties": { "addr": "上海市 浦东新区 峨山路280弄  " }, "geometry": { "type": "Point", "coordinates": [ 121.53440970262659, 31.220273408639333 ] } },
{ "type": "Feature", "properties": { "addr": "上海市 浦东新区 峨山路380弄  " }, "geometry": { "type": "Point", "coordinates": [ 121.532613630589921, 31.219822225958094 ] } },
{ "type": "Feature", "properties": { "addr": "上海市 浦东新区 峨山路420弄  " }, "geometry": { "type": "Point", "coordinates": [ 121.531848274295427, 31.219356526563455 ] } },
{ "type": "Feature", "properties": { "addr": "上海市 浦东新区 峨山路485弄  " }, "geometry": { "type": "Point", "coordinates": [ 121.531764462391351, 31.220490120697484 ] } },
{ "type": "Feature", "properties": { "addr": "上海市 浦东新区 峨山路605弄  " }, "geometry": { "type": "Point", "coordinates": [ 121.528446660820805, 31.220893047839589 ] } },
{ "type": "Feature", "properties": { "addr": "上海市 浦东新区 峨山路622弄  " }, "geometry": { "type": "Point", "coordinates": [ 121.527834016463004, 31.219577409804572 ] } },
{ "type": "Feature", "properties": { "addr": "上海市 浦东新区 繁荣东路150弄  " }, "geometry": { "type": "Point", "coordinates": [ 121.593214488090211, 31.112016970902442 ] } },
{ "type": "Feature", "properties": { "addr": "上海市 浦东新区 繁荣东路159弄  " }, "geometry": { "type": "Point", "coordinates": [ 121.59187017389452, 31.112814326185486 ] } },
{ "type": "Feature", "properties": { "addr": "上海市 浦东新区 芳草路352弄  " }, "geometry": { "type": "Point", "coordinates": [ 121.561626023984601, 31.199214895930286 ] } },
{ "type": "Feature", "properties": { "addr": "上海市 浦东新区 芳甸路333弄  " }, "geometry": { "type": "Point", "coordinates": [ 121.529696185109415, 31.207201251711854 ] } },
{ "type": "Feature", "properties": { "addr": "上海市 浦东新区 芳华路188弄  " }, "geometry": { "type": "Point", "coordinates": [ 121.536884264814915, 31.189702255537771 ] } },
{ "type": "Feature", "properties": { "addr": "上海市 浦东新区 芳华路229弄  " }, "geometry": { "type": "Point", "coordinates": [ 121.560810542242635, 31.202551968217783 ] } },
{ "type": "Feature", "properties": { "addr": "上海市 浦东新区 芳华路268弄  " }, "geometry": { "type": "Point", "coordinates": [ 121.562313317530283, 31.201114837070868 ] } },
{ "type": "Feature", "properties": { "addr": "上海市 浦东新区 芳华路329弄  " }, "geometry": { "type": "Point", "coordinates": [ 121.563650175790229, 31.202246644364951 ] } },
{ "type": "Feature", "properties": { "addr": "上海市 浦东新区 芳华路371弄  " }, "geometry": { "type": "Point", "coordinates": [ 121.564425503275885, 31.203020685498792 ] } },
{ "type": "Feature", "properties": { "addr": "上海市 浦东新区 芳华路455弄  " }, "geometry": { "type": "Point", "coordinates": [ 121.566150609177257, 31.20261752700328 ] } },
{ "type": "Feature", "properties": { "addr": "上海市 浦东新区 芳华路478弄  " }, "geometry": { "type": "Point", "coordinates": [ 121.536884264814915, 31.189702255537771 ] } },
{ "type": "Feature", "properties": { "addr": "上海市 浦东新区 芳华路573弄  " }, "geometry": { "type": "Point", "coordinates": [ 121.569065790218232, 31.202881074402363 ] } },
{ "type": "Feature", "properties": { "addr": "上海市 浦东新区 芳华路630弄  " }, "geometry": { "type": "Point", "coordinates": [ 121.556559041925013, 31.200205103357757 ] } },
{ "type": "Feature", "properties": { "addr": "上海市 浦东新区 芳华路660弄  " }, "geometry": { "type": "Point", "coordinates": [ 121.536884264814915, 31.189702255537771 ] } },
{ "type": "Feature", "properties": { "addr": "上海市 浦东新区 芳华路916弄  " }, "geometry": { "type": "Point", "coordinates": [ 121.574598004701429, 31.202853893456744 ] } },
{ "type": "Feature", "properties": { "addr": "上海市 浦东新区 芳华路933弄  " }, "geometry": { "type": "Point", "coordinates": [ 121.536884264814915, 31.189702255537771 ] } },
{ "type": "Feature", "properties": { "addr": "上海市 浦东新区 芳芯路175弄  " }, "geometry": { "type": "Point", "coordinates": [ 121.561717471485508, 31.198488469460997 ] } },
{ "type": "Feature", "properties": { "addr": "上海市 浦东新区 芳芯路210弄  " }, "geometry": { "type": "Point", "coordinates": [ 121.562195280186259, 31.197753542850066 ] } },
{ "type": "Feature", "properties": { "addr": "上海市 浦东新区 奉新路132号  " }, "geometry": { "type": "Point", "coordinates": [ 121.651378961386328, 31.027174820078262 ] } },
{ "type": "Feature", "properties": { "addr": "上海市 浦东新区 福山路102弄  " }, "geometry": { "type": "Point", "coordinates": [ 121.53400762108032, 31.237370810745112 ] } },
{ "type": "Feature", "properties": { "addr": "上海市 浦东新区 福山路49弄  " }, "geometry": { "type": "Point", "coordinates": [ 121.532470979674954, 31.244225892802888 ] } },
{ "type": "Feature", "properties": { "addr": "上海市 浦东新区 富强村  " }, "geometry": { "type": "Point", "coordinates": [ 121.772434252588738, 31.035656061792992 ] } },
{ "type": "Feature", "properties": { "addr": "上海市 浦东新区 港北村  " }, "geometry": { "type": "Point", "coordinates": [ 121.853855586046535, 31.033488363821863 ] } },
{ "type": "Feature", "properties": { "addr": "上海市 浦东新区 港建路1号生活区  " }, "geometry": { "type": "Point", "coordinates": [ 121.657175277689461, 31.329434651409741 ] } },
{ "type": "Feature", "properties": { "addr": "上海市 浦东新区 高宝路300弄  " }, "geometry": { "type": "Point", "coordinates": [ 121.58962611690005, 31.28158489894264 ] } },
{ "type": "Feature", "properties": { "addr": "上海市 浦东新区 高宝路379弄  " }, "geometry": { "type": "Point", "coordinates": [ 121.58962611690005, 31.28158489894264 ] } },
{ "type": "Feature", "properties": { "addr": "上海市 浦东新区 高宝路528弄  " }, "geometry": { "type": "Point", "coordinates": [ 121.58962611690005, 31.28158489894264 ] } },
{ "type": "Feature", "properties": { "addr": "上海市 浦东新区 高宝路68弄  " }, "geometry": { "type": "Point", "coordinates": [ 121.627291527950121, 31.297370662599629 ] } },
{ "type": "Feature", "properties": { "addr": "上海市 浦东新区 高东二路118弄  " }, "geometry": { "type": "Point", "coordinates": [ 121.632030269176354, 31.329908670368081 ] } },
{ "type": "Feature", "properties": { "addr": "上海市 浦东新区 高科西路2763弄  " }, "geometry": { "type": "Point", "coordinates": [ 121.55990100791378, 31.196831884065706 ] } },
{ "type": "Feature", "properties": { "addr": "上海市 浦东新区 高科西路2907弄  " }, "geometry": { "type": "Point", "coordinates": [ 121.564936369619417, 31.195570814667231 ] } },
{ "type": "Feature", "properties": { "addr": "上海市 浦东新区 高科西路3060弄  " }, "geometry": { "type": "Point", "coordinates": [ 121.570701963874114, 31.195867897271857 ] } },
{ "type": "Feature", "properties": { "addr": "上海市 浦东新区 高科中路2947号  " }, "geometry": { "type": "Point", "coordinates": [ 121.642834998019808, 31.211193826614693 ] } },
{ "type": "Feature", "properties": { "addr": "上海市 浦东新区 高桥村钱家宅  " }, "geometry": { "type": "Point", "coordinates": [ 121.734918229744991, 31.167107988943496 ] } },
{ "type": "Feature", "properties": { "addr": "上海市 浦东新区 高桥村西顾家宅  " }, "geometry": { "type": "Point", "coordinates": [ 121.73339488326117, 31.169314322096369 ] } },
{ "type": "Feature", "properties": { "addr": "上海市 浦东新区 高青路4567弄  " }, "geometry": { "type": "Point", "coordinates": [ 121.536884264814915, 31.189702255537771 ] } },
{ "type": "Feature", "properties": { "addr": "上海市 浦东新区 高斯路1122弄  " }, "geometry": { "type": "Point", "coordinates": [ 121.620802079115492, 31.204738240162218 ] } },
{ "type": "Feature", "properties": { "addr": "上海市 浦东新区 革新村东钟文宅  " }, "geometry": { "type": "Point", "coordinates": [ 121.652120782076466, 31.324259151415855 ] } },
{ "type": "Feature", "properties": { "addr": "上海市 浦东新区 革新村周家桥  " }, "geometry": { "type": "Point", "coordinates": [ 121.641532185538694, 31.329295306188307 ] } },
{ "type": "Feature", "properties": { "addr": "上海市 浦东新区 龚华路35弄  " }, "geometry": { "type": "Point", "coordinates": [ 121.652778790862527, 31.290487771739045 ] } },
{ "type": "Feature", "properties": { "addr": "上海市 浦东新区 龚华路479弄  " }, "geometry": { "type": "Point", "coordinates": [ 121.693823986563331, 31.265518974474919 ] } },
{ "type": "Feature", "properties": { "addr": "上海市 浦东新区 龚华路50弄  " }, "geometry": { "type": "Point", "coordinates": [ 121.691832533078269, 31.270582837879559 ] } },
{ "type": "Feature", "properties": { "addr": "上海市 浦东新区 拱北路289弄  " }, "geometry": { "type": "Point", "coordinates": [ 121.780106949441119, 31.062041246515612 ] } },
{ "type": "Feature", "properties": { "addr": "上海市 浦东新区 拱晨路255弄  " }, "geometry": { "type": "Point", "coordinates": [ 121.74718405250043, 31.070439394270952 ] } },
{ "type": "Feature", "properties": { "addr": "上海市 浦东新区 拱川路411弄  " }, "geometry": { "type": "Point", "coordinates": [ 121.74965897401097, 31.069907843106915 ] } },
{ "type": "Feature", "properties": { "addr": "上海市 浦东新区 拱川路561弄  " }, "geometry": { "type": "Point", "coordinates": [ 121.774859587635135, 31.060910455271795 ] } },
{ "type": "Feature", "properties": { "addr": "上海市 浦东新区 拱海路240弄  " }, "geometry": { "type": "Point", "coordinates": [ 121.7468341625043, 31.075214482134594 ] } },
{ "type": "Feature", "properties": { "addr": "上海市 浦东新区 拱乐路2400弄  " }, "geometry": { "type": "Point", "coordinates": [ 121.749606962121945, 31.067545829754987 ] } },
{ "type": "Feature", "properties": { "addr": "上海市 浦东新区 拱秀路1026弄  " }, "geometry": { "type": "Point", "coordinates": [ 121.774859587635135, 31.060910455271795 ] } },
{ "type": "Feature", "properties": { "addr": "上海市 浦东新区 共和村  " }, "geometry": { "type": "Point", "coordinates": [ 121.740163974601046, 31.17659805099963 ] } },
{ "type": "Feature", "properties": { "addr": "上海市 浦东新区 共一村包家宅  " }, "geometry": { "type": "Point", "coordinates": [ 121.764207480897824, 31.205888844405063 ] } },
{ "type": "Feature", "properties": { "addr": "上海市 浦东新区 共一村张家宅  " }, "geometry": { "type": "Point", "coordinates": [ 121.732101682649002, 31.261476576156298 ] } },
{ "type": "Feature", "properties": { "addr": "上海市 浦东新区 顾东村船板桥  " }, "geometry": { "type": "Point", "coordinates": [ 121.670280566943987, 31.303116456278321 ] } },
{ "type": "Feature", "properties": { "addr": "上海市 浦东新区 顾东村胡家宅  " }, "geometry": { "type": "Point", "coordinates": [ 121.668134784572288, 31.299381001669992 ] } },
{ "type": "Feature", "properties": { "addr": "上海市 浦东新区 顾三村东蔡家宅  " }, "geometry": { "type": "Point", "coordinates": [ 121.751834430791277, 31.230186868212748 ] } },
{ "type": "Feature", "properties": { "addr": "上海市 浦东新区 顾唐路138弄  " }, "geometry": { "type": "Point", "coordinates": [ 121.652778790862527, 31.290487771739045 ] } },
{ "type": "Feature", "properties": { "addr": "上海市 浦东新区 崮山路157号  " }, "geometry": { "type": "Point", "coordinates": [ 121.55848599707447, 31.253071819138345 ] } },
{ "type": "Feature", "properties": { "addr": "上海市 浦东新区 崮山路17号  " }, "geometry": { "type": "Point", "coordinates": [ 121.556658753836615, 31.254049880394966 ] } },
{ "type": "Feature", "properties": { "addr": "上海市 浦东新区 崮山路626弄  " }, "geometry": { "type": "Point", "coordinates": [ 121.565388666443681, 31.247338382334547 ] } },
{ "type": "Feature", "properties": { "addr": "上海市 浦东新区 崮山路717号  " }, "geometry": { "type": "Point", "coordinates": [ 121.566756426413178, 31.245745874409899 ] } },
{ "type": "Feature", "properties": { "addr": "上海市 浦东新区 崮山路95号  " }, "geometry": { "type": "Point", "coordinates": [ 121.557378206719562, 31.253687382281104 ] } },
{ "type": "Feature", "properties": { "addr": "上海市 浦东新区 关岳路181弄  " }, "geometry": { "type": "Point", "coordinates": [ 121.593389118681344, 31.126134708539809 ] } },
{ "type": "Feature", "properties": { "addr": "上海市 浦东新区 关岳路229弄  " }, "geometry": { "type": "Point", "coordinates": [ 121.594448041216509, 31.127375227553234 ] } },
{ "type": "Feature", "properties": { "addr": "上海市 浦东新区 观海路1588弄  " }, "geometry": { "type": "Point", "coordinates": [ 121.774859587635135, 31.060910455271795 ] } },
{ "type": "Feature", "properties": { "addr": "上海市 浦东新区 光明村凌家圈  " }, "geometry": { "type": "Point", "coordinates": [ 121.665292635769262, 31.295885077434527 ] } },
{ "type": "Feature", "properties": { "addr": "上海市 浦东新区 光明村沙桥宅  " }, "geometry": { "type": "Point", "coordinates": [ 121.65818551206597, 31.292967682842971 ] } },
{ "type": "Feature", "properties": { "addr": "上海市 浦东新区 光明村双盘宅  " }, "geometry": { "type": "Point", "coordinates": [ 121.659328605827412, 31.296363355434945 ] } },
{ "type": "Feature", "properties": { "addr": "上海市 浦东新区 光明路222弄  " }, "geometry": { "type": "Point", "coordinates": [ 121.622302967961559, 31.337702069276634 ] } },
{ "type": "Feature", "properties": { "addr": "上海市 浦东新区 光耀村姚湾宅  " }, "geometry": { "type": "Point", "coordinates": [ 121.662827146466583, 31.281753788082668 ] } },
{ "type": "Feature", "properties": { "addr": "上海市 浦东新区 光泽路428弄  " }, "geometry": { "type": "Point", "coordinates": [ 121.623076229344562, 31.336400104686092 ] } },
{ "type": "Feature", "properties": { "addr": "上海市 浦东新区 广兰路50弄  " }, "geometry": { "type": "Point", "coordinates": [ 121.620229499183438, 31.224364217649164 ] } },
{ "type": "Feature", "properties": { "addr": "上海市 浦东新区 国展路1792号工地生活区  " }, "geometry": { "type": "Point", "coordinates": [ 121.496166118091338, 31.188828002839443 ] } },
{ "type": "Feature", "properties": { "addr": "上海市 浦东新区 海基三路海洋四路交界口工地生活区  " }, "geometry": { "type": "Point", "coordinates": [ 121.894828827476005, 30.900192727463445 ] } },
{ "type": "Feature", "properties": { "addr": "上海市 浦东新区 海鸣路98弄  " }, "geometry": { "type": "Point", "coordinates": [ 121.677548217841903, 31.288627833747729 ] } },
{ "type": "Feature", "properties": { "addr": "上海市 浦东新区 海纳路129弄  " }, "geometry": { "type": "Point", "coordinates": [ 121.676724651350355, 31.298365076552425 ] } },
{ "type": "Feature", "properties": { "addr": "上海市 浦东新区 海纳路490弄  " }, "geometry": { "type": "Point", "coordinates": [ 121.675286284567761, 31.297291824890852 ] } },
{ "type": "Feature", "properties": { "addr": "上海市 浦东新区 海鹏路301弄  " }, "geometry": { "type": "Point", "coordinates": [ 121.680730914263762, 31.295363983048894 ] } },
{ "type": "Feature", "properties": { "addr": "上海市 浦东新区 海鹏路529弄  " }, "geometry": { "type": "Point", "coordinates": [ 121.676828405636769, 31.294185087870826 ] } },
{ "type": "Feature", "properties": { "addr": "上海市 浦东新区 海桥村  " }, "geometry": { "type": "Point", "coordinates": [ 121.617062972260754, 31.016067923499705 ] } },
{ "type": "Feature", "properties": { "addr": "上海市 浦东新区 海容路399弄  " }, "geometry": { "type": "Point", "coordinates": [ 121.68625863721941, 31.287655457702563 ] } },
{ "type": "Feature", "properties": { "addr": "上海市 浦东新区 海容路99弄  " }, "geometry": { "type": "Point", "coordinates": [ 121.680835027872362, 31.286961889101804 ] } },
{ "type": "Feature", "properties": { "addr": "上海市 浦东新区 海沈村  " }, "geometry": { "type": "Point", "coordinates": [ 121.804622335622284, 31.032342067589873 ] } },
{ "type": "Feature", "properties": { "addr": "上海市 浦东新区 海顺路359弄  " }, "geometry": { "type": "Point", "coordinates": [ 121.689367762419977, 31.2816070420314 ] } },
{ "type": "Feature", "properties": { "addr": "上海市 浦东新区 海松路52弄  " }, "geometry": { "type": "Point", "coordinates": [ 121.681814360539335, 31.281916196035649 ] } },
{ "type": "Feature", "properties": { "addr": "上海市 浦东新区 海塘村南海塘宅  " }, "geometry": { "type": "Point", "coordinates": [ 121.773358788619618, 31.214405702303679 ] } },
{ "type": "Feature", "properties": { "addr": "上海市 浦东新区 海桐路73弄  " }, "geometry": { "type": "Point", "coordinates": [ 121.557854578131511, 31.211290727286364 ] } },
{ "type": "Feature", "properties": { "addr": "上海市 浦东新区 海旺路同望路交界口工地生活区  " }, "geometry": { "type": "Point", "coordinates": [ 121.894828827476005, 30.900192727463445 ] } },
{ "type": "Feature", "properties": { "addr": "上海市 浦东新区   " }, "geometry": { "type": "Point", "coordinates": [ 121.550454606831948, 31.227348292436346 ] } },
{ "type": "Feature", "properties": { "addr": "上海市 浦东新区 海霞路135弄  " }, "geometry": { "type": "Point", "coordinates": [ 121.742196031495183, 31.173374837467996 ] } },
{ "type": "Feature", "properties": { "addr": "上海市 浦东新区 海燕路98号  " }, "geometry": { "type": "Point", "coordinates": [ 121.76879467798453, 31.044004737597007 ] } },
{ "type": "Feature", "properties": { "addr": "上海市 浦东新区 海阳路1080弄  " }, "geometry": { "type": "Point", "coordinates": [ 121.513439479140558, 31.164135359227771 ] } },
{ "type": "Feature", "properties": { "addr": "上海市 浦东新区 海阳路215弄  " }, "geometry": { "type": "Point", "coordinates": [ 121.49560461137601, 31.159262270593285 ] } },
{ "type": "Feature", "properties": { "addr": "上海市 浦东新区 海阳路860弄  " }, "geometry": { "type": "Point", "coordinates": [ 121.509555295945958, 31.163217618698081 ] } },
{ "type": "Feature", "properties": { "addr": "上海市 浦东新区 海阳路865弄  " }, "geometry": { "type": "Point", "coordinates": [ 121.50926092123035, 31.164110716312337 ] } },
{ "type": "Feature", "properties": { "addr": "上海市 浦东新区 海阳路云台路交界口工地生活区  " }, "geometry": { "type": "Point", "coordinates": [ 121.51031939461275, 31.182596027511039 ] } },
{ "type": "Feature", "properties": { "addr": "上海市 浦东新区 韩荡村顾家宅  " }, "geometry": { "type": "Point", "coordinates": [ 121.614698542327943, 31.163103209506037 ] } },
{ "type": "Feature", "properties": { "addr": "上海市 浦东新区 韩荡村西丁家宅  " }, "geometry": { "type": "Point", "coordinates": [ 121.669724605663845, 31.2288207632593 ] } },
{ "type": "Feature", "properties": { "addr": "上海市 浦东新区 航昌路489弄  " }, "geometry": { "type": "Point", "coordinates": [ 121.61637509481649, 31.080440873866234 ] } },
{ "type": "Feature", "properties": { "addr": "上海市 浦东新区 航城七路450弄  " }, "geometry": { "type": "Point", "coordinates": [ 121.765500501848877, 31.148175591932038 ] } },
{ "type": "Feature", "properties": { "addr": "上海市 浦东新区 航城三路675弄  " }, "geometry": { "type": "Point", "coordinates": [ 121.760699148728605, 31.159526557937753 ] } },
{ "type": "Feature", "properties": { "addr": "上海市 浦东新区 航城五路151弄  " }, "geometry": { "type": "Point", "coordinates": [ 121.754215359218691, 31.148331664371444 ] } },
{ "type": "Feature", "properties": { "addr": "上海市 浦东新区 航城五路401弄  " }, "geometry": { "type": "Point", "coordinates": [ 121.759354834532914, 31.152245366364038 ] } },
{ "type": "Feature", "properties": { "addr": "上海市 浦东新区 航鹤路1699弄  " }, "geometry": { "type": "Point", "coordinates": [ 121.589740111869276, 31.050734888826369 ] } },
{ "type": "Feature", "properties": { "addr": "上海市 浦东新区 航鹤路1700弄  " }, "geometry": { "type": "Point", "coordinates": [ 121.592181616414834, 31.05361961150756 ] } },
{ "type": "Feature", "properties": { "addr": "上海市 浦东新区 航梅路526弄  " }, "geometry": { "type": "Point", "coordinates": [ 121.58752462099001, 31.028592642453045 ] } },
{ "type": "Feature", "properties": { "addr": "上海市 浦东新区 航亭环路399弄  " }, "geometry": { "type": "Point", "coordinates": [ 121.768482426989252, 31.105525647466997 ] } },
{ "type": "Feature", "properties": { "addr": "上海市 浦东新区 航头路1257弄  " }, "geometry": { "type": "Point", "coordinates": [ 121.597831149597639, 31.037594972876985 ] } },
{ "type": "Feature", "properties": { "addr": "上海市 浦东新区 航头镇果园村  " }, "geometry": { "type": "Point", "coordinates": [ 121.642441899528649, 31.025361102765 ] } },
{ "type": "Feature", "properties": { "addr": "上海市 浦东新区 航头镇沙东村  " }, "geometry": { "type": "Point", "coordinates": [ 121.593362439007706, 31.039435837868471 ] } },
{ "type": "Feature", "properties": { "addr": "上海市 浦东新区 航西村  " }, "geometry": { "type": "Point", "coordinates": [ 121.586857090165537, 31.02424503501522 ] } },
{ "type": "Feature", "properties": { "addr": "上海市 浦东新区 和炯路77弄  " }, "geometry": { "type": "Point", "coordinates": [ 121.525530311982649, 31.139159418419815 ] } },
{ "type": "Feature", "properties": { "addr": "上海市 浦东新区 和龙路55弄  " }, "geometry": { "type": "Point", "coordinates": [ 121.57975787174837, 31.344955201239863 ] } },
{ "type": "Feature", "properties": { "addr": "上海市 浦东新区 和平村陈家宅  " }, "geometry": { "type": "Point", "coordinates": [ 121.741871024561675, 31.205896797663502 ] } },
{ "type": "Feature", "properties": { "addr": "上海市 浦东新区 和平村万家宅  " }, "geometry": { "type": "Point", "coordinates": [ 121.749951552115576, 31.206068371676267 ] } },
{ "type": "Feature", "properties": { "addr": "上海市 浦东新区 和融路55弄  " }, "geometry": { "type": "Point", "coordinates": [ 121.506367658843814, 31.130799475794813 ] } },
{ "type": "Feature", "properties": { "addr": "上海市 浦东新区 菏泽路25弄  " }, "geometry": { "type": "Point", "coordinates": [ 121.596780042320418, 31.279692532722535 ] } },
{ "type": "Feature", "properties": { "addr": "上海市 浦东新区 菏泽路418弄  " }, "geometry": { "type": "Point", "coordinates": [ 121.599919620077785, 31.272950237215621 ] } },
{ "type": "Feature", "properties": { "addr": "上海市 浦东新区 菏泽路567弄  " }, "geometry": { "type": "Point", "coordinates": [ 121.601772100444435, 31.270406002106668 ] } },
{ "type": "Feature", "properties": { "addr": "上海市 浦东新区 菏泽路825弄  " }, "geometry": { "type": "Point", "coordinates": [ 121.605853107632285, 31.265629168742894 ] } },
{ "type": "Feature", "properties": { "addr": "上海市 浦东新区 鹤驰路88弄  " }, "geometry": { "type": "Point", "coordinates": [ 121.600970727355005, 31.086394893804805 ] } },
{ "type": "Feature", "properties": { "addr": "上海市 浦东新区 鹤恒路600弄  " }, "geometry": { "type": "Point", "coordinates": [ 121.606671823274084, 31.080453940834996 ] } },
{ "type": "Feature", "properties": { "addr": "上海市 浦东新区 鹤永路750弄  " }, "geometry": { "type": "Point", "coordinates": [ 121.609967885851304, 31.077777493950869 ] } },
{ "type": "Feature", "properties": { "addr": "上海市 浦东新区 横桥村  " }, "geometry": { "type": "Point", "coordinates": [ 121.582898796766386, 31.105978848841911 ] } },
{ "type": "Feature", "properties": { "addr": "上海市 浦东新区 横桥路69弄  " }, "geometry": { "type": "Point", "coordinates": [ 121.586170425433721, 31.11424083016227 ] } },
{ "type": "Feature", "properties": { "addr": "上海市 浦东新区 红二村  " }, "geometry": { "type": "Point", "coordinates": [ 121.788223229554319, 31.095598342991988 ] } },
{ "type": "Feature", "properties": { "addr": "上海市 浦东新区 红旗村东桥队毛家塘  " }, "geometry": { "type": "Point", "coordinates": [ 121.507890556174871, 31.133660107274697 ] } },
{ "type": "Feature", "properties": { "addr": "上海市 浦东新区 红旗村姜胡宅队江湖宅  " }, "geometry": { "type": "Point", "coordinates": [ 121.500206271181412, 31.126931789483034 ] } },
{ "type": "Feature", "properties": { "addr": "上海市 浦东新区 红桥村  " }, "geometry": { "type": "Point", "coordinates": [ 121.639952155977198, 31.108110249652228 ] } },
{ "type": "Feature", "properties": { "addr": "上海市 浦东新区 红星村姚家宅  " }, "geometry": { "type": "Point", "coordinates": [ 121.704478967878273, 31.240961009503128 ] } },
{ "type": "Feature", "properties": { "addr": "上海市 浦东新区 宏雅路151弄  " }, "geometry": { "type": "Point", "coordinates": [ 121.68089072281397, 31.245230752146096 ] } },
{ "type": "Feature", "properties": { "addr": "上海市 浦东新区 虹二村盛家宅  " }, "geometry": { "type": "Point", "coordinates": [ 121.664209009832589, 31.253451761612126 ] } },
{ "type": "Feature", "properties": { "addr": "上海市 浦东新区 虹二村朱家宅  " }, "geometry": { "type": "Point", "coordinates": [ 121.668338969414705, 31.258308838536237 ] } },
{ "type": "Feature", "properties": { "addr": "上海市 浦东新区 虹三村龚家宅  " }, "geometry": { "type": "Point", "coordinates": [ 121.679576681513979, 31.259966342393376 ] } },
{ "type": "Feature", "properties": { "addr": "上海市 浦东新区 虹三村唐家宅  " }, "geometry": { "type": "Point", "coordinates": [ 121.679576681513979, 31.259966342393376 ] } },
{ "type": "Feature", "properties": { "addr": "上海市 浦东新区 虹盛路107弄  " }, "geometry": { "type": "Point", "coordinates": [ 121.688139419465642, 31.244251981153411 ] } },
{ "type": "Feature", "properties": { "addr": "上海市 浦东新区 虹盛路250弄  " }, "geometry": { "type": "Point", "coordinates": [ 121.687377836054281, 31.247623183151326 ] } },
{ "type": "Feature", "properties": { "addr": "上海市 浦东新区 虹四村卫家宅  " }, "geometry": { "type": "Point", "coordinates": [ 121.592233538473323, 31.237690608936759 ] } },
{ "type": "Feature", "properties": { "addr": "上海市 浦东新区 虹四村吴张家宅  " }, "geometry": { "type": "Point", "coordinates": [ 121.658368227406712, 31.246790543527457 ] } },
{ "type": "Feature", "properties": { "addr": "上海市 浦东新区 虹一村奚家宅  " }, "geometry": { "type": "Point", "coordinates": [ 121.678443738604798, 31.237922255459619 ] } },
{ "type": "Feature", "properties": { "addr": "上海市 浦东新区 洪山路121弄  " }, "geometry": { "type": "Point", "coordinates": [ 121.505002773451949, 31.18470970220126 ] } },
{ "type": "Feature", "properties": { "addr": "上海市 浦东新区 洪山路301弄  " }, "geometry": { "type": "Point", "coordinates": [ 121.510356225138665, 31.17560249621198 ] } },
{ "type": "Feature", "properties": { "addr": "上海市 浦东新区 后长街92弄  " }, "geometry": { "type": "Point", "coordinates": [ 121.503464784588317, 31.168878575025357 ] } },
{ "type": "Feature", "properties": { "addr": "上海市 浦东新区 沪东路282号  " }, "geometry": { "type": "Point", "coordinates": [ 121.587923288975347, 31.275935462231157 ] } },
{ "type": "Feature", "properties": { "addr": "上海市 浦东新区 沪东路67号  " }, "geometry": { "type": "Point", "coordinates": [ 121.586816756248155, 31.277393434011163 ] } },
{ "type": "Feature", "properties": { "addr": "上海市 浦东新区 沪二小区  " }, "geometry": { "type": "Point", "coordinates": [ 121.589043475946283, 31.274819978085866 ] } },
{ "type": "Feature", "properties": { "addr": "上海市 浦东新区 沪南公路3468弄  " }, "geometry": { "type": "Point", "coordinates": [ 121.602676429857368, 31.044510909823853 ] } },
{ "type": "Feature", "properties": { "addr": "上海市 浦东新区 沪南公路9439弄  " }, "geometry": { "type": "Point", "coordinates": [ 121.72754273830364, 31.045002091053345 ] } },
{ "type": "Feature", "properties": { "addr": "上海市 浦东新区 沪南路1168弄  " }, "geometry": { "type": "Point", "coordinates": [ 121.536884264814915, 31.189702255537771 ] } },
{ "type": "Feature", "properties": { "addr": "上海市 浦东新区 沪南路1351弄  " }, "geometry": { "type": "Point", "coordinates": [ 121.536884264814915, 31.189702255537771 ] } },
{ "type": "Feature", "properties": { "addr": "上海市 浦东新区 沪南路235号工地生活区  " }, "geometry": { "type": "Point", "coordinates": [ 121.555532211354191, 31.202491447920121 ] } },
{ "type": "Feature", "properties": { "addr": "上海市 浦东新区 沪南路2518弄  " }, "geometry": { "type": "Point", "coordinates": [ 121.536884264814915, 31.189702255537771 ] } },
{ "type": "Feature", "properties": { "addr": "上海市 浦东新区 沪南路2688弄  " }, "geometry": { "type": "Point", "coordinates": [ 121.570334646751078, 31.143972355375933 ] } },
{ "type": "Feature", "properties": { "addr": "上海市 浦东新区 沪南路3150弄  " }, "geometry": { "type": "Point", "coordinates": [ 121.572258906984004, 31.128503519931538 ] } },
{ "type": "Feature", "properties": { "addr": "上海市 浦东新区 沪南路3219弄  " }, "geometry": { "type": "Point", "coordinates": [ 121.574558389428432, 31.129993849742835 ] } },
{ "type": "Feature", "properties": { "addr": "上海市 浦东新区 沪南路3223弄  " }, "geometry": { "type": "Point", "coordinates": [ 121.573774078887681, 31.129662864874128 ] } },
{ "type": "Feature", "properties": { "addr": "上海市 浦东新区 沪南路3601弄  " }, "geometry": { "type": "Point", "coordinates": [ 121.57581502900635, 31.115409394092747 ] } },
{ "type": "Feature", "properties": { "addr": "上海市 浦东新区 沪南路3633弄  " }, "geometry": { "type": "Point", "coordinates": [ 121.57588114429187, 31.114219806853821 ] } },
{ "type": "Feature", "properties": { "addr": "上海市 浦东新区 沪南路4855弄  " }, "geometry": { "type": "Point", "coordinates": [ 121.536884264814915, 31.189702255537771 ] } },
{ "type": "Feature", "properties": { "addr": "上海市 浦东新区 花木路1883弄  " }, "geometry": { "type": "Point", "coordinates": [ 121.568652030700335, 31.220731846309345 ] } },
{ "type": "Feature", "properties": { "addr": "上海市 浦东新区 花木路500弄  " }, "geometry": { "type": "Point", "coordinates": [ 121.549098435003543, 31.217811873407079 ] } },
{ "type": "Feature", "properties": { "addr": "上海市 浦东新区 花木路788弄  " }, "geometry": { "type": "Point", "coordinates": [ 121.556579523290637, 31.215620424909236 ] } },
{ "type": "Feature", "properties": { "addr": "上海市 浦东新区 花墙村  " }, "geometry": { "type": "Point", "coordinates": [ 121.552741692660348, 31.156328175262196 ] } },
{ "type": "Feature", "properties": { "addr": "上海市 浦东新区 花山路618弄  " }, "geometry": { "type": "Point", "coordinates": [ 121.583019259535277, 31.352948775243171 ] } },
{ "type": "Feature", "properties": { "addr": "上海市 浦东新区 华春路成山路交界口工地生活区  " }, "geometry": { "type": "Point", "coordinates": [ 121.515782529402244, 31.178238542186499 ] } },
{ "type": "Feature", "properties": { "addr": "上海市 浦东新区 华丰路50弄  " }, "geometry": { "type": "Point", "coordinates": [ 121.514504959305938, 31.197495463859788 ] } },
{ "type": "Feature", "properties": { "addr": "上海市 浦东新区 华路村蔡家宅  " }, "geometry": { "type": "Point", "coordinates": [ 121.734208388730991, 31.197253369367186 ] } },
{ "type": "Feature", "properties": { "addr": "上海市 浦东新区 华路村瞿家宅  " }, "geometry": { "type": "Point", "coordinates": [ 121.734208388730991, 31.197253369367186 ] } },
{ "type": "Feature", "properties": { "addr": "上海市 浦东新区 华夏东路1152弄  " }, "geometry": { "type": "Point", "coordinates": [ 121.680584131143434, 31.202613202750292 ] } },
{ "type": "Feature", "properties": { "addr": "上海市 浦东新区 华夏东路1881弄  " }, "geometry": { "type": "Point", "coordinates": [ 121.692755721650869, 31.205782981065781 ] } },
{ "type": "Feature", "properties": { "addr": "上海市 浦东新区 华夏东路2026弄  " }, "geometry": { "type": "Point", "coordinates": [ 121.697008479596207, 31.205438982299057 ] } },
{ "type": "Feature", "properties": { "addr": "上海市 浦东新区 华夏东路2110弄  " }, "geometry": { "type": "Point", "coordinates": [ 121.699235019633235, 31.205382845904523 ] } },
{ "type": "Feature", "properties": { "addr": "上海市 浦东新区 华夏东路2170弄  " }, "geometry": { "type": "Point", "coordinates": [ 121.699897250455194, 31.205711633277275 ] } },
{ "type": "Feature", "properties": { "addr": "上海市 浦东新区 华夏东路2345弄  " }, "geometry": { "type": "Point", "coordinates": [ 121.704621978115483, 31.206484796404514 ] } },
{ "type": "Feature", "properties": { "addr": "上海市 浦东新区 华夏东路858弄  " }, "geometry": { "type": "Point", "coordinates": [ 121.671063080873722, 31.200240393252276 ] } },
{ "type": "Feature", "properties": { "addr": "上海市 浦东新区 华夏二路1255弄  " }, "geometry": { "type": "Point", "coordinates": [ 121.698001915659688, 31.182811977167781 ] } },
{ "type": "Feature", "properties": { "addr": "上海市 浦东新区 华夏二路1455弄  " }, "geometry": { "type": "Point", "coordinates": [ 121.699507026541667, 31.17862187802573 ] } },
{ "type": "Feature", "properties": { "addr": "上海市 浦东新区 华夏二路1500弄  " }, "geometry": { "type": "Point", "coordinates": [ 121.697079984714804, 31.178171884998676 ] } },
{ "type": "Feature", "properties": { "addr": "上海市 浦东新区 华夏二路200弄  " }, "geometry": { "type": "Point", "coordinates": [ 121.690606435887702, 31.200057534311252 ] } },
{ "type": "Feature", "properties": { "addr": "上海市 浦东新区 华夏二路350弄  " }, "geometry": { "type": "Point", "coordinates": [ 121.691059990339681, 31.198575884956675 ] } },
{ "type": "Feature", "properties": { "addr": "上海市 浦东新区 华夏三路299弄  " }, "geometry": { "type": "Point", "coordinates": [ 121.685539902980878, 31.198713571919157 ] } },
{ "type": "Feature", "properties": { "addr": "上海市 浦东新区 华夏一路325弄  " }, "geometry": { "type": "Point", "coordinates": [ 121.694130129081131, 31.199287020883038 ] } },
{ "type": "Feature", "properties": { "addr": "上海市 浦东新区 华星村陆家宅  " }, "geometry": { "type": "Point", "coordinates": [ 121.718486333001678, 31.210331189522361 ] } },
{ "type": "Feature", "properties": { "addr": "上海市 浦东新区 华绣路179弄  " }, "geometry": { "type": "Point", "coordinates": [ 121.531950321801361, 31.190764154415543 ] } },
{ "type": "Feature", "properties": { "addr": "上海市 浦东新区 华绣路393号  " }, "geometry": { "type": "Point", "coordinates": [ 121.539080981109024, 31.191578062798534 ] } },
{ "type": "Feature", "properties": { "addr": "上海市 浦东新区 环东中心村桥弄顾家宅  " }, "geometry": { "type": "Point", "coordinates": [ 121.75077008809626, 30.996837197708423 ] } },
{ "type": "Feature", "properties": { "addr": "上海市 浦东新区 环东中心村桥弄金家宅  " }, "geometry": { "type": "Point", "coordinates": [ 121.593249522005109, 31.131094754366096 ] } },
{ "type": "Feature", "properties": { "addr": "上海市 浦东新区 环东中心村桥弄严家宅  " }, "geometry": { "type": "Point", "coordinates": [ 121.804184771008366, 30.974572770259652 ] } },
{ "type": "Feature", "properties": { "addr": "上海市 浦东新区 环东中心村三灶顾家宅  " }, "geometry": { "type": "Point", "coordinates": [ 121.657879010225969, 31.201845335804407 ] } },
{ "type": "Feature", "properties": { "addr": "上海市 浦东新区 环东中心村四灶姚家宅  " }, "geometry": { "type": "Point", "coordinates": [ 121.658264293459212, 31.196805550824362 ] } },
{ "type": "Feature", "properties": { "addr": "上海市 浦东新区 环林东路271弄  " }, "geometry": { "type": "Point", "coordinates": [ 121.53316411220645, 31.155298952705344 ] } },
{ "type": "Feature", "properties": { "addr": "上海市 浦东新区 环林西路608弄  " }, "geometry": { "type": "Point", "coordinates": [ 121.526498146339108, 31.146505600587343 ] } },
{ "type": "Feature", "properties": { "addr": "上海市 浦东新区 环林西路777弄  " }, "geometry": { "type": "Point", "coordinates": [ 121.532913844291357, 31.146582247458515 ] } },
{ "type": "Feature", "properties": { "addr": "上海市 浦东新区 环桥路1136弄  " }, "geometry": { "type": "Point", "coordinates": [ 121.584859707864112, 31.120077939878794 ] } },
{ "type": "Feature", "properties": { "addr": "上海市 浦东新区 环桥路1137弄  " }, "geometry": { "type": "Point", "coordinates": [ 121.584859707864112, 31.120077939878794 ] } },
{ "type": "Feature", "properties": { "addr": "上海市 浦东新区 环桥路1481弄  " }, "geometry": { "type": "Point", "coordinates": [ 121.584859707864112, 31.120077939878794 ] } },
{ "type": "Feature", "properties": { "addr": "上海市 浦东新区 环庆南路336弄  " }, "geometry": { "type": "Point", "coordinates": [ 121.734689790653803, 31.232471810411941 ] } },
{ "type": "Feature", "properties": { "addr": "上海市 浦东新区 黄楼村金家宅  " }, "geometry": { "type": "Point", "coordinates": [ 121.593249522005109, 31.131094754366096 ] } },
{ "type": "Feature", "properties": { "addr": "上海市 浦东新区 黄楼村王家宅  " }, "geometry": { "type": "Point", "coordinates": [ 121.670866711289236, 31.177135409836009 ] } },
{ "type": "Feature", "properties": { "addr": "上海市 浦东新区 黄楼村奚家宅  " }, "geometry": { "type": "Point", "coordinates": [ 121.670267451683529, 31.168147433085426 ] } },
{ "type": "Feature", "properties": { "addr": "上海市 浦东新区 黄楼村姚家宅  " }, "geometry": { "type": "Point", "coordinates": [ 121.670267451683529, 31.168147433085426 ] } },
{ "type": "Feature", "properties": { "addr": "上海市 浦东新区 黄楼村周黄家宅  " }, "geometry": { "type": "Point", "coordinates": [ 121.638944167364457, 31.059057171820783 ] } },
{ "type": "Feature", "properties": { "addr": "上海市 浦东新区 黄杨路69弄  " }, "geometry": { "type": "Point", "coordinates": [ 121.59495675162681, 31.246865641936424 ] } },
{ "type": "Feature", "properties": { "addr": "上海市 浦东新区 汇南村  " }, "geometry": { "type": "Point", "coordinates": [ 121.748981022842585, 31.041389909445435 ] } },
{ "type": "Feature", "properties": { "addr": "上海市 浦东新区 惠东村  " }, "geometry": { "type": "Point", "coordinates": [ 121.783071627115703, 31.046320700815905 ] } },
{ "type": "Feature", "properties": { "addr": "上海市 浦东新区 火箭村  " }, "geometry": { "type": "Point", "coordinates": [ 121.614989413652083, 31.14512934591589 ] } },
{ "type": "Feature", "properties": { "addr": "上海市 浦东新区 机口村北费家宅  " }, "geometry": { "type": "Point", "coordinates": [ 121.666776995793953, 31.218435852424488 ] } },
{ "type": "Feature", "properties": { "addr": "上海市 浦东新区 吉灿路18弄  " }, "geometry": { "type": "Point", "coordinates": [ 121.713479629766056, 31.116669918126782 ] } },
{ "type": "Feature", "properties": { "addr": "上海市 浦东新区 季景北路185弄  " }, "geometry": { "type": "Point", "coordinates": [ 121.591100326072478, 31.348164315361803 ] } },
{ "type": "Feature", "properties": { "addr": "上海市 浦东新区 季景路259弄  " }, "geometry": { "type": "Point", "coordinates": [ 121.596232794603736, 31.342344348315745 ] } },
{ "type": "Feature", "properties": { "addr": "上海市 浦东新区 季桥村  " }, "geometry": { "type": "Point", "coordinates": [ 121.697999669895907, 31.064372155593095 ] } },
{ "type": "Feature", "properties": { "addr": "上海市 浦东新区 济阳路65弄  " }, "geometry": { "type": "Point", "coordinates": [ 121.488308933346161, 31.173016198002603 ] } },
{ "type": "Feature", "properties": { "addr": "上海市 浦东新区 济阳路95弄  " }, "geometry": { "type": "Point", "coordinates": [ 121.488983291292513, 31.169708122618275 ] } },
{ "type": "Feature", "properties": { "addr": "上海市 浦东新区 建光村西陈家宅  " }, "geometry": { "type": "Point", "coordinates": [ 121.558501268268131, 31.362552263234768 ] } },
{ "type": "Feature", "properties": { "addr": "上海市 浦东新区 建中路126弄  " }, "geometry": { "type": "Point", "coordinates": [ 121.620865589315045, 31.209758372329954 ] } },
{ "type": "Feature", "properties": { "addr": "上海市 浦东新区 江东路1075弄  " }, "geometry": { "type": "Point", "coordinates": [ 121.545224941644506, 31.373269234769598 ] } },
{ "type": "Feature", "properties": { "addr": "上海市 浦东新区 江东路1380弄  " }, "geometry": { "type": "Point", "coordinates": [ 121.550349594917833, 31.370364282197176 ] } },
{ "type": "Feature", "properties": { "addr": "上海市 浦东新区 江东路25号  " }, "geometry": { "type": "Point", "coordinates": [ 121.555930138237471, 31.368827676072844 ] } },
{ "type": "Feature", "properties": { "addr": "上海市 浦东新区 江绣路300弄  " }, "geometry": { "type": "Point", "coordinates": [ 121.742084112428302, 31.177161110323048 ] } },
{ "type": "Feature", "properties": { "addr": "上海市 浦东新区 蒋桥村  " }, "geometry": { "type": "Point", "coordinates": [ 121.667276184165857, 31.0543212498287 ] } },
{ "type": "Feature", "properties": { "addr": "上海市 浦东新区 胶东路533弄  " }, "geometry": { "type": "Point", "coordinates": [ 121.602578334895682, 31.264468958569093 ] } },
{ "type": "Feature", "properties": { "addr": "上海市 浦东新区 胶东路855弄  " }, "geometry": { "type": "Point", "coordinates": [ 121.608226340959106, 31.267230134809726 ] } },
{ "type": "Feature", "properties": { "addr": "上海市 浦东新区 界浜村  " }, "geometry": { "type": "Point", "coordinates": [ 121.658641581773395, 31.120402389163338 ] } },
{ "type": "Feature", "properties": { "addr": "上海市 浦东新区 界龙村费家宅  " }, "geometry": { "type": "Point", "coordinates": [ 121.692421905035218, 31.177991127922802 ] } },
{ "type": "Feature", "properties": { "addr": "上海市 浦东新区 界龙村华家宅  " }, "geometry": { "type": "Point", "coordinates": [ 121.684098032806816, 31.179025834910988 ] } },
{ "type": "Feature", "properties": { "addr": "上海市 浦东新区 界龙村沈家宅  " }, "geometry": { "type": "Point", "coordinates": [ 121.688867945234236, 31.176419857587831 ] } },
{ "type": "Feature", "properties": { "addr": "上海市 浦东新区 界龙村孙家宅  " }, "geometry": { "type": "Point", "coordinates": [ 121.692611992769272, 31.176436773231853 ] } },
{ "type": "Feature", "properties": { "addr": "上海市 浦东新区 界龙村吴陆家宅  " }, "geometry": { "type": "Point", "coordinates": [ 121.735633460592027, 31.112557095596284 ] } },
{ "type": "Feature", "properties": { "addr": "上海市 浦东新区 界龙村徐顾家宅  " }, "geometry": { "type": "Point", "coordinates": [ 121.567395660614082, 31.191014451882285 ] } },
{ "type": "Feature", "properties": { "addr": "上海市 浦东新区 金浜村  " }, "geometry": { "type": "Point", "coordinates": [ 121.568140715204052, 31.263265828168379 ] } },
{ "type": "Feature", "properties": { "addr": "上海市 浦东新区 金港路333号  " }, "geometry": { "type": "Point", "coordinates": [ 121.619450308984071, 31.260379286098438 ] } },
{ "type": "Feature", "properties": { "addr": "上海市 浦东新区 金港路龙东大道交界口工地生活区  " }, "geometry": { "type": "Point", "coordinates": [ 121.657993454347945, 31.233418206266808 ] } },
{ "type": "Feature", "properties": { "addr": "上海市 浦东新区 金高路2131弄  " }, "geometry": { "type": "Point", "coordinates": [ 121.617046533269928, 31.267471971131776 ] } },
{ "type": "Feature", "properties": { "addr": "上海市 浦东新区 金高路436弄  " }, "geometry": { "type": "Point", "coordinates": [ 121.615229710375999, 31.296319847666574 ] } },
{ "type": "Feature", "properties": { "addr": "上海市 浦东新区 金高路988弄  " }, "geometry": { "type": "Point", "coordinates": [ 121.616205270159824, 31.292764484741046 ] } },
{ "type": "Feature", "properties": { "addr": "上海市 浦东新区 金工路172弄  " }, "geometry": { "type": "Point", "coordinates": [ 121.596564808320238, 31.262466587897183 ] } },
{ "type": "Feature", "properties": { "addr": "上海市 浦东新区 金光村陆家湾队陆家湾  " }, "geometry": { "type": "Point", "coordinates": [ 121.526093190215207, 31.136167434985779 ] } },
{ "type": "Feature", "properties": { "addr": "上海市 浦东新区 金沪路1218弄  " }, "geometry": { "type": "Point", "coordinates": [ 121.610691291278485, 31.246915347325004 ] } },
{ "type": "Feature", "properties": { "addr": "上海市 浦东新区 金口路411弄  " }, "geometry": { "type": "Point", "coordinates": [ 121.586485461176068, 31.253118048256365 ] } },
{ "type": "Feature", "properties": { "addr": "上海市 浦东新区 金口路44弄  " }, "geometry": { "type": "Point", "coordinates": [ 121.582548637278592, 31.255358242243361 ] } },
{ "type": "Feature", "properties": { "addr": "上海市 浦东新区 金口路471弄  " }, "geometry": { "type": "Point", "coordinates": [ 121.589308206580071, 31.252606825486168 ] } },
{ "type": "Feature", "properties": { "addr": "上海市 浦东新区 金葵路1315弄  " }, "geometry": { "type": "Point", "coordinates": [ 121.602138614348533, 31.244250205910852 ] } },
{ "type": "Feature", "properties": { "addr": "上海市 浦东新区 金葵路945弄  " }, "geometry": { "type": "Point", "coordinates": [ 121.602138614348533, 31.244250205910852 ] } },
{ "type": "Feature", "properties": { "addr": "上海市 浦东新区 金睦路353弄  " }, "geometry": { "type": "Point", "coordinates": [ 121.681557714655128, 31.293510699442031 ] } },
{ "type": "Feature", "properties": { "addr": "上海市 浦东新区 金桥路1506弄  " }, "geometry": { "type": "Point", "coordinates": [ 121.596460784542174, 31.255564377215766 ] } },
{ "type": "Feature", "properties": { "addr": "上海市 浦东新区 金桥路226弄  " }, "geometry": { "type": "Point", "coordinates": [ 121.621784825343411, 31.260663815674061 ] } },
{ "type": "Feature", "properties": { "addr": "上海市 浦东新区 金桥路2552弄  " }, "geometry": { "type": "Point", "coordinates": [ 121.60918438378549, 31.239913033365511 ] } },
{ "type": "Feature", "properties": { "addr": "上海市 浦东新区 金桥路301弄  " }, "geometry": { "type": "Point", "coordinates": [ 121.578617113383615, 31.272879017805192 ] } },
{ "type": "Feature", "properties": { "addr": "上海市 浦东新区 金桥路835弄  " }, "geometry": { "type": "Point", "coordinates": [ 121.621784825343411, 31.260663815674061 ] } },
{ "type": "Feature", "properties": { "addr": "上海市 浦东新区 金台路115弄  " }, "geometry": { "type": "Point", "coordinates": [ 121.590903956487992, 31.255653437261628 ] } },
{ "type": "Feature", "properties": { "addr": "上海市 浦东新区 金台路128弄  " }, "geometry": { "type": "Point", "coordinates": [ 121.592444999590356, 31.256005046111348 ] } },
{ "type": "Feature", "properties": { "addr": "上海市 浦东新区 金台路161弄  " }, "geometry": { "type": "Point", "coordinates": [ 121.593995744392245, 31.257889557480873 ] } },
{ "type": "Feature", "properties": { "addr": "上海市 浦东新区 金台路200弄  " }, "geometry": { "type": "Point", "coordinates": [ 121.594221578397438, 31.257084483190823 ] } },
{ "type": "Feature", "properties": { "addr": "上海市 浦东新区 金杨路1055弄  " }, "geometry": { "type": "Point", "coordinates": [ 121.593172177900684, 31.262719703253936 ] } },
{ "type": "Feature", "properties": { "addr": "上海市 浦东新区 金杨路1155弄  " }, "geometry": { "type": "Point", "coordinates": [ 121.595565712932029, 31.26379227197009 ] } },
{ "type": "Feature", "properties": { "addr": "上海市 浦东新区 金杨路220弄  " }, "geometry": { "type": "Point", "coordinates": [ 121.581187165447659, 31.253056383701526 ] } },
{ "type": "Feature", "properties": { "addr": "上海市 浦东新区 金杨路308弄  " }, "geometry": { "type": "Point", "coordinates": [ 121.583875524347391, 31.253610128402997 ] } },
{ "type": "Feature", "properties": { "addr": "上海市 浦东新区 金杨路660弄  " }, "geometry": { "type": "Point", "coordinates": [ 121.588399929878932, 31.25750168417267 ] } },
{ "type": "Feature", "properties": { "addr": "上海市 浦东新区 金杨路685弄  " }, "geometry": { "type": "Point", "coordinates": [ 121.588343067140158, 31.258255434906122 ] } },
{ "type": "Feature", "properties": { "addr": "上海市 浦东新区 金杨路785弄  " }, "geometry": { "type": "Point", "coordinates": [ 121.589437562573522, 31.259698788471169 ] } },
{ "type": "Feature", "properties": { "addr": "上海市 浦东新区 金银花路凌霄花路交界口工地生活区  " }, "geometry": { "type": "Point", "coordinates": [ 121.630529829483052, 31.104958814154898 ] } },
{ "type": "Feature", "properties": { "addr": "上海市 浦东新区 金钻路1313弄  " }, "geometry": { "type": "Point", "coordinates": [ 121.689433967536075, 31.280501887179298 ] } },
{ "type": "Feature", "properties": { "addr": "上海市 浦东新区 金钻路328弄  " }, "geometry": { "type": "Point", "coordinates": [ 121.675613447434515, 31.29449219450759 ] } },
{ "type": "Feature", "properties": { "addr": "上海市 浦东新区 金钻路398弄  " }, "geometry": { "type": "Point", "coordinates": [ 121.677268934658855, 31.293179906356418 ] } },
{ "type": "Feature", "properties": { "addr": "上海市 浦东新区 金钻路669弄  " }, "geometry": { "type": "Point", "coordinates": [ 121.681134073776633, 31.289769460040421 ] } },
{ "type": "Feature", "properties": { "addr": "上海市 浦东新区 锦安东路593弄  " }, "geometry": { "type": "Point", "coordinates": [ 121.545602229958703, 31.205552722098439 ] } },
{ "type": "Feature", "properties": { "addr": "上海市 浦东新区 锦安东路88弄  " }, "geometry": { "type": "Point", "coordinates": [ 121.547408003694855, 31.210858881528623 ] } },
{ "type": "Feature", "properties": { "addr": "上海市 浦东新区 锦绣东路1150号工地生活区  " }, "geometry": { "type": "Point", "coordinates": [ 121.62827620207986, 31.248468490852861 ] } },
{ "type": "Feature", "properties": { "addr": "上海市 浦东新区 锦绣东路2015号  " }, "geometry": { "type": "Point", "coordinates": [ 121.614912339039321, 31.245977423798806 ] } },
{ "type": "Feature", "properties": { "addr": "上海市 浦东新区 锦绣路2466弄  " }, "geometry": { "type": "Point", "coordinates": [ 121.538049995875227, 31.201695529974554 ] } },
{ "type": "Feature", "properties": { "addr": "上海市 浦东新区 锦绣路2580弄  " }, "geometry": { "type": "Point", "coordinates": [ 121.542770770991254, 31.199407177533264 ] } },
{ "type": "Feature", "properties": { "addr": "上海市 浦东新区 锦绣路2885弄  " }, "geometry": { "type": "Point", "coordinates": [ 121.550447959371169, 31.193323783238935 ] } },
{ "type": "Feature", "properties": { "addr": "上海市 浦东新区 锦绣路3336弄  " }, "geometry": { "type": "Point", "coordinates": [ 121.547059550987541, 31.183574979857113 ] } },
{ "type": "Feature", "properties": { "addr": "上海市 浦东新区 锦绣路666弄  " }, "geometry": { "type": "Point", "coordinates": [ 121.564378881219923, 31.228603452911862 ] } },
{ "type": "Feature", "properties": { "addr": "上海市 浦东新区 进贤路155弄  " }, "geometry": { "type": "Point", "coordinates": [ 121.698322341235098, 31.198003203865806 ] } },
{ "type": "Feature", "properties": { "addr": "上海市 浦东新区 竞赛村小顾家宅  " }, "geometry": { "type": "Point", "coordinates": [ 121.659911336611756, 31.303725750231376 ] } },
{ "type": "Feature", "properties": { "addr": "上海市 浦东新区 竞新村  " }, "geometry": { "type": "Point", "coordinates": [ 121.820231022672004, 31.097804887739034 ] } },
{ "type": "Feature", "properties": { "addr": "上海市 浦东新区 居家桥路151弄  " }, "geometry": { "type": "Point", "coordinates": [ 121.568042171089616, 31.266784117232525 ] } },
{ "type": "Feature", "properties": { "addr": "上海市 浦东新区 巨峰路176弄  " }, "geometry": { "type": "Point", "coordinates": [ 121.603201669089032, 31.285412489153977 ] } },
{ "type": "Feature", "properties": { "addr": "上海市 浦东新区 巨峰路399弄  " }, "geometry": { "type": "Point", "coordinates": [ 121.602835340102075, 31.286491277884508 ] } },
{ "type": "Feature", "properties": { "addr": "上海市 浦东新区 巨峰路667弄  " }, "geometry": { "type": "Point", "coordinates": [ 121.60281279263377, 31.28804660034745 ] } },
{ "type": "Feature", "properties": { "addr": "上海市 浦东新区 巨峰路90弄  " }, "geometry": { "type": "Point", "coordinates": [ 121.602480239933982, 31.284755704928653 ] } },
{ "type": "Feature", "properties": { "addr": "上海市 浦东新区 巨野路482弄  " }, "geometry": { "type": "Point", "coordinates": [ 121.554944158109734, 31.242174152454698 ] } },
{ "type": "Feature", "properties": { "addr": "上海市 浦东新区 巨野路61弄  " }, "geometry": { "type": "Point", "coordinates": [ 121.552332604331113, 31.250494065864 ] } },
{ "type": "Feature", "properties": { "addr": "上海市 浦东新区 康达路508弄  " }, "geometry": { "type": "Point", "coordinates": [ 121.584859707864112, 31.120077939878794 ] } },
{ "type": "Feature", "properties": { "addr": "上海市 浦东新区 康达路688弄  " }, "geometry": { "type": "Point", "coordinates": [ 121.584859707864112, 31.120077939878794 ] } },
{ "type": "Feature", "properties": { "addr": "上海市 浦东新区 康弘路428弄  " }, "geometry": { "type": "Point", "coordinates": [ 121.584859707864112, 31.120077939878794 ] } },
{ "type": "Feature", "properties": { "addr": "上海市 浦东新区 康弘路508弄  " }, "geometry": { "type": "Point", "coordinates": [ 121.606984613252664, 31.126934726165889 ] } },
{ "type": "Feature", "properties": { "addr": "上海市 浦东新区 康弘路515弄  " }, "geometry": { "type": "Point", "coordinates": [ 121.606533484225551, 31.127466032407003 ] } },
{ "type": "Feature", "properties": { "addr": "上海市 浦东新区 康弘路580弄  " }, "geometry": { "type": "Point", "coordinates": [ 121.606076785704275, 31.132845541712022 ] } },
{ "type": "Feature", "properties": { "addr": "上海市 浦东新区 康花路康安路交界口工地生活区  " }, "geometry": { "type": "Point", "coordinates": [ 121.561984358052513, 31.161768296535261 ] } },
{ "type": "Feature", "properties": { "addr": "上海市 浦东新区 康佳路38弄  " }, "geometry": { "type": "Point", "coordinates": [ 121.603458135312138, 31.132426548876076 ] } },
{ "type": "Feature", "properties": { "addr": "上海市 浦东新区 康桥路1111弄  " }, "geometry": { "type": "Point", "coordinates": [ 121.584859707864112, 31.120077939878794 ] } },
{ "type": "Feature", "properties": { "addr": "上海市 浦东新区 康桥路1558弄  " }, "geometry": { "type": "Point", "coordinates": [ 121.58763637019544, 31.155405954675448 ] } },
{ "type": "Feature", "properties": { "addr": "上海市 浦东新区 康桥路90弄  " }, "geometry": { "type": "Point", "coordinates": [ 121.584859707864112, 31.120077939878794 ] } },
{ "type": "Feature", "properties": { "addr": "上海市 浦东新区 康桥镇太平村  " }, "geometry": { "type": "Point", "coordinates": [ 121.560021740174335, 31.129383964974782 ] } },
{ "type": "Feature", "properties": { "addr": "上海市 浦东新区 康杉路386弄  " }, "geometry": { "type": "Point", "coordinates": [ 121.565352644392732, 31.157919191131459 ] } },
{ "type": "Feature", "properties": { "addr": "上海市 浦东新区 康杉路608弄  " }, "geometry": { "type": "Point", "coordinates": [ 121.536884264814915, 31.189702255537771 ] } },
{ "type": "Feature", "properties": { "addr": "上海市 浦东新区 康沈路1199弄  " }, "geometry": { "type": "Point", "coordinates": [ 121.584859707864112, 31.120077939878794 ] } },
{ "type": "Feature", "properties": { "addr": "上海市 浦东新区 康沈路1870号  " }, "geometry": { "type": "Point", "coordinates": [ 121.584859707864112, 31.120077939878794 ] } },
{ "type": "Feature", "properties": { "addr": "上海市 浦东新区 康沈路2262弄  " }, "geometry": { "type": "Point", "coordinates": [ 121.587312620889662, 31.107124171661162 ] } },
{ "type": "Feature", "properties": { "addr": "上海市 浦东新区 康沈路250弄  " }, "geometry": { "type": "Point", "coordinates": [ 121.584859707864112, 31.120077939878794 ] } },
{ "type": "Feature", "properties": { "addr": "上海市 浦东新区 康沈路2588弄  " }, "geometry": { "type": "Point", "coordinates": [ 121.587931553386028, 31.102745480162682 ] } },
{ "type": "Feature", "properties": { "addr": "上海市 浦东新区 康沈路400弄  " }, "geometry": { "type": "Point", "coordinates": [ 121.584859707864112, 31.120077939878794 ] } },
{ "type": "Feature", "properties": { "addr": "上海市 浦东新区 康沈路465弄  " }, "geometry": { "type": "Point", "coordinates": [ 121.584859707864112, 31.120077939878794 ] } },
{ "type": "Feature", "properties": { "addr": "上海市 浦东新区 康沈路633弄  " }, "geometry": { "type": "Point", "coordinates": [ 121.584859707864112, 31.120077939878794 ] } },
{ "type": "Feature", "properties": { "addr": "上海市 浦东新区 康沈路726弄  " }, "geometry": { "type": "Point", "coordinates": [ 121.584859707864112, 31.120077939878794 ] } },
{ "type": "Feature", "properties": { "addr": "上海市 浦东新区 康沈路868弄  " }, "geometry": { "type": "Point", "coordinates": [ 121.584859707864112, 31.120077939878794 ] } },
{ "type": "Feature", "properties": { "addr": "上海市 浦东新区 康士路15弄  " }, "geometry": { "type": "Point", "coordinates": [ 121.56951673958423, 31.155668398702119 ] } },
{ "type": "Feature", "properties": { "addr": "上海市 浦东新区 康梧路189号工地生活区  " }, "geometry": { "type": "Point", "coordinates": [ 121.557148959153409, 31.142277176998409 ] } },
{ "type": "Feature", "properties": { "addr": "上海市 浦东新区 康梧路332号  " }, "geometry": { "type": "Point", "coordinates": [ 121.558523007261471, 31.13726587179664 ] } },
{ "type": "Feature", "properties": { "addr": "上海市 浦东新区 康新公路2333号工地生活区  " }, "geometry": { "type": "Point", "coordinates": [ 121.634643439904892, 31.090721543194647 ] } },
{ "type": "Feature", "properties": { "addr": "上海市 浦东新区 莱阳路17号  " }, "geometry": { "type": "Point", "coordinates": [ 121.583505152985623, 31.278056442544635 ] } },
{ "type": "Feature", "properties": { "addr": "上海市 浦东新区 莱阳路218号  " }, "geometry": { "type": "Point", "coordinates": [ 121.58962611690005, 31.28158489894264 ] } },
{ "type": "Feature", "properties": { "addr": "上海市 浦东新区 莱阳路2328弄  " }, "geometry": { "type": "Point", "coordinates": [ 121.5896571982707, 31.31588063765626 ] } },
{ "type": "Feature", "properties": { "addr": "上海市 浦东新区 莱阳路301弄  " }, "geometry": { "type": "Point", "coordinates": [ 121.585947196514496, 31.280357685263912 ] } },
{ "type": "Feature", "properties": { "addr": "上海市 浦东新区 莱阳路451弄  " }, "geometry": { "type": "Point", "coordinates": [ 121.589291857419795, 31.282158997327386 ] } },
{ "type": "Feature", "properties": { "addr": "上海市 浦东新区 莱阳路880弄  " }, "geometry": { "type": "Point", "coordinates": [ 121.590822300517132, 31.288336908907748 ] } },
{ "type": "Feature", "properties": { "addr": "上海市 浦东新区 莱阳路881弄  " }, "geometry": { "type": "Point", "coordinates": [ 121.58956036093673, 31.289971893195336 ] } },
{ "type": "Feature", "properties": { "addr": "上海市 浦东新区 兰城路108弄  " }, "geometry": { "type": "Point", "coordinates": [ 121.586831308797414, 31.271581472431155 ] } },
{ "type": "Feature", "properties": { "addr": "上海市 浦东新区 兰城路115弄  " }, "geometry": { "type": "Point", "coordinates": [ 121.585504152236965, 31.272452471814049 ] } },
{ "type": "Feature", "properties": { "addr": "上海市 浦东新区 兰谷路2777弄  " }, "geometry": { "type": "Point", "coordinates": [ 121.602138973670748, 31.316277446367362 ] } },
{ "type": "Feature", "properties": { "addr": "上海市 浦东新区 兰陵路23弄  " }, "geometry": { "type": "Point", "coordinates": [ 121.523272241422234, 31.201015068725571 ] } },
{ "type": "Feature", "properties": { "addr": "上海市 浦东新区 兰陵路24弄  " }, "geometry": { "type": "Point", "coordinates": [ 121.522661573336549, 31.200715608611411 ] } },
{ "type": "Feature", "properties": { "addr": "上海市 浦东新区 栏杆村曹家宅  " }, "geometry": { "type": "Point", "coordinates": [ 121.672032892400608, 31.182142456848439 ] } },
{ "type": "Feature", "properties": { "addr": "上海市 浦东新区 栏杆村高家宅  " }, "geometry": { "type": "Point", "coordinates": [ 121.66941244449913, 31.181145614546949 ] } },
{ "type": "Feature", "properties": { "addr": "上海市 浦东新区 栏杆村唐家宅  " }, "geometry": { "type": "Point", "coordinates": [ 121.672901912252641, 31.179777437248575 ] } },
{ "type": "Feature", "properties": { "addr": "上海市 浦东新区 栏杆村奚家宅  " }, "geometry": { "type": "Point", "coordinates": [ 121.66941244449913, 31.181145614546949 ] } },
{ "type": "Feature", "properties": { "addr": "上海市 浦东新区 栏杆村周家宅  " }, "geometry": { "type": "Point", "coordinates": [ 121.672901912252641, 31.179777437248575 ] } },
{ "type": "Feature", "properties": { "addr": "上海市 浦东新区 蓝村路30弄  " }, "geometry": { "type": "Point", "coordinates": [ 121.538649794464234, 31.216749431857739 ] } },
{ "type": "Feature", "properties": { "addr": "上海市 浦东新区 蓝村路31弄  " }, "geometry": { "type": "Point", "coordinates": [ 121.539160391316102, 31.218642840833379 ] } },
{ "type": "Feature", "properties": { "addr": "上海市 浦东新区 蓝村路471弄  " }, "geometry": { "type": "Point", "coordinates": [ 121.533601586989803, 31.217902204702717 ] } },
{ "type": "Feature", "properties": { "addr": "上海市 浦东新区 蓝村路502弄  " }, "geometry": { "type": "Point", "coordinates": [ 121.531098189194608, 31.217261236649822 ] } },
{ "type": "Feature", "properties": { "addr": "上海市 浦东新区 蓝村路60弄  " }, "geometry": { "type": "Point", "coordinates": [ 121.53698819876243, 31.214791283664812 ] } },
{ "type": "Feature", "properties": { "addr": "上海市 浦东新区 劳动村东孙家宅  " }, "geometry": { "type": "Point", "coordinates": [ 121.602755660403346, 31.165080591687193 ] } },
{ "type": "Feature", "properties": { "addr": "上海市 浦东新区 劳动村看鸟浜宅  " }, "geometry": { "type": "Point", "coordinates": [ 121.635001684142253, 31.185503659844144 ] } },
{ "type": "Feature", "properties": { "addr": "上海市 浦东新区 劳动村郑家宅  " }, "geometry": { "type": "Point", "coordinates": [ 121.638816787643137, 31.175693099936169 ] } },
{ "type": "Feature", "properties": { "addr": "上海市 浦东新区 崂山路310弄  " }, "geometry": { "type": "Point", "coordinates": [ 121.527279851793878, 31.239625275912569 ] } },
{ "type": "Feature", "properties": { "addr": "上海市 浦东新区 崂山路502号  " }, "geometry": { "type": "Point", "coordinates": [ 121.523565268679576, 31.242727884421647 ] } },
{ "type": "Feature", "properties": { "addr": "上海市 浦东新区 崂山路551弄  " }, "geometry": { "type": "Point", "coordinates": [ 121.528755677916237, 31.232572857538436 ] } },
{ "type": "Feature", "properties": { "addr": "上海市 浦东新区 崂山路571弄  " }, "geometry": { "type": "Point", "coordinates": [ 121.529543491848486, 31.232309393717138 ] } },
{ "type": "Feature", "properties": { "addr": "上海市 浦东新区 崂山路600号  " }, "geometry": { "type": "Point", "coordinates": [ 121.530863102642641, 31.231583223991144 ] } },
{ "type": "Feature", "properties": { "addr": "上海市 浦东新区 崂山路646号  " }, "geometry": { "type": "Point", "coordinates": [ 121.531551923307688, 31.228897651630813 ] } },
{ "type": "Feature", "properties": { "addr": "上海市 浦东新区 崂山路80弄  " }, "geometry": { "type": "Point", "coordinates": [ 121.523114678635764, 31.244151178196617 ] } },
{ "type": "Feature", "properties": { "addr": "上海市 浦东新区 崂山四村  " }, "geometry": { "type": "Point", "coordinates": [ 121.524541996260581, 31.24117281086977 ] } },
{ "type": "Feature", "properties": { "addr": "上海市 浦东新区 乐城路3弄  " },