{
"type": "FeatureCollection",
"crs": { "type": "name", "properties": { "name": "urn:ogc:def:crs:OGC:1.3:CRS84" } },
"features": [
{ "type": "Feature", "properties": { "addr": "上海市 浦东新区 白萱路99弄  " }, "geometry": { "type": "Point", "coordinates": [ 121.597709608862147, 31.336693424206917 ] } },
{ "type": "Feature", "properties": { "addr": "上海市 浦东新区 白杨路1065弄  " }, "geometry": { "type": "Point", "coordinates": [ 121.565649983516536, 31.199409880283916 ] } },
{ "type": "Feature", "properties": { "addr": "上海市 浦东新区 白杨路360弄  " }, "geometry": { "type": "Point", "coordinates": [ 121.561348178090341, 31.212020220119758 ] } },
{ "type": "Feature", "properties": { "addr": "上海市 浦东新区 板泉路2000弄  " }, "geometry": { "type": "Point", "coordinates": [ 121.536884264814915, 31.189702255537771 ] } },
{ "type": "Feature", "properties": { "addr": "上海市 浦东新区 板泉路2101弄  " }, "geometry": { "type": "Point", "coordinates": [ 121.539604693221335, 31.168815850763366 ] } },
{ "type": "Feature", "properties": { "addr": "上海市 浦东新区 板泉路50号  " }, "geometry": { "type": "Point", "coordinates": [ 121.501198269956078, 31.163464745166774 ] } },
{ "type": "Feature", "properties": { "addr": "上海市 浦东新区 板泉路95弄  " }, "geometry": { "type": "Point", "coordinates": [ 121.495320028190449, 31.160931185169652 ] } },
{ "type": "Feature", "properties": { "addr": "上海市 浦东新区 北艾路1077弄  " }, "geometry": { "type": "Point", "coordinates": [ 121.540540368240528, 31.186306106309136 ] } },
{ "type": "Feature", "properties": { "addr": "上海市 浦东新区 北艾路1200弄  " }, "geometry": { "type": "Point", "coordinates": [ 121.538886767457754, 31.188481867872763 ] } },
{ "type": "Feature", "properties": { "addr": "上海市 浦东新区 北艾路155弄  " }, "geometry": { "type": "Point", "coordinates": [ 121.549882026899894, 31.192539931368604 ] } },
{ "type": "Feature", "properties": { "addr": "上海市 浦东新区 北艾路1660弄  " }, "geometry": { "type": "Point", "coordinates": [ 121.530288187116255, 31.187040813780268 ] } },
{ "type": "Feature", "properties": { "addr": "上海市 浦东新区 北艾路1765弄  " }, "geometry": { "type": "Point", "coordinates": [ 121.528398601476013, 31.184265453706548 ] } },
{ "type": "Feature", "properties": { "addr": "上海市 浦东新区 北艾路73弄  " }, "geometry": { "type": "Point", "coordinates": [ 121.550455145815263, 31.191186130381443 ] } },
{ "type": "Feature", "properties": { "addr": "上海市 浦东新区 北艾路862弄  " }, "geometry": { "type": "Point", "coordinates": [ 121.543408388242241, 31.190227723220929 ] } },
{ "type": "Feature", "properties": { "addr": "上海市 浦东新区 北蔡村丁家宅  " }, "geometry": { "type": "Point", "coordinates": [ 121.569857916016929, 31.192184222632797 ] } },
{ "type": "Feature", "properties": { "addr": "上海市 浦东新区 北蔡村周家宅  " }, "geometry": { "type": "Point", "coordinates": [ 121.562600954954576, 31.188905398717448 ] } },
{ "type": "Feature", "properties": { "addr": "上海市 浦东新区 北蔡大街31弄  " }, "geometry": { "type": "Point", "coordinates": [ 121.56054356584508, 31.19367809757782 ] } },
{ "type": "Feature", "properties": { "addr": "上海市 浦东新区 北蔡镇南新村东钟家宅  " }, "geometry": { "type": "Point", "coordinates": [ 121.548654941573261, 31.173251634963325 ] } },
{ "type": "Feature", "properties": { "addr": "上海市 浦东新区 北蔡镇南新村陆家宅  " }, "geometry": { "type": "Point", "coordinates": [ 121.549849598070978, 31.172141723722611 ] } },
{ "type": "Feature", "properties": { "addr": "上海市 浦东新区 北蔡镇南新村吴家宅  " }, "geometry": { "type": "Point", "coordinates": [ 121.549849598070978, 31.172141723722611 ] } },
{ "type": "Feature", "properties": { "addr": "上海市 浦东新区 北蔡镇南新村西钟家宅  " }, "geometry": { "type": "Point", "coordinates": [ 121.548654941573261, 31.173251634963325 ] } },
{ "type": "Feature", "properties": { "addr": "上海市 浦东新区 北蔡镇南新村徐家宅  " }, "geometry": { "type": "Point", "coordinates": [ 121.549849598070978, 31.172141723722611 ] } },
{ "type": "Feature", "properties": { "addr": "上海市 浦东新区 北蔡镇南新村杨家湾  " }, "geometry": { "type": "Point", "coordinates": [ 121.515624876785225, 31.229719025472257 ] } },
{ "type": "Feature", "properties": { "addr": "上海市 浦东新区 北蔡镇南新村赵家厍  " }, "geometry": { "type": "Point", "coordinates": [ 121.54343515774643, 31.176791383130574 ] } },
{ "type": "Feature", "properties": { "addr": "上海市 浦东新区 北城壕路111弄  " }, "geometry": { "type": "Point", "coordinates": [ 121.707645764292607, 31.204041894187419 ] } },
{ "type": "Feature", "properties": { "addr": "上海市 浦东新区 北新园路460弄  " }, "geometry": { "type": "Point", "coordinates": [ 121.634743151816494, 31.326191717177842 ] } },
{ "type": "Feature", "properties": { "addr": "上海市 浦东新区 北园路258弄  " }, "geometry": { "type": "Point", "coordinates": [ 121.530865977220273, 31.209652667790809 ] } },
{ "type": "Feature", "properties": { "addr": "上海市 浦东新区 北张家浜路172号  " }, "geometry": { "type": "Point", "coordinates": [ 121.532325184690677, 31.222430470322667 ] } },
{ "type": "Feature", "properties": { "addr": "上海市 浦东新区 北张家浜路58号  " }, "geometry": { "type": "Point", "coordinates": [ 121.527623453651458, 31.222173076955738 ] } },
{ "type": "Feature", "properties": { "addr": "上海市 浦东新区 北中路10弄  " }, "geometry": { "type": "Point", "coordinates": [ 121.55985744009655, 31.188776424355829 ] } },
{ "type": "Feature", "properties": { "addr": "上海市 浦东新区 北中路175弄  " }, "geometry": { "type": "Point", "coordinates": [ 121.536884264814915, 31.189702255537771 ] } },
{ "type": "Feature", "properties": { "addr": "上海市 浦东新区 北中路278弄  " }, "geometry": { "type": "Point", "coordinates": [ 121.562802804202676, 31.189024178541377 ] } },
{ "type": "Feature", "properties": { "addr": "上海市 浦东新区 北中路408弄  " }, "geometry": { "type": "Point", "coordinates": [ 121.536884264814915, 31.189702255537771 ] } },
{ "type": "Feature", "properties": { "addr": "上海市 浦东新区 滨江大道1773弄  " }, "geometry": { "type": "Point", "coordinates": [ 121.520309700948431, 31.250217785487866 ] } },
{ "type": "Feature", "properties": { "addr": "上海市 浦东新区 博华路1018弄  " }, "geometry": { "type": "Point", "coordinates": [ 121.557501993218835, 31.176850857976813 ] } },
{ "type": "Feature", "properties": { "addr": "上海市 浦东新区 博华路237弄  " }, "geometry": { "type": "Point", "coordinates": [ 121.551452264931342, 31.189134154004869 ] } },
{ "type": "Feature", "properties": { "addr": "上海市 浦东新区 博华路26弄  " }, "geometry": { "type": "Point", "coordinates": [ 121.552906262229783, 31.192707745724594 ] } },
{ "type": "Feature", "properties": { "addr": "上海市 浦东新区 博华路989号  " }, "geometry": { "type": "Point", "coordinates": [ 121.556304012990722, 31.178231281730337 ] } },
{ "type": "Feature", "properties": { "addr": "上海市 浦东新区 博华路999弄  " }, "geometry": { "type": "Point", "coordinates": [ 121.557113925238525, 31.176806290465709 ] } },
{ "type": "Feature", "properties": { "addr": "上海市 浦东新区 博山东路20弄  " }, "geometry": { "type": "Point", "coordinates": [ 121.566038859971798, 31.253391023400393 ] } },
{ "type": "Feature", "properties": { "addr": "上海市 浦东新区 博山东路41弄  " }, "geometry": { "type": "Point", "coordinates": [ 121.564810876339664, 31.25377945400249 ] } },
{ "type": "Feature", "properties": { "addr": "上海市 浦东新区 博山东路440弄  " }, "geometry": { "type": "Point", "coordinates": [ 121.575265715186987, 31.258583187628979 ] } },
{ "type": "Feature", "properties": { "addr": "上海市 浦东新区 博山东路811弄  " }, "geometry": { "type": "Point", "coordinates": [ 121.579818147850474, 31.265442810713736 ] } },
{ "type": "Feature", "properties": { "addr": "上海市 浦东新区 博山东路81弄  " }, "geometry": { "type": "Point", "coordinates": [ 121.566572812766935, 31.255964297831301 ] } },
{ "type": "Feature", "properties": { "addr": "上海市 浦东新区 博山路11弄  " }, "geometry": { "type": "Point", "coordinates": [ 121.564218982839137, 31.251892158534069 ] } },
{ "type": "Feature", "properties": { "addr": "上海市 浦东新区 博山路12弄  " }, "geometry": { "type": "Point", "coordinates": [ 121.563217821348275, 31.253252567913812 ] } },
{ "type": "Feature", "properties": { "addr": "上海市 浦东新区 博山路13弄  " }, "geometry": { "type": "Point", "coordinates": [ 121.56423874556036, 31.250936765313728 ] } },
{ "type": "Feature", "properties": { "addr": "上海市 浦东新区 博山路200弄  " }, "geometry": { "type": "Point", "coordinates": [ 121.558865980305185, 31.250307986372629 ] } },
{ "type": "Feature", "properties": { "addr": "上海市 浦东新区 博山路50弄  " }, "geometry": { "type": "Point", "coordinates": [ 121.562882933054155, 31.252223638107505 ] } },
{ "type": "Feature", "properties": { "addr": "上海市 浦东新区 博山路78弄  " }, "geometry": { "type": "Point", "coordinates": [ 121.562071314025886, 31.251466597237592 ] } },
{ "type": "Feature", "properties": { "addr": "上海市 浦东新区 博兴路1663弄  " }, "geometry": { "type": "Point", "coordinates": [ 121.607201015050023, 31.280776093952529 ] } },
{ "type": "Feature", "properties": { "addr": "上海市 浦东新区 博兴路1676弄  " }, "geometry": { "type": "Point", "coordinates": [ 121.60817944941148, 31.281497329533256 ] } },
{ "type": "Feature", "properties": { "addr": "上海市 浦东新区 博兴路250弄  " }, "geometry": { "type": "Point", "coordinates": [ 121.586387276383832, 31.274900995229025 ] } },
{ "type": "Feature", "properties": { "addr": "上海市 浦东新区 博兴路462弄  " }, "geometry": { "type": "Point", "coordinates": [ 121.589409086288853, 31.27201836204534 ] } },
{ "type": "Feature", "properties": { "addr": "上海市 浦东新区 博兴路465弄  " }, "geometry": { "type": "Point", "coordinates": [ 121.58987225260978, 31.272066665151705 ] } },
{ "type": "Feature", "properties": { "addr": "上海市 浦东新区 博兴路616弄  " }, "geometry": { "type": "Point", "coordinates": [ 121.59050564782487, 31.26885013299071 ] } },
{ "type": "Feature", "properties": { "addr": "上海市 浦东新区 博兴路916弄  " }, "geometry": { "type": "Point", "coordinates": [ 121.597995000522658, 31.270420178729555 ] } },
{ "type": "Feature", "properties": { "addr": "上海市 浦东新区 彩云路843弄  " }, "geometry": { "type": "Point", "coordinates": [ 121.807457477642316, 30.904954042079854 ] } },
{ "type": "Feature", "properties": { "addr": "上海市 浦东新区 曹路镇东海村曹家宅  " }, "geometry": { "type": "Point", "coordinates": [ 121.680645934562506, 31.307098277261549 ] } },
{ "type": "Feature", "properties": { "addr": "上海市 浦东新区 曹路镇东海村小梁山  " }, "geometry": { "type": "Point", "coordinates": [ 121.674418521445133, 31.306796071478161 ] } },
{ "type": "Feature", "properties": { "addr": "上海市 浦东新区 曹路镇东海村张家宅  " }, "geometry": { "type": "Point", "coordinates": [ 121.677869901045028, 31.307054928763691 ] } },
{ "type": "Feature", "properties": { "addr": "上海市 浦东新区 曹路镇顾东村苍龙桥  " }, "geometry": { "type": "Point", "coordinates": [ 121.668037318424453, 31.305629893530618 ] } },
{ "type": "Feature", "properties": { "addr": "上海市 浦东新区 曹路镇顾东村船板桥  " }, "geometry": { "type": "Point", "coordinates": [ 121.670280566943987, 31.303116456278321 ] } },
{ "type": "Feature", "properties": { "addr": "上海市 浦东新区 曹路镇顾东村水洞港  " }, "geometry": { "type": "Point", "coordinates": [ 121.66964303952355, 31.299766926892861 ] } },
{ "type": "Feature", "properties": { "addr": "上海市 浦东新区 曹路镇顾东村吴家宅  " }, "geometry": { "type": "Point", "coordinates": [ 121.668134784572288, 31.299381001669992 ] } },
{ "type": "Feature", "properties": { "addr": "上海市 浦东新区 曹路镇顾东村新屋宅  " }, "geometry": { "type": "Point", "coordinates": [ 121.665734512249628, 31.301817865497682 ] } },
{ "type": "Feature", "properties": { "addr": "上海市 浦东新区 曹路镇顾三村外金家宅  " }, "geometry": { "type": "Point", "coordinates": [ 121.693419569422744, 31.301050658673461 ] } },
{ "type": "Feature", "properties": { "addr": "上海市 浦东新区 曹路镇光明村凌家圈  " }, "geometry": { "type": "Point", "coordinates": [ 121.665292635769262, 31.295885077434527 ] } },
{ "type": "Feature", "properties": { "addr": "上海市 浦东新区 曹路镇光明村施家宅  " }, "geometry": { "type": "Point", "coordinates": [ 121.664900525414168, 31.296640292704971 ] } },
{ "type": "Feature", "properties": { "addr": "上海市 浦东新区 曹路镇光耀村姚湾宅  " }, "geometry": { "type": "Point", "coordinates": [ 121.662827146466583, 31.281753788082668 ] } },
{ "type": "Feature", "properties": { "addr": "上海市 浦东新区 曹路镇黎明村盛朱村  " }, "geometry": { "type": "Point", "coordinates": [ 121.704742530714924, 31.274967506393079 ] } },
{ "type": "Feature", "properties": { "addr": "上海市 浦东新区 曹路镇联合村南浜宅  " }, "geometry": { "type": "Point", "coordinates": [ 121.682533094777867, 31.303874852703139 ] } },
{ "type": "Feature", "properties": { "addr": "上海市 浦东新区 曹路镇联合村西浜宅  " }, "geometry": { "type": "Point", "coordinates": [ 121.681654911311313, 31.303733155222663 ] } },
{ "type": "Feature", "properties": { "addr": "上海市 浦东新区 曹路镇民建村北邵家宅  " }, "geometry": { "type": "Point", "coordinates": [ 121.654516473041028, 31.280378671324289 ] } },
{ "type": "Feature", "properties": { "addr": "上海市 浦东新区 曹路镇民建村徐家宅  " }, "geometry": { "type": "Point", "coordinates": [ 121.653580977682921, 31.273397305600508 ] } },
{ "type": "Feature", "properties": { "addr": "上海市 浦东新区 曹路镇民众村运河西  " }, "geometry": { "type": "Point", "coordinates": [ 121.67691104974368, 31.282449015583392 ] } },
{ "type": "Feature", "properties": { "addr": "上海市 浦东新区 曹路镇启明村龙王庙  " }, "geometry": { "type": "Point", "coordinates": [ 121.702859951857661, 31.281426348101498 ] } },
{ "type": "Feature", "properties": { "addr": "上海市 浦东新区 曹路镇前锋村曹黄村  " }, "geometry": { "type": "Point", "coordinates": [ 121.697018271126268, 31.275532772216625 ] } },
{ "type": "Feature", "properties": { "addr": "上海市 浦东新区 曹路镇日新村北万家宅  " }, "geometry": { "type": "Point", "coordinates": [ 121.675042125130162, 31.269511195913047 ] } },
{ "type": "Feature", "properties": { "addr": "上海市 浦东新区 曹路镇日新村南房宅  " }, "geometry": { "type": "Point", "coordinates": [ 121.675610213534668, 31.271915582828562 ] } },
{ "type": "Feature", "properties": { "addr": "上海市 浦东新区 曹路镇日新村南万家宅  " }, "geometry": { "type": "Point", "coordinates": [ 121.678942208332273, 31.266455312945922 ] } },
{ "type": "Feature", "properties": { "addr": "上海市 浦东新区 曹路镇日新村杨薛家宅  " }, "geometry": { "type": "Point", "coordinates": [ 121.674955438648453, 31.26547221132191 ] } },
{ "type": "Feature", "properties": { "addr": "上海市 浦东新区 曹路镇五四村沈孙家宅  " }, "geometry": { "type": "Point", "coordinates": [ 121.658040076403907, 31.260398733224751 ] } },
{ "type": "Feature", "properties": { "addr": "上海市 浦东新区 曹路镇五四村唐朱家宅  " }, "geometry": { "type": "Point", "coordinates": [ 121.668338969414705, 31.258308838536237 ] } },
{ "type": "Feature", "properties": { "addr": "上海市 浦东新区 曹路镇五四村紫石桥  " }, "geometry": { "type": "Point", "coordinates": [ 121.658063073024977, 31.259351437976353 ] } },
{ "type": "Feature", "properties": { "addr": "上海市 浦东新区 曹路镇新光村姜薛家宅  " }, "geometry": { "type": "Point", "coordinates": [ 121.66888954086177, 31.267774844391841 ] } },
{ "type": "Feature", "properties": { "addr": "上海市 浦东新区 曹路镇新光村杨家圈  " }, "geometry": { "type": "Point", "coordinates": [ 121.666333322702584, 31.266371356162526 ] } },
{ "type": "Feature", "properties": { "addr": "上海市 浦东新区 曹路镇新华村强顾家宅  " }, "geometry": { "type": "Point", "coordinates": [ 121.667109279002091, 31.27121495272235 ] } },
{ "type": "Feature", "properties": { "addr": "上海市 浦东新区 曹路镇新华村新宅  " }, "geometry": { "type": "Point", "coordinates": [ 121.668753447577018, 31.27036315536467 ] } },
{ "type": "Feature", "properties": { "addr": "上海市 浦东新区 曹路镇新华村薛家巷  " }, "geometry": { "type": "Point", "coordinates": [ 121.668067411659038, 31.270945424785232 ] } },
{ "type": "Feature", "properties": { "addr": "上海市 浦东新区 曹路镇新星村胡家宅  " }, "geometry": { "type": "Point", "coordinates": [ 121.708279428999347, 31.261838735382085 ] } },
{ "type": "Feature", "properties": { "addr": "上海市 浦东新区 曹路镇新星村黄家圈  " }, "geometry": { "type": "Point", "coordinates": [ 121.711425654217493, 31.262994116567363 ] } },
{ "type": "Feature", "properties": { "addr": "上海市 浦东新区 曹路镇星火村陆家村  " }, "geometry": { "type": "Point", "coordinates": [ 121.711701613670158, 31.259167073903338 ] } },
{ "type": "Feature", "properties": { "addr": "上海市 浦东新区 曹路镇永丰村大徐家宅  " }, "geometry": { "type": "Point", "coordinates": [ 121.702955890886116, 31.261480048816949 ] } },
{ "type": "Feature", "properties": { "addr": "上海市 浦东新区 曹路镇永和村陆万村  " }, "geometry": { "type": "Point", "coordinates": [ 121.703053896017252, 31.269797318113351 ] } },
{ "type": "Feature", "properties": { "addr": "上海市 浦东新区 曹路镇永乐村曹家油车  " }, "geometry": { "type": "Point", "coordinates": [ 121.647488310392063, 31.283426537893369 ] } },
{ "type": "Feature", "properties": { "addr": "上海市 浦东新区 曹路镇永乐村东邵家弄  " }, "geometry": { "type": "Point", "coordinates": [ 121.653814087962772, 31.280044359735292 ] } },
{ "type": "Feature", "properties": { "addr": "上海市 浦东新区 曹路镇永乐村钱家宅  " }, "geometry": { "type": "Point", "coordinates": [ 121.647814934275488, 31.277677217362378 ] } },
{ "type": "Feature", "properties": { "addr": "上海市 浦东新区 曹路镇永乐村西邵家弄  " }, "geometry": { "type": "Point", "coordinates": [ 121.653814087962772, 31.280044359735292 ] } },
{ "type": "Feature", "properties": { "addr": "上海市 浦东新区 曹路镇永乐村新宅  " }, "geometry": { "type": "Point", "coordinates": [ 121.649145055244119, 31.280319956636131 ] } },
{ "type": "Feature", "properties": { "addr": "上海市 浦东新区 曹路镇永利村冯家宅  " }, "geometry": { "type": "Point", "coordinates": [ 121.702059022664955, 31.270195403071813 ] } },
{ "type": "Feature", "properties": { "addr": "上海市 浦东新区 曹路镇众三村顾家宅  " }, "geometry": { "type": "Point", "coordinates": [ 121.673574204096298, 31.287578000463697 ] } },
{ "type": "Feature", "properties": { "addr": "上海市 浦东新区 曹路镇众三村南俞家圈  " }, "geometry": { "type": "Point", "coordinates": [ 121.672454286617011, 31.288550068724149 ] } },
{ "type": "Feature", "properties": { "addr": "上海市 浦东新区 草高支路938弄  " }, "geometry": { "type": "Point", "coordinates": [ 121.573303456630995, 31.357224035490528 ] } },
{ "type": "Feature", "properties": { "addr": "上海市 浦东新区 长岛路1201弄  " }, "geometry": { "type": "Point", "coordinates": [ 121.596729737211859, 31.2693476089323 ] } },
{ "type": "Feature", "properties": { "addr": "上海市 浦东新区 长岛路1203弄  " }, "geometry": { "type": "Point", "coordinates": [ 121.600997586689758, 31.270094010785566 ] } },
{ "type": "Feature", "properties": { "addr": "上海市 浦东新区 长岛路1280弄  " }, "geometry": { "type": "Point", "coordinates": [ 121.599642313166868, 31.266883120972011 ] } },
{ "type": "Feature", "properties": { "addr": "上海市 浦东新区 长岛路1560弄  " }, "geometry": { "type": "Point", "coordinates": [ 121.608314285068531, 31.270698813371908 ] } },
{ "type": "Feature", "properties": { "addr": "上海市 浦东新区 长岛路259弄  " }, "geometry": { "type": "Point", "coordinates": [ 121.583252369815099, 31.273179327236935 ] } },
{ "type": "Feature", "properties": { "addr": "上海市 浦东新区 长岛路588弄  " }, "geometry": { "type": "Point", "coordinates": [ 121.58873194359542, 31.266885513110953 ] } },
{ "type": "Feature", "properties": { "addr": "上海市 浦东新区 长岛路800弄  " }, "geometry": { "type": "Point", "coordinates": [ 121.593834768044857, 31.265307536930138 ] } },
{ "type": "Feature", "properties": { "addr": "上海市 浦东新区 长岛路85弄  " }, "geometry": { "type": "Point", "coordinates": [ 121.584693431514211, 31.274539040952714 ] } },
{ "type": "Feature", "properties": { "addr": "上海市 浦东新区 长岛路博兴路交界口工地生活区  " }, "geometry": { "type": "Point", "coordinates": [ 121.598552219430488, 31.271406237608744 ] } },
{ "type": "Feature", "properties": { "addr": "上海市 浦东新区 长清路103弄  " }, "geometry": { "type": "Point", "coordinates": [ 121.495981181045792, 31.175662898704498 ] } },
{ "type": "Feature", "properties": { "addr": "上海市 浦东新区 长清路177弄  " }, "geometry": { "type": "Point", "coordinates": [ 121.536884264814915, 31.189702255537771 ] } },
{ "type": "Feature", "properties": { "addr": "上海市 浦东新区 长清路595弄  " }, "geometry": { "type": "Point", "coordinates": [ 121.498337885551209, 31.165653164939044 ] } },
{ "type": "Feature", "properties": { "addr": "上海市 浦东新区 长清路643弄  " }, "geometry": { "type": "Point", "coordinates": [ 121.498775809487327, 31.164183177280332 ] } },
{ "type": "Feature", "properties": { "addr": "上海市 浦东新区 长清路693弄  " }, "geometry": { "type": "Point", "coordinates": [ 121.536884264814915, 31.189702255537771 ] } },
{ "type": "Feature", "properties": { "addr": "上海市 浦东新区 长清路75弄  " }, "geometry": { "type": "Point", "coordinates": [ 121.536884264814915, 31.189702255537771 ] } },
{ "type": "Feature", "properties": { "addr": "上海市 浦东新区 长清路773弄  " }, "geometry": { "type": "Point", "coordinates": [ 121.49801207014275, 31.161973865099831 ] } },
{ "type": "Feature", "properties": { "addr": "上海市 浦东新区 长清路807弄  " }, "geometry": { "type": "Point", "coordinates": [ 121.499222985970206, 31.162053280418661 ] } },
{ "type": "Feature", "properties": { "addr": "上海市 浦东新区 昌里东路190弄  " }, "geometry": { "type": "Point", "coordinates": [ 121.514451330466997, 31.181876268964892 ] } },
{ "type": "Feature", "properties": { "addr": "上海市 浦东新区 昌里东路395弄  " }, "geometry": { "type": "Point", "coordinates": [ 121.518966483451806, 31.183302341690439 ] } },
{ "type": "Feature", "properties": { "addr": "上海市 浦东新区 昌里东路411弄  " }, "geometry": { "type": "Point", "coordinates": [ 121.519301551407025, 31.185511228668684 ] } },
{ "type": "Feature", "properties": { "addr": "上海市 浦东新区 昌里东路500弄  " }, "geometry": { "type": "Point", "coordinates": [ 121.52065736391323, 31.183517749078248 ] } },
{ "type": "Feature", "properties": { "addr": "上海市 浦东新区 昌里东路650弄  " }, "geometry": { "type": "Point", "coordinates": [ 121.521399004942268, 31.183535899194091 ] } },
{ "type": "Feature", "properties": { "addr": "上海市 浦东新区 昌里东路675弄  " }, "geometry": { "type": "Point", "coordinates": [ 121.524150963872088, 31.186762393304466 ] } },
{ "type": "Feature", "properties": { "addr": "上海市 浦东新区 昌里东路71弄  " }, "geometry": { "type": "Point", "coordinates": [ 121.510706923609746, 31.182664380728731 ] } },
{ "type": "Feature", "properties": { "addr": "上海市 浦东新区 昌里东路80弄  " }, "geometry": { "type": "Point", "coordinates": [ 121.512747873728429, 31.180374404948385 ] } },
{ "type": "Feature", "properties": { "addr": "上海市 浦东新区 昌里路167弄  " }, "geometry": { "type": "Point", "coordinates": [ 121.504545446116822, 31.181091626219736 ] } },
{ "type": "Feature", "properties": { "addr": "上海市 浦东新区 昌里路340弄  " }, "geometry": { "type": "Point", "coordinates": [ 121.500968393576088, 31.178239082858738 ] } },
{ "type": "Feature", "properties": { "addr": "上海市 浦东新区 昌里路357号  " }, "geometry": { "type": "Point", "coordinates": [ 121.496457642288291, 31.17912230542785 ] } },
{ "type": "Feature", "properties": { "addr": "上海市 浦东新区 昌里路93弄  " }, "geometry": { "type": "Point", "coordinates": [ 121.510208364051707, 31.18174319142264 ] } },
{ "type": "Feature", "properties": { "addr": "上海市 浦东新区 昌邑路55弄  " }, "geometry": { "type": "Point", "coordinates": [ 121.51912198013558, 31.246058851864309 ] } },
{ "type": "Feature", "properties": { "addr": "上海市 浦东新区 陈春东路99弄  " }, "geometry": { "type": "Point", "coordinates": [ 121.565897017531782, 31.181856496573577 ] } },
{ "type": "Feature", "properties": { "addr": "上海市 浦东新区 陈春路211号生活区  " }, "geometry": { "type": "Point", "coordinates": [ 121.555548897379026, 31.17797368965044 ] } },
{ "type": "Feature", "properties": { "addr": "上海市 浦东新区 陈春路620弄  " }, "geometry": { "type": "Point", "coordinates": [ 121.552907609688049, 31.178078194108803 ] } },
{ "type": "Feature", "properties": { "addr": "上海市 浦东新区 晨晖路825弄  " }, "geometry": { "type": "Point", "coordinates": [ 121.602138614348533, 31.244250205910852 ] } },
{ "type": "Feature", "properties": { "addr": "上海市 浦东新区 成山路1066弄  " }, "geometry": { "type": "Point", "coordinates": [ 121.527222719563454, 31.179217231083737 ] } },
{ "type": "Feature", "properties": { "addr": "上海市 浦东新区 成山路1488弄  " }, "geometry": { "type": "Point", "coordinates": [ 121.533431537756769, 31.181979842243411 ] } },
{ "type": "Feature", "properties": { "addr": "上海市 浦东新区 成山路171号  " }, "geometry": { "type": "Point", "coordinates": [ 121.499971454121109, 31.176986568621071 ] } },
{ "type": "Feature", "properties": { "addr": "上海市 浦东新区 成山路1728弄  " }, "geometry": { "type": "Point", "coordinates": [ 121.535534201463975, 31.181824984316307 ] } },
{ "type": "Feature", "properties": { "addr": "上海市 浦东新区 成山路2008弄  " }, "geometry": { "type": "Point", "coordinates": [ 121.543485283193888, 31.183276545290262 ] } },
{ "type": "Feature", "properties": { "addr": "上海市 浦东新区 成山路2399弄  " }, "geometry": { "type": "Point", "coordinates": [ 121.550359476278445, 31.187413841859218 ] } },
{ "type": "Feature", "properties": { "addr": "上海市 浦东新区 成山路24弄  " }, "geometry": { "type": "Point", "coordinates": [ 121.492308997951554, 31.174146877064409 ] } },
{ "type": "Feature", "properties": { "addr": "上海市 浦东新区 成山路300弄  " }, "geometry": { "type": "Point", "coordinates": [ 121.507887861258354, 31.176840044371215 ] } },
{ "type": "Feature", "properties": { "addr": "上海市 浦东新区 成山路345号  " }, "geometry": { "type": "Point", "coordinates": [ 121.508875458336021, 31.177826240072424 ] } },
{ "type": "Feature", "properties": { "addr": "上海市 浦东新区 成山路475弄  " }, "geometry": { "type": "Point", "coordinates": [ 121.513497240184847, 31.178313077688014 ] } },
{ "type": "Feature", "properties": { "addr": "上海市 浦东新区 成山路544弄  " }, "geometry": { "type": "Point", "coordinates": [ 121.514758730612513, 31.174425412250987 ] } },
{ "type": "Feature", "properties": { "addr": "上海市 浦东新区 成山路608弄  " }, "geometry": { "type": "Point", "coordinates": [ 121.515115986713823, 31.177611823719104 ] } },
{ "type": "Feature", "properties": { "addr": "上海市 浦东新区 成山路648弄  " }, "geometry": { "type": "Point", "coordinates": [ 121.515115986713823, 31.177611823719104 ] } },
{ "type": "Feature", "properties": { "addr": "上海市 浦东新区 成山路668弄  " }, "geometry": { "type": "Point", "coordinates": [ 121.519473037928876, 31.175870831284065 ] } },
{ "type": "Feature", "properties": { "addr": "上海市 浦东新区 成山路963弄  " }, "geometry": { "type": "Point", "coordinates": [ 121.522241615510623, 31.179266740683868 ] } },
{ "type": "Feature", "properties": { "addr": "上海市 浦东新区 城丰路15弄  " }, "geometry": { "type": "Point", "coordinates": [ 121.697081871156371, 31.197356076198027 ] } },
{ "type": "Feature", "properties": { "addr": "上海市 浦东新区 城丰路212弄  " }, "geometry": { "type": "Point", "coordinates": [ 121.693195891350754, 31.196568782990489 ] } },
{ "type": "Feature", "properties": { "addr": "上海市 浦东新区 川环南路76弄  " }, "geometry": { "type": "Point", "coordinates": [ 121.71845705076629, 31.19607138325367 ] } },
{ "type": "Feature", "properties": { "addr": "上海市 浦东新区 川环南路918弄  " }, "geometry": { "type": "Point", "coordinates": [ 121.702367590607636, 31.192514446419413 ] } },
{ "type": "Feature", "properties": { "addr": "上海市 浦东新区 川沙路2016号  " }, "geometry": { "type": "Point", "coordinates": [ 121.690356617125374, 31.251867615878648 ] } },
{ "type": "Feature", "properties": { "addr": "上海市 浦东新区 川沙路389弄  " }, "geometry": { "type": "Point", "coordinates": [ 121.675454896512008, 31.285292365801471 ] } },
{ "type": "Feature", "properties": { "addr": "上海市 浦东新区 川沙路4586弄  " }, "geometry": { "type": "Point", "coordinates": [ 121.699586885901482, 31.205495427525655 ] } },
{ "type": "Feature", "properties": { "addr": "上海市 浦东新区 川沙路5122弄  " }, "geometry": { "type": "Point", "coordinates": [ 121.702663851764825, 31.196532410579437 ] } },
{ "type": "Feature", "properties": { "addr": "上海市 浦东新区 川沙新镇柴场村  " }, "geometry": { "type": "Point", "coordinates": [ 121.732663662576044, 31.186753897798436 ] } },
{ "type": "Feature", "properties": { "addr": "上海市 浦东新区 川沙新镇陈行村东陈家宅  " }, "geometry": { "type": "Point", "coordinates": [ 121.766481451465765, 31.197053052111507 ] } },
{ "type": "Feature", "properties": { "addr": "上海市 浦东新区 川沙新镇果园村  " }, "geometry": { "type": "Point", "coordinates": [ 121.707774401641643, 31.20232857380201 ] } },
{ "type": "Feature", "properties": { "addr": "上海市 浦东新区 川沙新镇和平村朱家宅  " }, "geometry": { "type": "Point", "coordinates": [ 121.736251135460691, 31.205557663946749 ] } },
{ "type": "Feature", "properties": { "addr": "上海市 浦东新区 川沙新镇栏杆村奚家宅  " }, "geometry": { "type": "Point", "coordinates": [ 121.66941244449913, 31.181145614546949 ] } },
{ "type": "Feature", "properties": { "addr": "上海市 浦东新区 川沙新镇栏杆村周家宅  " }, "geometry": { "type": "Point", "coordinates": [ 121.672901912252641, 31.179777437248575 ] } },
{ "type": "Feature", "properties": { "addr": "上海市 浦东新区 川沙新镇牌楼村北张家宅  " }, "geometry": { "type": "Point", "coordinates": [ 121.713216246590534, 31.145940096183317 ] } },
{ "type": "Feature", "properties": { "addr": "上海市 浦东新区 川沙新镇七灶村  " }, "geometry": { "type": "Point", "coordinates": [ 121.720863970549729, 31.14402497426147 ] } },
{ "type": "Feature", "properties": { "addr": "上海市 浦东新区 川沙新镇吴店村北朱家宅  " }, "geometry": { "type": "Point", "coordinates": [ 121.757882152479866, 31.202247879870665 ] } },
{ "type": "Feature", "properties": { "addr": "上海市 浦东新区 川沙新镇吴店村郭家宅  " }, "geometry": { "type": "Point", "coordinates": [ 121.724791901222659, 31.147767252663712 ] } },
{ "type": "Feature", "properties": { "addr": "上海市 浦东新区 川沙新镇新春村张陈家宅  " }, "geometry": { "type": "Point", "coordinates": [ 121.766481451465765, 31.197053052111507 ] } },
{ "type": "Feature", "properties": { "addr": "上海市 浦东新区 川沙新镇新春村赵孟家宅  " }, "geometry": { "type": "Point", "coordinates": [ 121.698522753194382, 31.166716649452901 ] } },
{ "type": "Feature", "properties": { "addr": "上海市 浦东新区 川沙新镇新生村金家宅  " }, "geometry": { "type": "Point", "coordinates": [ 121.749243867034821, 31.180113265838791 ] } },
{ "type": "Feature", "properties": { "addr": "上海市 浦东新区 川沙新镇新兴村  " }, "geometry": { "type": "Point", "coordinates": [ 121.707774401641643, 31.20232857380201 ] } },
{ "type": "Feature", "properties": { "addr": "上海市 浦东新区 川沙新镇药师村曹家宅  " }, "geometry": { "type": "Point", "coordinates": [ 121.688302012762961, 31.209451836559015 ] } },
{ "type": "Feature", "properties": { "addr": "上海市 浦东新区 川沙新镇长丰村张家宅  " }, "geometry": { "type": "Point", "coordinates": [ 121.678998891409961, 31.190286185566155 ] } },
{ "type": "Feature", "properties": { "addr": "上海市 浦东新区 川沙新镇砖桥村  " }, "geometry": { "type": "Point", "coordinates": [ 121.707774401641643, 31.20232857380201 ] } },
{ "type": "Feature", "properties": { "addr": "上海市 浦东新区 川银路150弄  " }, "geometry": { "type": "Point", "coordinates": [ 121.694309161369276, 31.198977979741798 ] } },
{ "type": "Feature", "properties": { "addr": "上海市 浦东新区 川周公路2788号生活区  " }, "geometry": { "type": "Point", "coordinates": [ 121.630962183924993, 31.149872904407559 ] } },
{ "type": "Feature", "properties": { "addr": "上海市 浦东新区 川周公路2828弄  " }, "geometry": { "type": "Point", "coordinates": [ 121.624521962232308, 31.149124848312649 ] } },
{ "type": "Feature", "properties": { "addr": "上海市 浦东新区 川周公路2880号  " }, "geometry": { "type": "Point", "coordinates": [ 121.622258412008264, 31.148818886861712 ] } },
{ "type": "Feature", "properties": { "addr": "上海市 浦东新区 川周公路4318弄  " }, "geometry": { "type": "Point", "coordinates": [ 121.587429400605956, 31.126894771815071 ] } },
{ "type": "Feature", "properties": { "addr": "上海市 浦东新区 川周路8828弄  " }, "geometry": { "type": "Point", "coordinates": [ 121.716261861591576, 31.193206090036565 ] } },
{ "type": "Feature", "properties": { "addr": "上海市 浦东新区 创新路21弄  " }, "geometry": { "type": "Point", "coordinates": [ 121.694740976827916, 31.224789979469399 ] } },
{ "type": "Feature", "properties": { "addr": "上海市 浦东新区 创新西路199弄  " }, "geometry": { "type": "Point", "coordinates": [ 121.660810450596685, 31.207582255485885 ] } },
{ "type": "Feature", "properties": { "addr": "上海市 浦东新区 创新西路28弄  " }, "geometry": { "type": "Point", "coordinates": [ 121.664299379366895, 31.210286275536046 ] } },
{ "type": "Feature", "properties": { "addr": "上海市 浦东新区 创新西路75弄  " }, "geometry": { "type": "Point", "coordinates": [ 121.663731470623475, 31.209726792242737 ] } },
{ "type": "Feature", "properties": { "addr": "上海市 浦东新区 创新中路380弄  " }, "geometry": { "type": "Point", "coordinates": [ 121.672441890000982, 31.21383929476541 ] } },
{ "type": "Feature", "properties": { "addr": "上海市 浦东新区 创新中路399弄  " }, "geometry": { "type": "Point", "coordinates": [ 121.673244705635241, 31.215325489578447 ] } },
{ "type": "Feature", "properties": { "addr": "上海市 浦东新区 创业路78弄  " }, "geometry": { "type": "Point", "coordinates": [ 121.584859707864112, 31.120077939878794 ] } },
{ "type": "Feature", "properties": { "addr": "上海市 浦东新区 创业路87弄  " }, "geometry": { "type": "Point", "coordinates": [ 121.584859707864112, 31.120077939878794 ] } },
{ "type": "Feature", "properties": { "addr": "上海市 浦东新区 春晖路148弄  " }, "geometry": { "type": "Point", "coordinates": [ 121.592419757205533, 31.348146736887191 ] } },
{ "type": "Feature", "properties": { "addr": "上海市 浦东新区 达秀路151号  " }, "geometry": { "type": "Point", "coordinates": [ 121.660133757056016, 31.243292573416156 ] } },
{ "type": "Feature", "properties": { "addr": "上海市 浦东新区 大洪村东薛家宅  " }, "geometry": { "type": "Point", "coordinates": [ 121.734523334642802, 31.193877031981149 ] } },
{ "type": "Feature", "properties": { "addr": "上海市 浦东新区 大洪村毛家宅  " }, "geometry": { "type": "Point", "coordinates": [ 121.744227459575441, 31.198138497772678 ] } },
{ "type": "Feature", "properties": { "addr": "上海市 浦东新区 大洪村饶家宅  " }, "geometry": { "type": "Point", "coordinates": [ 121.743469649047228, 31.197864511963949 ] } },
{ "type": "Feature", "properties": { "addr": "上海市 浦东新区 大同路1010弄  " }, "geometry": { "type": "Point", "coordinates": [ 121.578601123545553, 31.341412626376524 ] } },
{ "type": "Feature", "properties": { "addr": "上海市 浦东新区 大同路922弄  " }, "geometry": { "type": "Point", "coordinates": [ 121.579332973044515, 31.3423643180898 ] } },
{ "type": "Feature", "properties": { "addr": "上海市 浦东新区 大团镇董村村  " }, "geometry": { "type": "Point", "coordinates": [ 121.787006025588298, 30.95595885227128 ] } },
{ "type": "Feature", "properties": { "addr": "上海市 浦东新区 大团镇果园村银杏  " }, "geometry": { "type": "Point", "coordinates": [ 121.737440132633708, 30.983664773262714 ] } },
{ "type": "Feature", "properties": { "addr": "上海市 浦东新区 大团镇金园村金陵  " }, "geometry": { "type": "Point", "coordinates": [ 121.789719896364488, 30.996952505678358 ] } },
{ "type": "Feature", "properties": { "addr": "上海市 浦东新区 德爱路380弄  " }, "geometry": { "type": "Point", "coordinates": [ 121.58962611690005, 31.28158489894264 ] } },
{ "type": "Feature", "properties": { "addr": "上海市 浦东新区 德淳路99弄  " }, "geometry": { "type": "Point", "coordinates": [ 121.673763387236704, 31.234108930248542 ] } },
{ "type": "Feature", "properties": { "addr": "上海市 浦东新区 德平路100弄  " }, "geometry": { "type": "Point", "coordinates": [ 121.568682662918221, 31.253939981179144 ] } },
{ "type": "Feature", "properties": { "addr": "上海市 浦东新区 德平路1060弄  " }, "geometry": { "type": "Point", "coordinates": [ 121.573486710955038, 31.248249664713569 ] } },
{ "type": "Feature", "properties": { "addr": "上海市 浦东新区 德平路1066弄  " }, "geometry": { "type": "Point", "coordinates": [ 121.573972784066484, 31.246835695198861 ] } },
{ "type": "Feature", "properties": { "addr": "上海市 浦东新区 德平路1088号  " }, "geometry": { "type": "Point", "coordinates": [ 121.574461731755562, 31.248227899624347 ] } },
{ "type": "Feature", "properties": { "addr": "上海市 浦东新区 德平路1125弄  " }, "geometry": { "type": "Point", "coordinates": [ 121.575094947309552, 31.249053580204333 ] } },
{ "type": "Feature", "properties": { "addr": "上海市 浦东新区 德平路1189弄  " }, "geometry": { "type": "Point", "coordinates": [ 121.57681313625848, 31.2458715286161 ] } },
{ "type": "Feature", "properties": { "addr": "上海市 浦东新区 德平路12弄  " }, "geometry": { "type": "Point", "coordinates": [ 121.58962611690005, 31.28158489894264 ] } },
{ "type": "Feature", "properties": { "addr": "上海市 浦东新区 德平路143弄  " }, "geometry": { "type": "Point", "coordinates": [ 121.567548462381325, 31.257090271230506 ] } },
{ "type": "Feature", "properties": { "addr": "上海市 浦东新区 德平路155弄  " }, "geometry": { "type": "Point", "coordinates": [ 121.567954047319077, 31.256601836594431 ] } },
{ "type": "Feature", "properties": { "addr": "上海市 浦东新区 德平路25弄  " }, "geometry": { "type": "Point", "coordinates": [ 121.564731825454786, 31.260091745972705 ] } },
{ "type": "Feature", "properties": { "addr": "上海市 浦东新区 德平路730弄  " }, "geometry": { "type": "Point", "coordinates": [ 121.571500018489175, 31.251636158254726 ] } },
{ "type": "Feature", "properties": { "addr": "上海市 浦东新区 德平路80弄  " }, "geometry": { "type": "Point", "coordinates": [ 121.567209801204072, 31.256605695307506 ] } },
{ "type": "Feature", "properties": { "addr": "上海市 浦东新区 德州路150弄  " }, "geometry": { "type": "Point", "coordinates": [ 121.492570315024409, 31.172044319095718 ] } },
{ "type": "Feature", "properties": { "addr": "上海市 浦东新区 德州路20弄  " }, "geometry": { "type": "Point", "coordinates": [ 121.536884264814915, 31.189702255537771 ] } },
{ "type": "Feature", "properties": { "addr": "上海市 浦东新区 德州路220弄  " }, "geometry": { "type": "Point", "coordinates": [ 121.536884264814915, 31.189702255537771 ] } },
{ "type": "Feature", "properties": { "addr": "上海市 浦东新区 德州路223弄  " }, "geometry": { "type": "Point", "coordinates": [ 121.536884264814915, 31.189702255537771 ] } },
{ "type": "Feature", "properties": { "addr": "上海市 浦东新区 德州路230弄  " }, "geometry": { "type": "Point", "coordinates": [ 121.497516205501242, 31.171941661770408 ] } },
{ "type": "Feature", "properties": { "addr": "上海市 浦东新区 德州路246号  " }, "geometry": { "type": "Point", "coordinates": [ 121.49969738111001, 31.173831110161775 ] } },
{ "type": "Feature", "properties": { "addr": "上海市 浦东新区 德州路254号  " }, "geometry": { "type": "Point", "coordinates": [ 121.49909228251849, 31.172918021851245 ] } },
{ "type": "Feature", "properties": { "addr": "上海市 浦东新区 德州路255弄  " }, "geometry": { "type": "Point", "coordinates": [ 121.497632266573135, 31.176228764666757 ] } },
{ "type": "Feature", "properties": { "addr": "上海市 浦东新区 德州路262号  " }, "geometry": { "type": "Point", "coordinates": [ 121.499297545327522, 31.173466524744164 ] } },
{ "type": "Feature", "properties": { "addr": "上海市 浦东新区 德州路300弄  " }, "geometry": { "type": "Point", "coordinates": [ 121.536884264814915, 31.189702255537771 ] } },
{ "type": "Feature", "properties": { "addr": "上海市 浦东新区 德州路380弄  " }, "geometry": { "type": "Point", "coordinates": [ 121.493341150982502, 31.171454327607343 ] } },
{ "type": "Feature", "properties": { "addr": "上海市 浦东新区 德州路382弄  " }, "geometry": { "type": "Point", "coordinates": [ 121.536884264814915, 31.189702255537771 ] } },
{ "type": "Feature", "properties": { "addr": "上海市 浦东新区 德州路420弄  " }, "geometry": { "type": "Point", "coordinates": [ 121.490352488550826, 31.172388749436156 ] } },
{ "type": "Feature", "properties": { "addr": "上海市 浦东新区 德州路421弄  " }, "geometry": { "type": "Point", "coordinates": [ 121.489477988136855, 31.173812880924558 ] } },
{ "type": "Feature", "properties": { "addr": "上海市 浦东新区 邓镇二村南朱家宅  " }, "geometry": { "type": "Point", "coordinates": [ 121.591887241699212, 31.127229475919336 ] } },
{ "type": "Feature", "properties": { "addr": "上海市 浦东新区 丁香路1089弄  " }, "geometry": { "type": "Point", "coordinates": [ 121.562914194085891, 31.234723305955367 ] } },
{ "type": "Feature", "properties": { "addr": "上海市 浦东新区 丁香路1599弄  " }, "geometry": { "type": "Point", "coordinates": [ 121.572306876498232, 31.233862298835515 ] } },
{ "type": "Feature", "properties": { "addr": "上海市 浦东新区 东波路192弄  " }, "geometry": { "type": "Point", "coordinates": [ 121.585327545373701, 31.28957713270723 ] } },
{ "type": "Feature", "properties": { "addr": "上海市 浦东新区 东波路195弄  " }, "geometry": { "type": "Point", "coordinates": [ 121.586241571230104, 31.290794581956991 ] } },
{ "type": "Feature", "properties": { "addr": "上海市 浦东新区 东波路585弄  " }, "geometry": { "type": "Point", "coordinates": [ 121.592860016735969, 31.289979530718124 ] } },
{ "type": "Feature", "properties": { "addr": "上海市 浦东新区 东昌路490弄  " }, "geometry": { "type": "Point", "coordinates": [ 121.519723575335604, 31.237522334861659 ] } },
{ "type": "Feature", "properties": { "addr": "上海市 浦东新区 东昌新村  " }, "geometry": { "type": "Point", "coordinates": [ 121.518093689818301, 31.238981986602251 ] } },
{ "type": "Feature", "properties": { "addr": "上海市 浦东新区 东方路1523弄  " }, "geometry": { "type": "Point", "coordinates": [ 121.533498012364518, 31.214799622210936 ] } },
{ "type": "Feature", "properties": { "addr": "上海市 浦东新区 东方路1600弄  " }, "geometry": { "type": "Point", "coordinates": [ 121.532426513552196, 31.214714306495512 ] } },
{ "type": "Feature", "properties": { "addr": "上海市 浦东新区 东方路1800弄  " }, "geometry": { "type": "Point", "coordinates": [ 121.528473609986094, 31.209089242825165 ] } },
{ "type": "Feature", "properties": { "addr": "上海市 浦东新区 东方路1881弄  " }, "geometry": { "type": "Point", "coordinates": [ 121.532356805044628, 31.200948813836941 ] } },
{ "type": "Feature", "properties": { "addr": "上海市 浦东新区 东方路2995弄  " }, "geometry": { "type": "Point", "coordinates": [ 121.526119420736094, 31.19859781603996 ] } },
{ "type": "Feature", "properties": { "addr": "上海市 浦东新区 东沟四村  " }, "geometry": { "type": "Point", "coordinates": [ 121.580947856859808, 31.297192081979912 ] } },
{ "type": "Feature", "properties": { "addr": "上海市 浦东新区 东环龙路181弄  " }, "geometry": { "type": "Point", "coordinates": [ 121.535363613247625, 31.209338796414407 ] } },
{ "type": "Feature", "properties": { "addr": "上海市 浦东新区 东建路228弄  " }, "geometry": { "type": "Point", "coordinates": [ 121.538810411489408, 31.206686097292025 ] } },
{ "type": "Feature", "properties": { "addr": "上海市 浦东新区 东建新村  " }, "geometry": { "type": "Point", "coordinates": [ 121.526861421087332, 31.222713416923376 ] } },
{ "type": "Feature", "properties": { "addr": "上海市 浦东新区 东靖路247弄  " }, "geometry": { "type": "Point", "coordinates": [ 121.584071175287448, 31.298685745986468 ] } },
{ "type": "Feature", "properties": { "addr": "上海市 浦东新区 东靖路669弄  " }, "geometry": { "type": "Point", "coordinates": [ 121.58962611690005, 31.28158489894264 ] } },
{ "type": "Feature", "properties": { "addr": "上海市 浦东新区 东林街135弄  " }, "geometry": { "type": "Point", "coordinates": [ 121.510653743923555, 31.144358612852269 ] } },
{ "type": "Feature", "properties": { "addr": "上海市 浦东新区 东陆路1018弄  " }, "geometry": { "type": "Point", "coordinates": [ 121.599020955245621, 31.277911928226455 ] } },
{ "type": "Feature", "properties": { "addr": "上海市 浦东新区 东陆路1182弄  " }, "geometry": { "type": "Point", "coordinates": [ 121.602356004281958, 31.275368269875603 ] } },
{ "type": "Feature", "properties": { "addr": "上海市 浦东新区 东陆路1268弄  " }, "geometry": { "type": "Point", "coordinates": [ 121.601560554752865, 31.272878863483545 ] } },
{ "type": "Feature", "properties": { "addr": "上海市 浦东新区 东陆路1456弄  " }, "geometry": { "type": "Point", "coordinates": [ 121.58962611690005, 31.28158489894264 ] } },
{ "type": "Feature", "properties": { "addr": "上海市 浦东新区 东陆路1485弄  " }, "geometry": { "type": "Point", "coordinates": [ 121.608539310598786, 31.273645607414039 ] } },
{ "type": "Feature", "properties": { "addr": "上海市 浦东新区 东陆路1528弄  " }, "geometry": { "type": "Point", "coordinates": [ 121.608405552908351, 31.272890360445157 ] } },
{ "type": "Feature", "properties": { "addr": "上海市 浦东新区 东陆路429弄  " }, "geometry": { "type": "Point", "coordinates": [ 121.592391191090314, 31.286284671095828 ] } },
{ "type": "Feature", "properties": { "addr": "上海市 浦东新区 东陆路898弄  " }, "geometry": { "type": "Point", "coordinates": [ 121.598981609464275, 31.280897766199242 ] } },
{ "type": "Feature", "properties": { "addr": "上海市 浦东新区 东明路355弄  " }, "geometry": { "type": "Point", "coordinates": [ 121.516695117969832, 31.189455661589559 ] } },
{ "type": "Feature", "properties": { "addr": "上海市 浦东新区 东明路383弄  " }, "geometry": { "type": "Point", "coordinates": [ 121.516660892529885, 31.188568057018159 ] } },
{ "type": "Feature", "properties": { "addr": "上海市 浦东新区 东明路511弄  " }, "geometry": { "type": "Point", "coordinates": [ 121.51733183691529, 31.186186319019924 ] } },
{ "type": "Feature", "properties": { "addr": "上海市 浦东新区 东明路660弄  " }, "geometry": { "type": "Point", "coordinates": [ 121.529696185109415, 31.207201251711854 ] } },
{ "type": "Feature", "properties": { "addr": "上海市 浦东新区 东三街102弄  " }, "geometry": { "type": "Point", "coordinates": [ 121.517106182571183, 31.20763978042601 ] } },
{ "type": "Feature", "properties": { "addr": "上海市 浦东新区 东三里桥路160弄  " }, "geometry": { "type": "Point", "coordinates": [ 121.516139875334105, 31.206028219370221 ] } },
{ "type": "Feature", "properties": { "addr": "上海市 浦东新区 东三里桥路190弄  " }, "geometry": { "type": "Point", "coordinates": [ 121.518021016902551, 31.20624372894958 ] } },
{ "type": "Feature", "properties": { "addr": "上海市 浦东新区 东三里桥路245弄  " }, "geometry": { "type": "Point", "coordinates": [ 121.520676318159488, 31.205217447968764 ] } },
{ "type": "Feature", "properties": { "addr": "上海市 浦东新区 东三里桥路79弄  " }, "geometry": { "type": "Point", "coordinates": [ 121.515301666462733, 31.20609578333686 ] } },
{ "type": "Feature", "properties": { "addr": "上海市 浦东新区 东书房路390弄  " }, "geometry": { "type": "Point", "coordinates": [ 121.5416177958692, 31.169666487058681 ] } },
{ "type": "Feature", "properties": { "addr": "上海市 浦东新区 东书房路560弄  " }, "geometry": { "type": "Point", "coordinates": [ 121.543073679609208, 31.167733309908424 ] } },
{ "type": "Feature", "properties": { "addr": "上海市 浦东新区 东亭路836弄  " }, "geometry": { "type": "Point", "coordinates": [ 121.759666007561577, 31.1767994933391 ] } },
{ "type": "Feature", "properties": { "addr": "上海市 浦东新区 东绣路1086弄  " }, "geometry": { "type": "Point", "coordinates": [ 121.542941718529804, 31.205269183115451 ] } },
{ "type": "Feature", "properties": { "addr": "上海市 浦东新区 东绣路1155弄  " }, "geometry": { "type": "Point", "coordinates": [ 121.541281200794614, 31.204941938527192 ] } },
{ "type": "Feature", "properties": { "addr": "上海市 浦东新区 东育路95弄  " }, "geometry": { "type": "Point", "coordinates": [ 121.525530311982649, 31.139159418419815 ] } },
{ "type": "Feature", "properties": { "addr": "上海市 浦东新区 东园四村  " }, "geometry": { "type": "Point", "coordinates": [ 121.519432883672579, 31.236092224574762 ] } },
{ "type": "Feature", "properties": { "addr": "上海市 浦东新区 渡桥路78弄  " }, "geometry": { "type": "Point", "coordinates": [ 121.584859707864112, 31.120077939878794 ] } },
{ "type": "Feature", "properties": { "addr": "上海市 浦东新区 峨山路180弄  " }, "geometry": { "type": "Point", "coordinates": [ 121.53440970262659, 31.220273408639333 ] } },
{ "type": "Feature", "properties": { "addr": "上海市 浦东新区 峨山路187弄  " }, "geometry": { "type": "Point", "coordinates": [ 121.534061519410926, 31.220750375234989 ] } },
{ "type": "Feature", "properties": { "addr": "上海市 浦东新区 峨山路280弄  " }, "geometry": { "type": "Point", "coordinates": [ 121.53440970262659, 31.220273408639333 ] } },
{ "type": "Feature", "properties": { "addr": "上海市 浦东新区 峨山路500弄  " }, "geometry": { "type": "Point", "coordinates": [ 121.530728716138341, 31.219497888809606 ] } },
{ "type": "Feature", "properties": { "addr": "上海市 浦东新区 峨山路605弄  " }, "geometry": { "type": "Point", "coordinates": [ 121.528446660820805, 31.220893047839589 ] } },
{ "type": "Feature", "properties": { "addr": "上海市 浦东新区 峨山路622弄  " }, "geometry": { "type": "Point", "coordinates": [ 121.527834016463004, 31.219577409804572 ] } },
{ "type": "Feature", "properties": { "addr": "上海市 浦东新区 峨山路679弄  " }, "geometry": { "type": "Point", "coordinates": [ 121.527011348276957, 31.22020075941883 ] } },
{ "type": "Feature", "properties": { "addr": "上海市 浦东新区 峨山路681弄  " }, "geometry": { "type": "Point", "coordinates": [ 121.526390349677911, 31.219607056449476 ] } },
{ "type": "Feature", "properties": { "addr": "上海市 浦东新区 繁荣东路150弄  " }, "geometry": { "type": "Point", "coordinates": [ 121.593214488090211, 31.112016970902442 ] } },
{ "type": "Feature", "properties": { "addr": "上海市 浦东新区 繁荣东路159弄  " }, "geometry": { "type": "Point", "coordinates": [ 121.59187017389452, 31.112814326185486 ] } },
{ "type": "Feature", "properties": { "addr": "上海市 浦东新区 方竹路222弄  " }, "geometry": { "type": "Point", "coordinates": [ 121.913596495682114, 30.898714102519019 ] } },
{ "type": "Feature", "properties": { "addr": "上海市 浦东新区 芳草路258号  " }, "geometry": { "type": "Point", "coordinates": [ 121.563049029742956, 31.199533511737091 ] } },
{ "type": "Feature", "properties": { "addr": "上海市 浦东新区 芳草路352弄  " }, "geometry": { "type": "Point", "coordinates": [ 121.561626023984601, 31.199214895930286 ] } },
{ "type": "Feature", "properties": { "addr": "上海市 浦东新区 芳甸路333弄  " }, "geometry": { "type": "Point", "coordinates": [ 121.529696185109415, 31.207201251711854 ] } },
{ "type": "Feature", "properties": { "addr": "上海市 浦东新区 芳甸路77弄  " }, "geometry": { "type": "Point", "coordinates": [ 121.564410142251674, 31.236162468533347 ] } },
{ "type": "Feature", "properties": { "addr": "上海市 浦东新区 芳华路253弄  " }, "geometry": { "type": "Point", "coordinates": [ 121.561636354497949, 31.20224919259546 ] } },
{ "type": "Feature", "properties": { "addr": "上海市 浦东新区 芳华路310弄  " }, "geometry": { "type": "Point", "coordinates": [ 121.564018211557652, 31.201334527828102 ] } },
{ "type": "Feature", "properties": { "addr": "上海市 浦东新区 芳华路329弄  " }, "geometry": { "type": "Point", "coordinates": [ 121.563650175790229, 31.202246644364951 ] } },
{ "type": "Feature", "properties": { "addr": "上海市 浦东新区 芳华路455弄  " }, "geometry": { "type": "Point", "coordinates": [ 121.566150609177257, 31.20261752700328 ] } },
{ "type": "Feature", "properties": { "addr": "上海市 浦东新区 芳华路478弄  " }, "geometry": { "type": "Point", "coordinates": [ 121.536884264814915, 31.189702255537771 ] } },
{ "type": "Feature", "properties": { "addr": "上海市 浦东新区 芳华路573弄  " }, "geometry": { "type": "Point", "coordinates": [ 121.569065790218232, 31.202881074402363 ] } },
{ "type": "Feature", "properties": { "addr": "上海市 浦东新区 芳华路933弄  " }, "geometry": { "type": "Point", "coordinates": [ 121.536884264814915, 31.189702255537771 ] } },
{ "type": "Feature", "properties": { "addr": "上海市 浦东新区 芳芯路210弄  " }, "geometry": { "type": "Point", "coordinates": [ 121.562195280186259, 31.197753542850066 ] } },
{ "type": "Feature", "properties": { "addr": "上海市 浦东新区 芳芯路251弄  " }, "geometry": { "type": "Point", "coordinates": [ 121.563004024636896, 31.198466692796561 ] } },
{ "type": "Feature", "properties": { "addr": "上海市 浦东新区 芳芯路363弄  " }, "geometry": { "type": "Point", "coordinates": [ 121.536884264814915, 31.189702255537771 ] } },
{ "type": "Feature", "properties": { "addr": "上海市 浦东新区 奉新路132号  " }, "geometry": { "type": "Point", "coordinates": [ 121.651378961386328, 31.027174820078262 ] } },
{ "type": "Feature", "properties": { "addr": "上海市 浦东新区 芙蓉路42弄  " }, "geometry": { "type": "Point", "coordinates": [ 121.674710560566425, 31.170931612749175 ] } },
{ "type": "Feature", "properties": { "addr": "上海市 浦东新区 福山路102弄  " }, "geometry": { "type": "Point", "coordinates": [ 121.53400762108032, 31.237370810745112 ] } },
{ "type": "Feature", "properties": { "addr": "上海市 浦东新区 高宝路229弄  " }, "geometry": { "type": "Point", "coordinates": [ 121.627287216083673, 31.297669581878687 ] } },
{ "type": "Feature", "properties": { "addr": "上海市 浦东新区 高宝路300弄  " }, "geometry": { "type": "Point", "coordinates": [ 121.58962611690005, 31.28158489894264 ] } },
{ "type": "Feature", "properties": { "addr": "上海市 浦东新区 高宝路379弄  " }, "geometry": { "type": "Point", "coordinates": [ 121.58962611690005, 31.28158489894264 ] } },
{ "type": "Feature", "properties": { "addr": "上海市 浦东新区 高宝路68弄  " }, "geometry": { "type": "Point", "coordinates": [ 121.627291527950121, 31.297370662599629 ] } },
{ "type": "Feature", "properties": { "addr": "上海市 浦东新区 高城路200弄  " }, "geometry": { "type": "Point", "coordinates": [ 121.580680880462239, 31.340247189797189 ] } },
{ "type": "Feature", "properties": { "addr": "上海市 浦东新区 高东新路500弄  " }, "geometry": { "type": "Point", "coordinates": [ 121.627889080775361, 31.342361696575296 ] } },
{ "type": "Feature", "properties": { "addr": "上海市 浦东新区 高东镇革新村  " }, "geometry": { "type": "Point", "coordinates": [ 121.641532185538694, 31.329295306188307 ] } },
{ "type": "Feature", "properties": { "addr": "上海市 浦东新区 高东镇金光村朱尤陆家宅  " }, "geometry": { "type": "Point", "coordinates": [ 121.641269251515936, 31.302648472007601 ] } },
{ "type": "Feature", "properties": { "addr": "上海市 浦东新区 高东镇龙桥村伏龙桥宅  " }, "geometry": { "type": "Point", "coordinates": [ 121.630055583461939, 31.326336429421183 ] } },
{ "type": "Feature", "properties": { "addr": "上海市 浦东新区 高东镇龙桥村南杨家宅  " }, "geometry": { "type": "Point", "coordinates": [ 121.633531337683522, 31.321220716119758 ] } },
{ "type": "Feature", "properties": { "addr": "上海市 浦东新区 高东镇先锋村卢家宅  " }, "geometry": { "type": "Point", "coordinates": [ 121.591521541526092, 31.290378301115442 ] } },
{ "type": "Feature", "properties": { "addr": "上海市 浦东新区 高东镇先锋村王朱家宅  " }, "geometry": { "type": "Point", "coordinates": [ 121.637110905479688, 31.310571259512379 ] } },
{ "type": "Feature", "properties": { "addr": "上海市 浦东新区 高东镇永新村李蔡家宅  " }, "geometry": { "type": "Point", "coordinates": [ 121.671601255704743, 31.316020774181109 ] } },
{ "type": "Feature", "properties": { "addr": "上海市 浦东新区 高东镇踊跃村黄家门  " }, "geometry": { "type": "Point", "coordinates": [ 121.661479867862724, 31.312434385183288 ] } },
{ "type": "Feature", "properties": { "addr": "上海市 浦东新区 高荷路301弄  " }, "geometry": { "type": "Point", "coordinates": [ 121.582934998478422, 31.34338994142437 ] } },
{ "type": "Feature", "properties": { "addr": "上海市 浦东新区 高科西路2763弄  " }, "geometry": { "type": "Point", "coordinates": [ 121.55990100791378, 31.196831884065706 ] } },
{ "type": "Feature", "properties": { "addr": "上海市 浦东新区 高科西路2907弄  " }, "geometry": { "type": "Point", "coordinates": [ 121.564936369619417, 31.195570814667231 ] } },
{ "type": "Feature", "properties": { "addr": "上海市 浦东新区 高科西路3000弄  " }, "geometry": { "type": "Point", "coordinates": [ 121.570701963874114, 31.195867897271857 ] } },
{ "type": "Feature", "properties": { "addr": "上海市 浦东新区 高科西路3030弄  " }, "geometry": { "type": "Point", "coordinates": [ 121.569848753300732, 31.195892840738562 ] } },
{ "type": "Feature", "properties": { "addr": "上海市 浦东新区 高科西路3050弄  " }, "geometry": { "type": "Point", "coordinates": [ 121.569930409271578, 31.195997325218837 ] } },
{ "type": "Feature", "properties": { "addr": "上海市 浦东新区 高攀路149弄  " }, "geometry": { "type": "Point", "coordinates": [ 121.540847049741643, 31.368259815259339 ] } },
{ "type": "Feature", "properties": { "addr": "上海市 浦东新区 高桥镇顾家圩村杨家宅  " }, "geometry": { "type": "Point", "coordinates": [ 121.565270359608022, 31.371876351851654 ] } },
{ "type": "Feature", "properties": { "addr": "上海市 浦东新区 高桥镇尖角圩  " }, "geometry": { "type": "Point", "coordinates": [ 121.523275744813702, 31.361953760539233 ] } },
{ "type": "Feature", "properties": { "addr": "上海市 浦东新区 高桥镇凌桥村仓房浜  " }, "geometry": { "type": "Point", "coordinates": [ 121.539055648893637, 31.370296143290911 ] } },
{ "type": "Feature", "properties": { "addr": "上海市 浦东新区 高桥镇陆凌村陆家宅  " }, "geometry": { "type": "Point", "coordinates": [ 121.569011802057076, 31.352659130362898 ] } },
{ "type": "Feature", "properties": { "addr": "上海市 浦东新区 高桥镇陆凌村瞿家宅  " }, "geometry": { "type": "Point", "coordinates": [ 121.570109621220823, 31.352399705849844 ] } },
{ "type": "Feature", "properties": { "addr": "上海市 浦东新区 高桥镇陆凌村西凌家宅  " }, "geometry": { "type": "Point", "coordinates": [ 121.581738635200239, 31.353566840637729 ] } },
{ "type": "Feature", "properties": { "addr": "上海市 浦东新区 高桥镇南塘村龚家宅  " }, "geometry": { "type": "Point", "coordinates": [ 121.574680918300004, 31.345394276906958 ] } },
{ "type": "Feature", "properties": { "addr": "上海市 浦东新区 高桥镇南塘村顾家宅  " }, "geometry": { "type": "Point", "coordinates": [ 121.574680918300004, 31.345394276906958 ] } },
{ "type": "Feature", "properties": { "addr": "上海市 浦东新区 高桥镇南塘村姚家宅  " }, "geometry": { "type": "Point", "coordinates": [ 121.574680918300004, 31.345394276906958 ] } },
{ "type": "Feature", "properties": { "addr": "上海市 浦东新区 高桥镇西浜头  " }, "geometry": { "type": "Point", "coordinates": [ 121.615635834297066, 31.292504199206448 ] } },
{ "type": "Feature", "properties": { "addr": "上海市 浦东新区 高桥镇新农村沈家宅  " }, "geometry": { "type": "Point", "coordinates": [ 121.558501268268131, 31.362552263234768 ] } },
{ "type": "Feature", "properties": { "addr": "上海市 浦东新区 高桥镇中新村  " }, "geometry": { "type": "Point", "coordinates": [ 121.548516782185843, 31.357736998023213 ] } },
{ "type": "Feature", "properties": { "addr": "上海市 浦东新区 高青路2861弄  " }, "geometry": { "type": "Point", "coordinates": [ 121.536884264814915, 31.189702255537771 ] } },
{ "type": "Feature", "properties": { "addr": "上海市 浦东新区 高青路2878弄  " }, "geometry": { "type": "Point", "coordinates": [ 121.534383741597352, 31.16614786788632 ] } },
{ "type": "Feature", "properties": { "addr": "上海市 浦东新区 高青路4567弄  " }, "geometry": { "type": "Point", "coordinates": [ 121.536884264814915, 31.189702255537771 ] } },
{ "type": "Feature", "properties": { "addr": "上海市 浦东新区 龚华路35弄  " }, "geometry": { "type": "Point", "coordinates": [ 121.652778790862527, 31.290487771739045 ] } },
{ "type": "Feature", "properties": { "addr": "上海市 浦东新区 龚华路425弄  " }, "geometry": { "type": "Point", "coordinates": [ 121.652778790862527, 31.290487771739045 ] } },
{ "type": "Feature", "properties": { "addr": "上海市 浦东新区 龚华路479弄  " }, "geometry": { "type": "Point", "coordinates": [ 121.693823986563331, 31.265518974474919 ] } },
{ "type": "Feature", "properties": { "addr": "上海市 浦东新区 龚华路50弄  " }, "geometry": { "type": "Point", "coordinates": [ 121.691832533078269, 31.270582837879559 ] } },
{ "type": "Feature", "properties": { "addr": "上海市 浦东新区 拱北路399弄  " }, "geometry": { "type": "Point", "coordinates": [ 121.77779794495828, 31.06135637005891 ] } },
{ "type": "Feature", "properties": { "addr": "上海市 浦东新区 拱川路411弄  " }, "geometry": { "type": "Point", "coordinates": [ 121.74965897401097, 31.069907843106915 ] } },
{ "type": "Feature", "properties": { "addr": "上海市 浦东新区 拱海路240弄  " }, "geometry": { "type": "Point", "coordinates": [ 121.7468341625043, 31.075214482134594 ] } },
{ "type": "Feature", "properties": { "addr": "上海市 浦东新区 拱海路459弄  " }, "geometry": { "type": "Point", "coordinates": [ 121.774859587635135, 31.060910455271795 ] } },
{ "type": "Feature", "properties": { "addr": "上海市 浦东新区 拱海路79弄  " }, "geometry": { "type": "Point", "coordinates": [ 121.74678161163196, 31.07553127655628 ] } },
{ "type": "Feature", "properties": { "addr": "上海市 浦东新区 拱极路4100弄  " }, "geometry": { "type": "Point", "coordinates": [ 121.774859587635135, 31.060910455271795 ] } },
{ "type": "Feature", "properties": { "addr": "上海市 浦东新区 拱为路2600弄  " }, "geometry": { "type": "Point", "coordinates": [ 121.74541825335946, 31.063557763042446 ] } },
{ "type": "Feature", "properties": { "addr": "上海市 浦东新区 古桐南路117弄  " }, "geometry": { "type": "Point", "coordinates": [ 121.622987925912923, 31.205939961452376 ] } },
{ "type": "Feature", "properties": { "addr": "上海市 浦东新区 顾唐路138弄  " }, "geometry": { "type": "Point", "coordinates": [ 121.652778790862527, 31.290487771739045 ] } },
{ "type": "Feature", "properties": { "addr": "上海市 浦东新区 顾唐路3211号  " }, "geometry": { "type": "Point", "coordinates": [ 121.652778790862527, 31.290487771739045 ] } },
{ "type": "Feature", "properties": { "addr": "上海市 浦东新区 崮山路157号  " }, "geometry": { "type": "Point", "coordinates": [ 121.55848599707447, 31.253071819138345 ] } },
{ "type": "Feature", "properties": { "addr": "上海市 浦东新区 崮山路17号  " }, "geometry": { "type": "Point", "coordinates": [ 121.556658753836615, 31.254049880394966 ] } },
{ "type": "Feature", "properties": { "addr": "上海市 浦东新区 崮山路717号  " }, "geometry": { "type": "Point", "coordinates": [ 121.566756426413178, 31.245745874409899 ] } },
{ "type": "Feature", "properties": { "addr": "上海市 浦东新区 崮山路95号  " }, "geometry": { "type": "Point", "coordinates": [ 121.557378206719562, 31.253687382281104 ] } },
{ "type": "Feature", "properties": { "addr": "上海市 浦东新区 崮山路968号  " }, "geometry": { "type": "Point", "coordinates": [ 121.568139277915236, 31.241428762610123 ] } },
{ "type": "Feature", "properties": { "addr": "上海市 浦东新区 关岳路229弄  " }, "geometry": { "type": "Point", "coordinates": [ 121.594448041216509, 31.127375227553234 ] } },
{ "type": "Feature", "properties": { "addr": "上海市 浦东新区 观海路1588弄  " }, "geometry": { "type": "Point", "coordinates": [ 121.774859587635135, 31.060910455271795 ] } },
{ "type": "Feature", "properties": { "addr": "上海市 浦东新区 广益路15弄  " }, "geometry": { "type": "Point", "coordinates": [ 121.771265197798073, 31.115235567359992 ] } },
{ "type": "Feature", "properties": { "addr": "上海市 浦东新区 国展路767号工地生活区  " }, "geometry": { "type": "Point", "coordinates": [ 121.492116566727532, 31.18691279208744 ] } },
{ "type": "Feature", "properties": { "addr": "上海市 浦东新区 海基三路海洋七路交界口工地生活区  " }, "geometry": { "type": "Point", "coordinates": [ 121.894828827476005, 30.900192727463445 ] } },
{ "type": "Feature", "properties": { "addr": "上海市 浦东新区 海鸣路1号工地生活区  " }, "geometry": { "type": "Point", "coordinates": [ 121.678332977535405, 31.289785892321273 ] } },
{ "type": "Feature", "properties": { "addr": "上海市 浦东新区 海鸣路98弄  " }, "geometry": { "type": "Point", "coordinates": [ 121.677548217841903, 31.288627833747729 ] } },
{ "type": "Feature", "properties": { "addr": "上海市 浦东新区 海纳路129弄  " }, "geometry": { "type": "Point", "coordinates": [ 121.676724651350355, 31.298365076552425 ] } },
{ "type": "Feature", "properties": { "addr": "上海市 浦东新区 海鹏路301弄  " }, "geometry": { "type": "Point", "coordinates": [ 121.680730914263762, 31.295363983048894 ] } },
{ "type": "Feature", "properties": { "addr": "上海市 浦东新区 海鹏路380弄  " }, "geometry": { "type": "Point", "coordinates": [ 121.676483635982024, 31.293987138169218 ] } },
{ "type": "Feature", "properties": { "addr": "上海市 浦东新区 海容路399弄  " }, "geometry": { "type": "Point", "coordinates": [ 121.68625863721941, 31.287655457702563 ] } },
{ "type": "Feature", "properties": { "addr": "上海市 浦东新区 海容路99弄  " }, "geometry": { "type": "Point", "coordinates": [ 121.680835027872362, 31.286961889101804 ] } },
{ "type": "Feature", "properties": { "addr": "上海市 浦东新区 海松路398弄  " }, "geometry": { "type": "Point", "coordinates": [ 121.687490753056892, 31.283934428831106 ] } },
{ "type": "Feature", "properties": { "addr": "上海市 浦东新区 海松路52弄  " }, "geometry": { "type": "Point", "coordinates": [ 121.681814360539335, 31.281916196035649 ] } },
{ "type": "Feature", "properties": { "addr": "上海市 浦东新区 海旺路同望路交界口工地生活区  " }, "geometry": { "type": "Point", "coordinates": [ 121.894828827476005, 30.900192727463445 ] } },
{ "type": "Feature", "properties": { "addr": "上海市 浦东新区   " }, "geometry": { "type": "Point", "coordinates": [ 121.550454606831948, 31.227348292436346 ] } },
{ "type": "Feature", "properties": { "addr": "上海市 浦东新区 海阳路1000弄  " }, "geometry": { "type": "Point", "coordinates": [ 121.511721469852731, 31.163812760549717 ] } },
{ "type": "Feature", "properties": { "addr": "上海市 浦东新区 海阳路1065弄  " }, "geometry": { "type": "Point", "coordinates": [ 121.512534975322552, 31.16475645125977 ] } },
{ "type": "Feature", "properties": { "addr": "上海市 浦东新区 海阳路1080弄  " }, "geometry": { "type": "Point", "coordinates": [ 121.513439479140558, 31.164135359227771 ] } },
{ "type": "Feature", "properties": { "addr": "上海市 浦东新区 海阳路1333弄  " }, "geometry": { "type": "Point", "coordinates": [ 121.519576971876376, 31.16616887957148 ] } },
{ "type": "Feature", "properties": { "addr": "上海市 浦东新区 海阳路215弄  " }, "geometry": { "type": "Point", "coordinates": [ 121.49560461137601, 31.159262270593285 ] } },
{ "type": "Feature", "properties": { "addr": "上海市 浦东新区 海阳路450弄  " }, "geometry": { "type": "Point", "coordinates": [ 121.499191455446791, 31.159891892827716 ] } },
{ "type": "Feature", "properties": { "addr": "上海市 浦东新区 海阳路860弄  " }, "geometry": { "type": "Point", "coordinates": [ 121.509555295945958, 31.163217618698081 ] } },
{ "type": "Feature", "properties": { "addr": "上海市 浦东新区 海阳西路500弄  " }, "geometry": { "type": "Point", "coordinates": [ 121.487878375515237, 31.155985462864532 ] } },
{ "type": "Feature", "properties": { "addr": "上海市 浦东新区 航昌路376弄  " }, "geometry": { "type": "Point", "coordinates": [ 121.615217673082157, 31.084972297071307 ] } },
{ "type": "Feature", "properties": { "addr": "上海市 浦东新区 航昌路489弄  " }, "geometry": { "type": "Point", "coordinates": [ 121.61637509481649, 31.080440873866234 ] } },
{ "type": "Feature", "properties": { "addr": "上海市 浦东新区 航城五路401弄  " }, "geometry": { "type": "Point", "coordinates": [ 121.759354834532914, 31.152245366364038 ] } },
{ "type": "Feature", "properties": { "addr": "上海市 浦东新区 航鹤路1000弄  " }, "geometry": { "type": "Point", "coordinates": [ 121.602516621307132, 31.104273708865044 ] } },
{ "type": "Feature", "properties": { "addr": "上海市 浦东新区 航梅路525弄  " }, "geometry": { "type": "Point", "coordinates": [ 121.580651056719304, 31.030666769803151 ] } },
{ "type": "Feature", "properties": { "addr": "上海市 浦东新区 航梅路526弄  " }, "geometry": { "type": "Point", "coordinates": [ 121.58752462099001, 31.028592642453045 ] } },
{ "type": "Feature", "properties": { "addr": "上海市 浦东新区 航瑞路389弄  " }, "geometry": { "type": "Point", "coordinates": [ 121.597768897025801, 31.08069247068563 ] } },
{ "type": "Feature", "properties": { "addr": "上海市 浦东新区 航三路航吉路交界口工地生活区  " }, "geometry": { "type": "Point", "coordinates": [ 121.614290352304209, 31.045793267667019 ] } },
{ "type": "Feature", "properties": { "addr": "上海市 浦东新区 航头镇福善村  " }, "geometry": { "type": "Point", "coordinates": [ 121.61855559669614, 31.03197716526471 ] } },
{ "type": "Feature", "properties": { "addr": "上海市 浦东新区 航头镇果园村  " }, "geometry": { "type": "Point", "coordinates": [ 121.642441899528649, 31.025361102765 ] } },
{ "type": "Feature", "properties": { "addr": "上海市 浦东新区 航头镇航东村  " }, "geometry": { "type": "Point", "coordinates": [ 121.607737213608914, 31.032148438230021 ] } },
{ "type": "Feature", "properties": { "addr": "上海市 浦东新区 航头镇鹤东村沿江  " }, "geometry": { "type": "Point", "coordinates": [ 121.608037966293665, 31.060273364197414 ] } },
{ "type": "Feature", "properties": { "addr": "上海市 浦东新区 航头镇鹤鸣村  " }, "geometry": { "type": "Point", "coordinates": [ 121.600562088178521, 31.050200132685855 ] } },
{ "type": "Feature", "properties": { "addr": "上海市 浦东新区 航头镇梅园村陈家弄  " }, "geometry": { "type": "Point", "coordinates": [ 121.591231748168582, 31.065555026770038 ] } },
{ "type": "Feature", "properties": { "addr": "上海市 浦东新区 航头镇梅园村沙北  " }, "geometry": { "type": "Point", "coordinates": [ 121.591231748168582, 31.065555026770038 ] } },
{ "type": "Feature", "properties": { "addr": "上海市 浦东新区 航头镇牌楼村谈弄  " }, "geometry": { "type": "Point", "coordinates": [ 121.563823009770331, 31.061636477088769 ] } },
{ "type": "Feature", "properties": { "addr": "上海市 浦东新区 航头镇沈庄村大桥  " }, "geometry": { "type": "Point", "coordinates": [ 121.574932717825973, 31.081014986360636 ] } },
{ "type": "Feature", "properties": { "addr": "上海市 浦东新区 航绣路50弄  " }, "geometry": { "type": "Point", "coordinates": [ 121.604393630670245, 31.076577146786715 ] } },
{ "type": "Feature", "properties": { "addr": "上海市 浦东新区 合庆镇蔡路村包家宅  " }, "geometry": { "type": "Point", "coordinates": [ 121.764207480897824, 31.205888844405063 ] } },
{ "type": "Feature", "properties": { "addr": "上海市 浦东新区 合庆镇蔡路村北丁家宅  " }, "geometry": { "type": "Point", "coordinates": [ 121.726683193643368, 31.222466060651534 ] } },
{ "type": "Feature", "properties": { "addr": "上海市 浦东新区 合庆镇蔡路村东蔡家宅  " }, "geometry": { "type": "Point", "coordinates": [ 121.751834430791277, 31.230186868212748 ] } },
{ "type": "Feature", "properties": { "addr": "上海市 浦东新区 合庆镇蔡路村西蔡家宅  " }, "geometry": { "type": "Point", "coordinates": [ 121.737464297051915, 31.219746024972316 ] } },
{ "type": "Feature", "properties": { "addr": "上海市 浦东新区 合庆镇蔡路村杨家宅  " }, "geometry": { "type": "Point", "coordinates": [ 121.74440496474422, 31.209984837533348 ] } },
{ "type": "Feature", "properties": { "addr": "上海市 浦东新区 合庆镇朝阳村中心村  " }, "geometry": { "type": "Point", "coordinates": [ 121.739896099897976, 31.254950601472519 ] } },
{ "type": "Feature", "properties": { "addr": "上海市 浦东新区 合庆镇大星村尹家宅  " }, "geometry": { "type": "Point", "coordinates": [ 121.728318558824284, 31.227287614469063 ] } },
{ "type": "Feature", "properties": { "addr": "上海市 浦东新区 合庆镇东风村陶家宅  " }, "geometry": { "type": "Point", "coordinates": [ 121.705700034558006, 31.232450813592735 ] } },
{ "type": "Feature", "properties": { "addr": "上海市 浦东新区 合庆镇共一村张家宅  " }, "geometry": { "type": "Point", "coordinates": [ 121.732101682649002, 31.261476576156298 ] } },
{ "type": "Feature", "properties": { "addr": "上海市 浦东新区 合庆镇红星村姚家宅  " }, "geometry": { "type": "Point", "coordinates": [ 121.704478967878273, 31.240961009503128 ] } },
{ "type": "Feature", "properties": { "addr": "上海市 浦东新区 合庆镇华星村东宋家宅  " }, "geometry": { "type": "Point", "coordinates": [ 121.709470851597231, 31.208492303617756 ] } },
{ "type": "Feature", "properties": { "addr": "上海市 浦东新区 合庆镇建光村倪家宅  " }, "geometry": { "type": "Point", "coordinates": [ 121.75372910644613, 31.218350771640285 ] } },
{ "type": "Feature", "properties": { "addr": "上海市 浦东新区 合庆镇前哨村顾家宅  " }, "geometry": { "type": "Point", "coordinates": [ 121.744203834140535, 31.247222609396808 ] } },
{ "type": "Feature", "properties": { "addr": "上海市 浦东新区 合庆镇勤奋村黄家宅  " }, "geometry": { "type": "Point", "coordinates": [ 121.732136986055536, 31.263033858586162 ] } },
{ "type": "Feature", "properties": { "addr": "上海市 浦东新区 合庆镇勤奋村九队新村  " }, "geometry": { "type": "Point", "coordinates": [ 121.730730868440773, 31.268245472765493 ] } },
{ "type": "Feature", "properties": { "addr": "上海市 浦东新区 合庆镇勤奋村徐家宅  " }, "geometry": { "type": "Point", "coordinates": [ 121.740394030642165, 31.255172867012874 ] } },
{ "type": "Feature", "properties": { "addr": "上海市 浦东新区 合庆镇勤奋村颜家宅  " }, "geometry": { "type": "Point", "coordinates": [ 121.718486333001678, 31.210331189522361 ] } },
{ "type": "Feature", "properties": { "addr": "上海市 浦东新区 合庆镇勤奋村张家宅  " }, "geometry": { "type": "Point", "coordinates": [ 121.732101682649002, 31.261476576156298 ] } },
{ "type": "Feature", "properties": { "addr": "上海市 浦东新区 合庆镇勤俭村中陆家宅  " }, "geometry": { "type": "Point", "coordinates": [ 121.718486333001678, 31.210331189522361 ] } },
{ "type": "Feature", "properties": { "addr": "上海市 浦东新区 合庆镇勤益村凤家宅  " }, "geometry": { "type": "Point", "coordinates": [ 121.716810366935945, 31.215195470671564 ] } },
{ "type": "Feature", "properties": { "addr": "上海市 浦东新区 合庆镇勤益村刘家宅  " }, "geometry": { "type": "Point", "coordinates": [ 121.716810366935945, 31.215195470671564 ] } },
{ "type": "Feature", "properties": { "addr": "上海市 浦东新区 合庆镇勤益村南顾家宅  " }, "geometry": { "type": "Point", "coordinates": [ 121.716810366935945, 31.215195470671564 ] } },
{ "type": "Feature", "properties": { "addr": "上海市 浦东新区 合庆镇青四村龚家宅  " }, "geometry": { "type": "Point", "coordinates": [ 121.743695932205185, 31.234053814552556 ] } },
{ "type": "Feature", "properties": { "addr": "上海市 浦东新区 合庆镇庆丰村东新宅  " }, "geometry": { "type": "Point", "coordinates": [ 121.723719504104849, 31.247052191371662 ] } },
{ "type": "Feature", "properties": { "addr": "上海市 浦东新区 合庆镇庆丰村唐家宅  " }, "geometry": { "type": "Point", "coordinates": [ 121.723719504104849, 31.247052191371662 ] } },
{ "type": "Feature", "properties": { "addr": "上海市 浦东新区 合庆镇庆星村凤家码头  " }, "geometry": { "type": "Point", "coordinates": [ 121.725707094876228, 31.240436443995055 ] } },
{ "type": "Feature", "properties": { "addr": "上海市 浦东新区 合庆镇庆星村顾家宅  " }, "geometry": { "type": "Point", "coordinates": [ 121.725707094876228, 31.240436443995055 ] } },
{ "type": "Feature", "properties": { "addr": "上海市 浦东新区 合庆镇庆星村徐家宅  " }, "geometry": { "type": "Point", "coordinates": [ 121.718556133864041, 31.229420815107666 ] } },
{ "type": "Feature", "properties": { "addr": "上海市 浦东新区 合庆镇庆星村薛家宅  " }, "geometry": { "type": "Point", "coordinates": [ 121.720667690795793, 31.241418342393125 ] } },
{ "type": "Feature", "properties": { "addr": "上海市 浦东新区 合庆镇奚家村卫家宅  " }, "geometry": { "type": "Point", "coordinates": [ 121.71794366916734, 31.253619621140711 ] } },
{ "type": "Feature", "properties": { "addr": "上海市 浦东新区 合庆镇益民村老周家宅  " }, "geometry": { "type": "Point", "coordinates": [ 121.712265030886016, 31.223873990851512 ] } },
{ "type": "Feature", "properties": { "addr": "上海市 浦东新区 合庆镇益民村三村宅  " }, "geometry": { "type": "Point", "coordinates": [ 121.727663244954755, 31.231395331384885 ] } },
{ "type": "Feature", "properties": { "addr": "上海市 浦东新区 合庆镇益民村西周家宅  " }, "geometry": { "type": "Point", "coordinates": [ 121.717089111135707, 31.229604697458797 ] } },
{ "type": "Feature", "properties": { "addr": "上海市 浦东新区 合庆镇营房村青晏二宅  " }, "geometry": { "type": "Point", "coordinates": [ 121.740505510355945, 31.214404312540196 ] } },
{ "type": "Feature", "properties": { "addr": "上海市 浦东新区 合庆镇营房村云镇宅  " }, "geometry": { "type": "Point", "coordinates": [ 121.742081317881556, 31.216227432867615 ] } },
{ "type": "Feature", "properties": { "addr": "上海市 浦东新区 合庆镇永红村丁家宅  " }, "geometry": { "type": "Point", "coordinates": [ 121.716091812358513, 31.24084075180815 ] } },
{ "type": "Feature", "properties": { "addr": "上海市 浦东新区 合庆镇永红村秦家宅  " }, "geometry": { "type": "Point", "coordinates": [ 121.716091812358513, 31.24084075180815 ] } },
{ "type": "Feature", "properties": { "addr": "上海市 浦东新区 合庆镇永红村奚家宅  " }, "geometry": { "type": "Point", "coordinates": [ 121.710332613302441, 31.235344555116807 ] } },
{ "type": "Feature", "properties": { "addr": "上海市 浦东新区 合庆镇永红村薛家宅  " }, "geometry": { "type": "Point", "coordinates": [ 121.716091812358513, 31.24084075180815 ] } },
{ "type": "Feature", "properties": { "addr": "上海市 浦东新区 合庆镇跃进村凤家宅  " }, "geometry": { "type": "Point", "coordinates": [ 121.716804617780696, 31.215272524653621 ] } },
{ "type": "Feature", "properties": { "addr": "上海市 浦东新区 合庆镇跃进村西石家宅  " }, "geometry": { "type": "Point", "coordinates": [ 121.699351260366228, 31.210504632171713 ] } },
{ "type": "Feature", "properties": { "addr": "上海市 浦东新区 和佳路105弄  " }, "geometry": { "type": "Point", "coordinates": [ 121.520302084084037, 31.133297374938646 ] } },
{ "type": "Feature", "properties": { "addr": "上海市 浦东新区 和炯路501弄  " }, "geometry": { "type": "Point", "coordinates": [ 121.514792417069131, 31.130441910053602 ] } },
{ "type": "Feature", "properties": { "addr": "上海市 浦东新区 和炯路601弄  " }, "geometry": { "type": "Point", "coordinates": [ 121.515954914229596, 31.130611149249244 ] } },
{ "type": "Feature", "properties": { "addr": "上海市 浦东新区 和炯路77弄  " }, "geometry": { "type": "Point", "coordinates": [ 121.525530311982649, 31.139159418419815 ] } },
{ "type": "Feature", "properties": { "addr": "上海市 浦东新区 和龙路55弄  " }, "geometry": { "type": "Point", "coordinates": [ 121.57975787174837, 31.344955201239863 ] } },
{ "type": "Feature", "properties": { "addr": "上海市 浦东新区 和融路55弄  " }, "geometry": { "type": "Point", "coordinates": [ 121.506367658843814, 31.130799475794813 ] } },
{ "type": "Feature", "properties": { "addr": "上海市 浦东新区 菏泽路25弄  " }, "geometry": { "type": "Point", "coordinates": [ 121.596780042320418, 31.279692532722535 ] } },
{ "type": "Feature", "properties": { "addr": "上海市 浦东新区 菏泽路418弄  " }, "geometry": { "type": "Point", "coordinates": [ 121.599919620077785, 31.272950237215621 ] } },
{ "type": "Feature", "properties": { "addr": "上海市 浦东新区 菏泽路567弄  " }, "geometry": { "type": "Point", "coordinates": [ 121.601772100444435, 31.270406002106668 ] } },
{ "type": "Feature", "properties": { "addr": "上海市 浦东新区 菏泽路58弄  " }, "geometry": { "type": "Point", "coordinates": [ 121.596685001597464, 31.278713042423398 ] } },
{ "type": "Feature", "properties": { "addr": "上海市 浦东新区 鹤驰路88弄  " }, "geometry": { "type": "Point", "coordinates": [ 121.600970727355005, 31.086394893804805 ] } },
{ "type": "Feature", "properties": { "addr": "上海市 浦东新区 鹤恒路600弄  " }, "geometry": { "type": "Point", "coordinates": [ 121.606671823274084, 31.080453940834996 ] } },
{ "type": "Feature", "properties": { "addr": "上海市 浦东新区 鹤沙路201弄  " }, "geometry": { "type": "Point", "coordinates": [ 121.605880595780903, 31.087527234505693 ] } },
{ "type": "Feature", "properties": { "addr": "上海市 浦东新区 鹤沙路688弄  " }, "geometry": { "type": "Point", "coordinates": [ 121.596526809997158, 31.087665780240538 ] } },
{ "type": "Feature", "properties": { "addr": "上海市 浦东新区 鹤永路599弄  " }, "geometry": { "type": "Point", "coordinates": [ 121.609669828083085, 31.080345152465775 ] } },
{ "type": "Feature", "properties": { "addr": "上海市 浦东新区 鹤永路750弄  " }, "geometry": { "type": "Point", "coordinates": [ 121.609967885851304, 31.077777493950869 ] } },
{ "type": "Feature", "properties": { "addr": "上海市 浦东新区 鹤韵路549弄  " }, "geometry": { "type": "Point", "coordinates": [ 121.603665015071087, 31.080751851766777 ] } },
{ "type": "Feature", "properties": { "addr": "上海市 浦东新区 恒庆路曹卫家路交界口工地生活区  " }, "geometry": { "type": "Point", "coordinates": [ 121.719515524148704, 31.251291093157224 ] } },
{ "type": "Feature", "properties": { "addr": "上海市 浦东新区 横桥路136弄  " }, "geometry": { "type": "Point", "coordinates": [ 121.581984231926668, 31.114129607532206 ] } },
{ "type": "Feature", "properties": { "addr": "上海市 浦东新区 虹盛路250弄  " }, "geometry": { "type": "Point", "coordinates": [ 121.687377836054281, 31.247623183151326 ] } },
{ "type": "Feature", "properties": { "addr": "上海市 浦东新区 洪山路121弄  " }, "geometry": { "type": "Point", "coordinates": [ 121.505002773451949, 31.18470970220126 ] } },
{ "type": "Feature", "properties": { "addr": "上海市 浦东新区 洪山路180弄  " }, "geometry": { "type": "Point", "coordinates": [ 121.505582090675318, 31.182015139001965 ] } },
{ "type": "Feature", "properties": { "addr": "上海市 浦东新区 洪山路1889弄  " }, "geometry": { "type": "Point", "coordinates": [ 121.5163869991799, 31.157596571078781 ] } },
{ "type": "Feature", "properties": { "addr": "上海市 浦东新区 洪山路301弄  " }, "geometry": { "type": "Point", "coordinates": [ 121.510356225138665, 31.17560249621198 ] } },
{ "type": "Feature", "properties": { "addr": "上海市 浦东新区 洪山路851弄  " }, "geometry": { "type": "Point", "coordinates": [ 121.511211771306364, 31.166624337590093 ] } },
{ "type": "Feature", "properties": { "addr": "上海市 浦东新区 沪二小区  " }, "geometry": { "type": "Point", "coordinates": [ 121.589043475946283, 31.274819978085866 ] } },
{ "type": "Feature", "properties": { "addr": "上海市 浦东新区 沪南公路3188号  " }, "geometry": { "type": "Point", "coordinates": [ 121.572911975089752, 31.126961388150686 ] } },
{ "type": "Feature", "properties": { "addr": "上海市 浦东新区 沪南公路5192号  " }, "geometry": { "type": "Point", "coordinates": [ 121.595382997591301, 31.058301819203898 ] } },
{ "type": "Feature", "properties": { "addr": "上海市 浦东新区 沪南路1351弄  " }, "geometry": { "type": "Point", "coordinates": [ 121.536884264814915, 31.189702255537771 ] } },
{ "type": "Feature", "properties": { "addr": "上海市 浦东新区 沪南路2688弄  " }, "geometry": { "type": "Point", "coordinates": [ 121.570334646751078, 31.143972355375933 ] } },
{ "type": "Feature", "properties": { "addr": "上海市 浦东新区 沪南路2731弄  " }, "geometry": { "type": "Point", "coordinates": [ 121.536884264814915, 31.189702255537771 ] } },
{ "type": "Feature", "properties": { "addr": "上海市 浦东新区 沪南路3150弄  " }, "geometry": { "type": "Point", "coordinates": [ 121.572258906984004, 31.128503519931538 ] } },
{ "type": "Feature", "properties": { "addr": "上海市 浦东新区 沪南路3468弄  " }, "geometry": { "type": "Point", "coordinates": [ 121.571596496500945, 31.122291020369307 ] } },
{ "type": "Feature", "properties": { "addr": "上海市 浦东新区 沪南路4851弄  " }, "geometry": { "type": "Point", "coordinates": [ 121.536884264814915, 31.189702255537771 ] } },
{ "type": "Feature", "properties": { "addr": "上海市 浦东新区 沪南路4855弄  " }, "geometry": { "type": "Point", "coordinates": [ 121.536884264814915, 31.189702255537771 ] } },
{ "type": "Feature", "properties": { "addr": "上海市 浦东新区 沪一小区  " }, "geometry": { "type": "Point", "coordinates": [ 121.590529542751426, 31.275839554420081 ] } },
{ "type": "Feature", "properties": { "addr": "上海市 浦东新区 花木路1983弄  " }, "geometry": { "type": "Point", "coordinates": [ 121.575380069478413, 31.221188737664299 ] } },
{ "type": "Feature", "properties": { "addr": "上海市 浦东新区 花木路500弄  " }, "geometry": { "type": "Point", "coordinates": [ 121.549098435003543, 31.217811873407079 ] } },
{ "type": "Feature", "properties": { "addr": "上海市 浦东新区 花木路718弄  " }, "geometry": { "type": "Point", "coordinates": [ 121.555716700848308, 31.215542907964664 ] } },
{ "type": "Feature", "properties": { "addr": "上海市 浦东新区 花木镇龙王庙村南杨家堂  " }, "geometry": { "type": "Point", "coordinates": [ 121.558963805775221, 31.202723239483021 ] } },
{ "type": "Feature", "properties": { "addr": "上海市 浦东新区 花山路300弄  " }, "geometry": { "type": "Point", "coordinates": [ 121.575701662850989, 31.352227321137764 ] } },
{ "type": "Feature", "properties": { "addr": "上海市 浦东新区 华春路100弄  " }, "geometry": { "type": "Point", "coordinates": [ 121.526840041416207, 31.213179845684934 ] } },
{ "type": "Feature", "properties": { "addr": "上海市 浦东新区 华春路成山路交界口工地生活区  " }, "geometry": { "type": "Point", "coordinates": [ 121.515782529402244, 31.178238542186499 ] } },
{ "type": "Feature", "properties": { "addr": "上海市 浦东新区 华丰路50弄  " }, "geometry": { "type": "Point", "coordinates": [ 121.514504959305938, 31.197495463859788 ] } },
{ "type": "Feature", "properties": { "addr": "上海市 浦东新区 华丰路51弄  " }, "geometry": { "type": "Point", "coordinates": [ 121.515210847775691, 31.199322311123414 ] } },
{ "type": "Feature", "properties": { "addr": "上海市 浦东新区 华鹏路390弄  " }, "geometry": { "type": "Point", "coordinates": [ 121.53233048469319, 31.178339879558539 ] } },
{ "type": "Feature", "properties": { "addr": "上海市 浦东新区 华佗路678号  " }, "geometry": { "type": "Point", "coordinates": [ 121.600256933796786, 31.196328307807022 ] } },
{ "type": "Feature", "properties": { "addr": "上海市 浦东新区 华夏东路1152弄  " }, "geometry": { "type": "Point", "coordinates": [ 121.680584131143434, 31.202613202750292 ] } },
{ "type": "Feature", "properties": { "addr": "上海市 浦东新区 华夏东路1668弄  " }, "geometry": { "type": "Point", "coordinates": [ 121.687788990486197, 31.203381990019501 ] } },
{ "type": "Feature", "properties": { "addr": "上海市 浦东新区 华夏东路1801弄  " }, "geometry": { "type": "Point", "coordinates": [ 121.691875651742734, 31.205936872809836 ] } },
{ "type": "Feature", "properties": { "addr": "上海市 浦东新区 华夏东路2026弄  " }, "geometry": { "type": "Point", "coordinates": [ 121.697008479596207, 31.205438982299057 ] } },
{ "type": "Feature", "properties": { "addr": "上海市 浦东新区 华夏东路2110弄  " }, "geometry": { "type": "Point", "coordinates": [ 121.699235019633235, 31.205382845904523 ] } },
{ "type": "Feature", "properties": { "addr": "上海市 浦东新区 华夏东路2170弄  " }, "geometry": { "type": "Point", "coordinates": [ 121.699897250455194, 31.205711633277275 ] } },
{ "type": "Feature", "properties": { "addr": "上海市 浦东新区 华夏东路860弄  " }, "geometry": { "type": "Point", "coordinates": [ 121.672341549275515, 31.200330123733838 ] } },
{ "type": "Feature", "properties": { "addr": "上海市 浦东新区 华夏二路1255弄  " }, "geometry": { "type": "Point", "coordinates": [ 121.698001915659688, 31.182811977167781 ] } },
{ "type": "Feature", "properties": { "addr": "上海市 浦东新区 华夏二路1278弄  " }, "geometry": { "type": "Point", "coordinates": [ 121.696026452012688, 31.181511714829725 ] } },
{ "type": "Feature", "properties": { "addr": "上海市 浦东新区 华夏二路1455弄  " }, "geometry": { "type": "Point", "coordinates": [ 121.699507026541667, 31.17862187802573 ] } },
{ "type": "Feature", "properties": { "addr": "上海市 浦东新区 华夏二路200弄  " }, "geometry": { "type": "Point", "coordinates": [ 121.690606435887702, 31.200057534311252 ] } },
{ "type": "Feature", "properties": { "addr": "上海市 浦东新区 华夏二路350弄  " }, "geometry": { "type": "Point", "coordinates": [ 121.691059990339681, 31.198575884956675 ] } },
{ "type": "Feature", "properties": { "addr": "上海市 浦东新区 华夏二路728弄  " }, "geometry": { "type": "Point", "coordinates": [ 121.692337740097088, 31.193374057652374 ] } },
{ "type": "Feature", "properties": { "addr": "上海市 浦东新区 华绣路179弄  " }, "geometry": { "type": "Point", "coordinates": [ 121.531950321801361, 31.190764154415543 ] } },
{ "type": "Feature", "properties": { "addr": "上海市 浦东新区 环林东路271弄  " }, "geometry": { "type": "Point", "coordinates": [ 121.53316411220645, 31.155298952705344 ] } },
{ "type": "Feature", "properties": { "addr": "上海市 浦东新区 环林东路906弄  " }, "geometry": { "type": "Point", "coordinates": [ 121.535471409908823, 31.147928347932531 ] } },
{ "type": "Feature", "properties": { "addr": "上海市 浦东新区 环林西路608弄  " }, "geometry": { "type": "Point", "coordinates": [ 121.526498146339108, 31.146505600587343 ] } },
{ "type": "Feature", "properties": { "addr": "上海市 浦东新区 环林西路613弄  " }, "geometry": { "type": "Point", "coordinates": [ 121.530575195726684, 31.146684082619981 ] } },
{ "type": "Feature", "properties": { "addr": "上海市 浦东新区 环林西路618弄  " }, "geometry": { "type": "Point", "coordinates": [ 121.529071701794649, 31.145718962095959 ] } },
{ "type": "Feature", "properties": { "addr": "上海市 浦东新区 环林西路777弄  " }, "geometry": { "type": "Point", "coordinates": [ 121.532913844291357, 31.146582247458515 ] } },
{ "type": "Feature", "properties": { "addr": "上海市 浦东新区 环林西路848弄  " }, "geometry": { "type": "Point", "coordinates": [ 121.533353025855192, 31.145449227254158 ] } },
{ "type": "Feature", "properties": { "addr": "上海市 浦东新区 环桥路1137弄  " }, "geometry": { "type": "Point", "coordinates": [ 121.584859707864112, 31.120077939878794 ] } },
{ "type": "Feature", "properties": { "addr": "上海市 浦东新区 环桥路1481弄  " }, "geometry": { "type": "Point", "coordinates": [ 121.584859707864112, 31.120077939878794 ] } },
{ "type": "Feature", "properties": { "addr": "上海市 浦东新区 环桥路1488弄  " }, "geometry": { "type": "Point", "coordinates": [ 121.584859707864112, 31.120077939878794 ] } },
{ "type": "Feature", "properties": { "addr": "上海市 浦东新区 环庆南路336弄  " }, "geometry": { "type": "Point", "coordinates": [ 121.734689790653803, 31.232471810411941 ] } },
{ "type": "Feature", "properties": { "addr": "上海市 浦东新区 汇庆路889号生活区  " }, "geometry": { "type": "Point", "coordinates": [ 121.717961186124796, 31.245291804393617 ] } },
{ "type": "Feature", "properties": { "addr": "上海市 浦东新区 惠北新村马家宅  " }, "geometry": { "type": "Point", "coordinates": [ 121.766580983716281, 31.056104170346735 ] } },
{ "type": "Feature", "properties": { "addr": "上海市 浦东新区 惠南镇城北村  " }, "geometry": { "type": "Point", "coordinates": [ 121.753554835177184, 31.061711027797873 ] } },
{ "type": "Feature", "properties": { "addr": "上海市 浦东新区 惠南镇黄路村富强  " }, "geometry": { "type": "Point", "coordinates": [ 121.772434252588738, 31.035656061792992 ] } },
{ "type": "Feature", "properties": { "addr": "上海市 浦东新区 惠南镇惠东村  " }, "geometry": { "type": "Point", "coordinates": [ 121.783071627115703, 31.046320700815905 ] } },
{ "type": "Feature", "properties": { "addr": "上海市 浦东新区 惠南镇六灶湾村勤俭  " }, "geometry": { "type": "Point", "coordinates": [ 121.782925562639775, 31.018703724797803 ] } },
{ "type": "Feature", "properties": { "addr": "上海市 浦东新区 惠南镇陆楼村长路  " }, "geometry": { "type": "Point", "coordinates": [ 121.780804034516862, 31.081000973550498 ] } },
{ "type": "Feature", "properties": { "addr": "上海市 浦东新区 惠南镇桥北村桥西  " }, "geometry": { "type": "Point", "coordinates": [ 121.814092721461222, 31.021966284769476 ] } },
{ "type": "Feature", "properties": { "addr": "上海市 浦东新区 惠南镇双店村邬店  " }, "geometry": { "type": "Point", "coordinates": [ 121.820810609387038, 31.004711247704954 ] } },
{ "type": "Feature", "properties": { "addr": "上海市 浦东新区 惠南镇英雄村  " }, "geometry": { "type": "Point", "coordinates": [ 121.759684602485635, 31.034120375692826 ] } },
{ "type": "Feature", "properties": { "addr": "上海市 浦东新区 惠南镇永乐村  " }, "geometry": { "type": "Point", "coordinates": [ 121.762237676575538, 31.081001669420488 ] } },
{ "type": "Feature", "properties": { "addr": "上海市 浦东新区 吉灿路17弄  " }, "geometry": { "type": "Point", "coordinates": [ 121.712895731184574, 31.116515338861625 ] } },
{ "type": "Feature", "properties": { "addr": "上海市 浦东新区 季景北路185弄  " }, "geometry": { "type": "Point", "coordinates": [ 121.591100326072478, 31.348164315361803 ] } },
{ "type": "Feature", "properties": { "addr": "上海市 浦东新区 季景北路286弄  " }, "geometry": { "type": "Point", "coordinates": [ 121.589325004893098, 31.348648570193177 ] } },
{ "type": "Feature", "properties": { "addr": "上海市 浦东新区 济阳路65弄  " }, "geometry": { "type": "Point", "coordinates": [ 121.488308933346161, 31.173016198002603 ] } },
{ "type": "Feature", "properties": { "addr": "上海市 浦东新区 济阳路95弄  " }, "geometry": { "type": "Point", "coordinates": [ 121.488983291292513, 31.169708122618275 ] } },
{ "type": "Feature", "properties": { "addr": "上海市 浦东新区 佳京路99弄  " }, "geometry": { "type": "Point", "coordinates": [ 121.616217307453667, 31.278438212342575 ] } },
{ "type": "Feature", "properties": { "addr": "上海市 浦东新区 佳乐路255弄  " }, "geometry": { "type": "Point", "coordinates": [ 121.622398906990028, 31.274493516866418 ] } },
{ "type": "Feature", "properties": { "addr": "上海市 浦东新区 建中路126弄  " }, "geometry": { "type": "Point", "coordinates": [ 121.620865589315045, 31.209758372329954 ] } },
{ "type": "Feature", "properties": { "addr": "上海市 浦东新区 建中路171弄  " }, "geometry": { "type": "Point", "coordinates": [ 121.525530311982649, 31.139159418419815 ] } },
{ "type": "Feature", "properties": { "addr": "上海市 浦东新区 江东路1380弄  " }, "geometry": { "type": "Point", "coordinates": [ 121.550349594917833, 31.370364282197176 ] } },
{ "type": "Feature", "properties": { "addr": "上海市 浦东新区 江东路238号  " }, "geometry": { "type": "Point", "coordinates": [ 121.554374003602533, 31.365936814524236 ] } },
{ "type": "Feature", "properties": { "addr": "上海市 浦东新区 江东路25号  " }, "geometry": { "type": "Point", "coordinates": [ 121.555930138237471, 31.368827676072844 ] } },
{ "type": "Feature", "properties": { "addr": "上海市 浦东新区 江高路39弄  " }, "geometry": { "type": "Point", "coordinates": [ 121.485615543935594, 31.155665231145377 ] } },
{ "type": "Feature", "properties": { "addr": "上海市 浦东新区 江绣路59弄  " }, "geometry": { "type": "Point", "coordinates": [ 121.745660613191689, 31.174232291519893 ] } },
{ "type": "Feature", "properties": { "addr": "上海市 浦东新区 界浜路55弄  " }, "geometry": { "type": "Point", "coordinates": [ 121.649959998002757, 31.133739469275621 ] } },
{ "type": "Feature", "properties": { "addr": "上海市 浦东新区 金浜村  " }, "geometry": { "type": "Point", "coordinates": [ 121.568140715204052, 31.263265828168379 ] } },
{ "type": "Feature", "properties": { "addr": "上海市 浦东新区 金丰路158弄  " }, "geometry": { "type": "Point", "coordinates": [ 121.661982379964996, 31.243434902909012 ] } },
{ "type": "Feature", "properties": { "addr": "上海市 浦东新区 金港路199弄  " }, "geometry": { "type": "Point", "coordinates": [ 121.617204006225819, 31.262707896363811 ] } },
{ "type": "Feature", "properties": { "addr": "上海市 浦东新区 金港路龙东大道交界口工地生活区  " }, "geometry": { "type": "Point", "coordinates": [ 121.657993454347945, 31.233418206266808 ] } },
{ "type": "Feature", "properties": { "addr": "上海市 浦东新区 金高路2131弄  " }, "geometry": { "type": "Point", "coordinates": [ 121.617046533269928, 31.267471971131776 ] } },
{ "type": "Feature", "properties": { "addr": "上海市 浦东新区 金工路172弄  " }, "geometry": { "type": "Point", "coordinates": [ 121.596564808320238, 31.262466587897183 ] } },
{ "type": "Feature", "properties": { "addr": "上海市 浦东新区 金海路3333弄  " }, "geometry": { "type": "Point", "coordinates": [ 121.669355042777042, 31.276255900084443 ] } },
{ "type": "Feature", "properties": { "addr": "上海市 浦东新区 金沪路1218弄  " }, "geometry": { "type": "Point", "coordinates": [ 121.610691291278485, 31.246915347325004 ] } },
{ "type": "Feature", "properties": { "addr": "上海市 浦东新区 金沪路99弄  " }, "geometry": { "type": "Point", "coordinates": [ 121.617332913066519, 31.26308070012837 ] } },
{ "type": "Feature", "properties": { "addr": "上海市 浦东新区 金槐路金粤路交界口工地生活区  " }, "geometry": { "type": "Point", "coordinates": [ 121.635730838724712, 31.244857105348114 ] } },
{ "type": "Feature", "properties": { "addr": "上海市 浦东新区 金吉路33弄  " }, "geometry": { "type": "Point", "coordinates": [ 121.652778790862527, 31.290487771739045 ] } },
{ "type": "Feature", "properties": { "addr": "上海市 浦东新区 金科路1800号  " }, "geometry": { "type": "Point", "coordinates": [ 121.603032967314263, 31.232003935319639 ] } },
{ "type": "Feature", "properties": { "addr": "上海市 浦东新区 金口路411弄  " }, "geometry": { "type": "Point", "coordinates": [ 121.586485461176068, 31.253118048256365 ] } },
{ "type": "Feature", "properties": { "addr": "上海市 浦东新区 金口路44弄  " }, "geometry": { "type": "Point", "coordinates": [ 121.582548637278592, 31.255358242243361 ] } },
{ "type": "Feature", "properties": { "addr": "上海市 浦东新区 金口路471弄  " }, "geometry": { "type": "Point", "coordinates": [ 121.589308206580071, 31.252606825486168 ] } },
{ "type": "Feature", "properties": { "addr": "上海市 浦东新区 金口路53弄  " }, "geometry": { "type": "Point", "coordinates": [ 121.583033812084523, 31.256732646879147 ] } },
{ "type": "Feature", "properties": { "addr": "上海市 浦东新区 金葵路1115弄  " }, "geometry": { "type": "Point", "coordinates": [ 121.602138614348533, 31.244250205910852 ] } },
{ "type": "Feature", "properties": { "addr": "上海市 浦东新区 金葵路560弄  " }, "geometry": { "type": "Point", "coordinates": [ 121.625625350890218, 31.244196022404445 ] } },
{ "type": "Feature", "properties": { "addr": "上海市 浦东新区 金睦路353弄  " }, "geometry": { "type": "Point", "coordinates": [ 121.681557714655128, 31.293510699442031 ] } },
{ "type": "Feature", "properties": { "addr": "上海市 浦东新区 金桥路1490弄  " }, "geometry": { "type": "Point", "coordinates": [ 121.595470941700725, 31.256168039053936 ] } },
{ "type": "Feature", "properties": { "addr": "上海市 浦东新区 金桥路1498弄  " }, "geometry": { "type": "Point", "coordinates": [ 121.595704770624977, 31.256519645967902 ] } },
{ "type": "Feature", "properties": { "addr": "上海市 浦东新区 金桥路1500弄  " }, "geometry": { "type": "Point", "coordinates": [ 121.596336998042887, 31.25684416346698 ] } },
{ "type": "Feature", "properties": { "addr": "上海市 浦东新区 金桥路1506弄  " }, "geometry": { "type": "Point", "coordinates": [ 121.596460784542174, 31.255564377215766 ] } },
{ "type": "Feature", "properties": { "addr": "上海市 浦东新区 金桥路226弄  " }, "geometry": { "type": "Point", "coordinates": [ 121.621784825343411, 31.260663815674061 ] } },
{ "type": "Feature", "properties": { "addr": "上海市 浦东新区 金桥路2618号  " }, "geometry": { "type": "Point", "coordinates": [ 121.61007999437895, 31.23895589678164 ] } },
{ "type": "Feature", "properties": { "addr": "上海市 浦东新区 金桥路301弄  " }, "geometry": { "type": "Point", "coordinates": [ 121.578617113383615, 31.272879017805192 ] } },
{ "type": "Feature", "properties": { "addr": "上海市 浦东新区 金桥路351弄  " }, "geometry": { "type": "Point", "coordinates": [ 121.57962303589369, 31.273050854795017 ] } },
{ "type": "Feature", "properties": { "addr": "上海市 浦东新区 金桥路825号  " }, "geometry": { "type": "Point", "coordinates": [ 121.585023289297482, 31.267215010373118 ] } },
{ "type": "Feature", "properties": { "addr": "上海市 浦东新区 金桥路835弄  " }, "geometry": { "type": "Point", "coordinates": [ 121.621784825343411, 31.260663815674061 ] } },
{ "type": "Feature", "properties": { "addr": "上海市 浦东新区 金桥镇王家桥村新宅  " }, "geometry": { "type": "Point", "coordinates": [ 121.642206453654495, 31.24833734246851 ] } },
{ "type": "Feature", "properties": { "addr": "上海市 浦东新区 金穗路778号生活区  " }, "geometry": { "type": "Point", "coordinates": [ 121.640680771576342, 31.283541340157715 ] } },
{ "type": "Feature", "properties": { "addr": "上海市 浦东新区 金台路115弄  " }, "geometry": { "type": "Point", "coordinates": [ 121.590903956487992, 31.255653437261628 ] } },
{ "type": "Feature", "properties": { "addr": "上海市 浦东新区 金台路161弄  " }, "geometry": { "type": "Point", "coordinates": [ 121.593995744392245, 31.257889557480873 ] } },
{ "type": "Feature", "properties": { "addr": "上海市 浦东新区 金皖路55号生活区  " }, "geometry": { "type": "Point", "coordinates": [ 121.620628975643726, 31.264899862386446 ] } },
{ "type": "Feature", "properties": { "addr": "上海市 浦东新区 金湘路201弄  " }, "geometry": { "type": "Point", "coordinates": [ 121.619764626082016, 31.261871069580963 ] } },
{ "type": "Feature", "properties": { "addr": "上海市 浦东新区 金晓路289弄  " }, "geometry": { "type": "Point", "coordinates": [ 121.684608090675368, 31.281229528653629 ] } },
{ "type": "Feature", "properties": { "addr": "上海市 浦东新区 金杨路1155弄  " }, "geometry": { "type": "Point", "coordinates": [ 121.595565712932029, 31.26379227197009 ] } },
{ "type": "Feature", "properties": { "addr": "上海市 浦东新区 金杨路220弄  " }, "geometry": { "type": "Point", "coordinates": [ 121.581187165447659, 31.253056383701526 ] } },
{ "type": "Feature", "properties": { "addr": "上海市 浦东新区 金杨路308弄  " }, "geometry": { "type": "Point", "coordinates": [ 121.583875524347391, 31.253610128402997 ] } },
{ "type": "Feature", "properties": { "addr": "上海市 浦东新区 金杨路660弄  " }, "geometry": { "type": "Point", "coordinates": [ 121.588399929878932, 31.25750168417267 ] } },
{ "type": "Feature", "properties": { "addr": "上海市 浦东新区 金杨路685弄  " }, "geometry": { "type": "Point", "coordinates": [ 121.588343067140158, 31.258255434906122 ] } },
{ "type": "Feature", "properties": { "addr": "上海市 浦东新区 金杨路757弄  " }, "geometry": { "type": "Point", "coordinates": [ 121.588991553887809, 31.259965802192976 ] } },
{ "type": "Feature", "properties": { "addr": "上海市 浦东新区 金杨路785弄  " }, "geometry": { "type": "Point", "coordinates": [ 121.589437562573522, 31.259698788471169 ] } },
{ "type": "Feature", "properties": { "addr": "上海市 浦东新区 金业路58弄  " }, "geometry": { "type": "Point", "coordinates": [ 121.58962611690005, 31.28158489894264 ] } },
{ "type": "Feature", "properties": { "addr": "上海市 浦东新区 金钻路398弄  " }, "geometry": { "type": "Point", "coordinates": [ 121.677268934658855, 31.293179906356418 ] } },
{ "type": "Feature", "properties": { "addr": "上海市 浦东新区 金钻路669弄  " }, "geometry": { "type": "Point", "coordinates": [ 121.681134073776633, 31.289769460040421 ] } },
{ "type": "Feature", "properties": { "addr": "上海市 浦东新区 锦安东路567弄  " }, "geometry": { "type": "Point", "coordinates": [ 121.546611420495239, 31.205028233406754 ] } },
{ "type": "Feature", "properties": { "addr": "上海市 浦东新区 锦绣路2885弄  " }, "geometry": { "type": "Point", "coordinates": [ 121.550447959371169, 31.193323783238935 ] } },
{ "type": "Feature", "properties": { "addr": "上海市 浦东新区 锦绣路3088弄  " }, "geometry": { "type": "Point", "coordinates": [ 121.546294823506898, 31.185731419409098 ] } },
{ "type": "Feature", "properties": { "addr": "上海市 浦东新区 锦绣路3841弄  " }, "geometry": { "type": "Point", "coordinates": [ 121.553378142114184, 31.174276257765616 ] } },
{ "type": "Feature", "properties": { "addr": "上海市 浦东新区 京浦路160弄  " }, "geometry": { "type": "Point", "coordinates": [ 121.574694572543748, 31.159912519644159 ] } },
{ "type": "Feature", "properties": { "addr": "上海市 浦东新区 京浦路298弄  " }, "geometry": { "type": "Point", "coordinates": [ 121.576664376866034, 31.160238762658587 ] } },
{ "type": "Feature", "properties": { "addr": "上海市 浦东新区 京浦路82弄  " }, "geometry": { "type": "Point", "coordinates": [ 121.57334019732636, 31.159691572984912 ] } },
{ "type": "Feature", "properties": { "addr": "上海市 浦东新区 泾东一村  " }, "geometry": { "type": "Point", "coordinates": [ 121.563932423381473, 31.250398131937715 ] } },
{ "type": "Feature", "properties": { "addr": "上海市 浦东新区 竞赛村龙稍宅  " }, "geometry": { "type": "Point", "coordinates": [ 121.658450332530322, 31.307521425419296 ] } },
{ "type": "Feature", "properties": { "addr": "上海市 浦东新区 靖海南路567弄  " }, "geometry": { "type": "Point", "coordinates": [ 121.777844297522591, 31.038816857021356 ] } },
{ "type": "Feature", "properties": { "addr": "上海市 浦东新区 居家桥路151弄  " }, "geometry": { "type": "Point", "coordinates": [ 121.568042171089616, 31.266784117232525 ] } },
{ "type": "Feature", "properties": { "addr": "上海市 浦东新区 居家桥路520弄  " }, "geometry": { "type": "Point", "coordinates": [ 121.570220560936221, 31.260913981240478 ] } },
{ "type": "Feature", "properties": { "addr": "上海市 浦东新区 居家桥路699弄  " }, "geometry": { "type": "Point", "coordinates": [ 121.575102043923081, 31.256166649910742 ] } },
{ "type": "Feature", "properties": { "addr": "上海市 浦东新区 巨峰路176弄  " }, "geometry": { "type": "Point", "coordinates": [ 121.603201669089032, 31.285412489153977 ] } },
{ "type": "Feature", "properties": { "addr": "上海市 浦东新区 巨峰路399弄  " }, "geometry": { "type": "Point", "coordinates": [ 121.602835340102075, 31.286491277884508 ] } },
{ "type": "Feature", "properties": { "addr": "上海市 浦东新区 巨峰路90弄  " }, "geometry": { "type": "Point", "coordinates": [ 121.602480239933982, 31.284755704928653 ] } },
{ "type": "Feature", "properties": { "addr": "上海市 浦东新区 巨峰路997弄  " }, "geometry": { "type": "Point", "coordinates": [ 121.623727321178194, 31.287000540835699 ] } },
{ "type": "Feature", "properties": { "addr": "上海市 浦东新区 巨野路197弄  " }, "geometry": { "type": "Point", "coordinates": [ 121.55197768382412, 31.248084805613694 ] } },
{ "type": "Feature", "properties": { "addr": "上海市 浦东新区 巨野路469弄  " }, "geometry": { "type": "Point", "coordinates": [ 121.556437860511707, 31.243434285427949 ] } },
{ "type": "Feature", "properties": { "addr": "上海市 浦东新区 巨野路61弄  " }, "geometry": { "type": "Point", "coordinates": [ 121.552332604331113, 31.250494065864 ] } },
{ "type": "Feature", "properties": { "addr": "上海市 浦东新区 巨野路大陆家宅  " }, "geometry": { "type": "Point", "coordinates": [ 121.553185994565595, 31.244897858469482 ] } },
{ "type": "Feature", "properties": { "addr": "上海市 浦东新区 康达路688弄  " },