{
"type": "FeatureCollection",
"crs": { "type": "name", "properties": { "name": "urn:ogc:def:crs:OGC:1.3:CRS84" } },
"features": [
{ "type": "Feature", "properties": { "addr": "上海市 浦东新区 张东路2281弄  " }, "geometry": { "type": "Point", "coordinates": [ 121.643330323678015, 31.207984388824055 ] } },
{ "type": "Feature", "properties": { "addr": "上海市 浦东新区 临江村西新队罗汉松  " }, "geometry": { "type": "Point", "coordinates": [ 121.487328612543138, 31.132083362831438 ] } },
{ "type": "Feature", "properties": { "addr": "上海市 浦东新区 临江村丁家队丁家宅  " }, "geometry": { "type": "Point", "coordinates": [ 121.484386212845195, 31.127340605764598 ] } },
{ "type": "Feature", "properties": { "addr": "上海市 浦东新区 浦电路221号  " }, "geometry": { "type": "Point", "coordinates": [ 121.530044566661957, 31.224988307387651 ] } },
{ "type": "Feature", "properties": { "addr": "上海市 浦东新区 龚路支路473弄  " }, "geometry": { "type": "Point", "coordinates": [ 121.695481180568152, 31.269469759049262 ] } },
{ "type": "Feature", "properties": { "addr": "上海市 浦东新区 繁荣东路159弄  " }, "geometry": { "type": "Point", "coordinates": [ 121.59187017389452, 31.112814326185486 ] } },
{ "type": "Feature", "properties": { "addr": "上海市 浦东新区 建新村  " }, "geometry": { "type": "Point", "coordinates": [ 121.682639184658598, 31.301143069401281 ] } },
{ "type": "Feature", "properties": { "addr": "上海市 浦东新区 新川路709弄  " }, "geometry": { "type": "Point", "coordinates": [ 121.698909833038627, 31.19714456178221 ] } },
{ "type": "Feature", "properties": { "addr": "上海市 浦东新区 瑞阳路81弄  " }, "geometry": { "type": "Point", "coordinates": [ 121.594743853220947, 31.10537166826629 ] } },
{ "type": "Feature", "properties": { "addr": "上海市 浦东新区 下南路500弄  " }, "geometry": { "type": "Point", "coordinates": [ 121.543720818898606, 31.177967587760506 ] } },
{ "type": "Feature", "properties": { "addr": "上海市 浦东新区 年家浜路461弄  " }, "geometry": { "type": "Point", "coordinates": [ 121.576889312565726, 31.120015183003662 ] } },
{ "type": "Feature", "properties": { "addr": "上海市 浦东新区 利津路1313弄  " }, "geometry": { "type": "Point", "coordinates": [ 121.59914510106708, 31.28850478291173 ] } },
{ "type": "Feature", "properties": { "addr": "上海市 浦东新区 千汇路198弄  " }, "geometry": { "type": "Point", "coordinates": [ 121.774671033308593, 31.111882866766123 ] } },
{ "type": "Feature", "properties": { "addr": "上海市 浦东新区 张江诸家宅  " }, "geometry": { "type": "Point", "coordinates": [ 121.555771317823314, 31.224495150230226 ] } },
{ "type": "Feature", "properties": { "addr": "上海市 浦东新区 民耀路227弄  " }, "geometry": { "type": "Point", "coordinates": [ 121.660517423339343, 31.279893367471342 ] } },
{ "type": "Feature", "properties": { "addr": "上海市 浦东新区 上川路620号  " }, "geometry": { "type": "Point", "coordinates": [ 121.654460957760506, 31.279709584018402 ] } },
{ "type": "Feature", "properties": { "addr": "上海市 浦东新区 瑞安路700弄  " }, "geometry": { "type": "Point", "coordinates": [ 121.608342042708784, 31.096941849879535 ] } },
{ "type": "Feature", "properties": { "addr": "上海市 浦东新区 海阳路1001弄  " }, "geometry": { "type": "Point", "coordinates": [ 121.511333940855721, 31.164480127613512 ] } },
{ "type": "Feature", "properties": { "addr": "上海市 浦东新区 新环西路27号  " }, "geometry": { "type": "Point", "coordinates": [ 121.646674625261127, 31.021229667405052 ] } },
{ "type": "Feature", "properties": { "addr": "上海市 浦东新区 东书房路560弄  " }, "geometry": { "type": "Point", "coordinates": [ 121.543073679609208, 31.167733309908424 ] } },
{ "type": "Feature", "properties": { "addr": "上海市 浦东新区 沪东新村  " }, "geometry": { "type": "Point", "coordinates": [ 121.588773624971083, 31.277157873113886 ] } },
{ "type": "Feature", "properties": { "addr": "上海市 浦东新区 妙境北路323号  " }, "geometry": { "type": "Point", "coordinates": [ 121.693462238934472, 31.210985663557818 ] } },
{ "type": "Feature", "properties": { "addr": "上海市 浦东新区 南塘村顾家宅  " }, "geometry": { "type": "Point", "coordinates": [ 121.574680918300004, 31.345394276906958 ] } },
{ "type": "Feature", "properties": { "addr": "上海市 浦东新区 靖海南路567弄  " }, "geometry": { "type": "Point", "coordinates": [ 121.777844297522591, 31.038816857021356 ] } },
{ "type": "Feature", "properties": { "addr": "上海市 浦东新区 潍坊七村  " }, "geometry": { "type": "Point", "coordinates": [ 121.528343355687156, 31.229439651099796 ] } },
{ "type": "Feature", "properties": { "addr": "上海市 浦东新区 银冬路568号  " }, "geometry": { "type": "Point", "coordinates": [ 121.643025528618494, 31.211687980386134 ] } },
{ "type": "Feature", "properties": { "addr": "上海市 浦东新区 江绣路633弄  " }, "geometry": { "type": "Point", "coordinates": [ 121.704637698461909, 31.195684720898104 ] } },
{ "type": "Feature", "properties": { "addr": "上海市 浦东新区 国展路1776号工地生活区  " }, "geometry": { "type": "Point", "coordinates": [ 121.496566767972951, 31.188922647488646 ] } },
{ "type": "Feature", "properties": { "addr": "上海市 浦东新区 沈家弄路801弄  " }, "geometry": { "type": "Point", "coordinates": [ 121.550238025373503, 31.243624392217605 ] } },
{ "type": "Feature", "properties": { "addr": "上海市 浦东新区 鹏飞路411弄  " }, "geometry": { "type": "Point", "coordinates": [ 121.562375031118805, 31.177444831968828 ] } },
{ "type": "Feature", "properties": { "addr": "上海市 浦东新区 航鹤路1858弄  " }, "geometry": { "type": "Point", "coordinates": [ 121.590976180251005, 31.056151192649558 ] } },
{ "type": "Feature", "properties": { "addr": "上海市 浦东新区 中界村陈家队陈家宅  " }, "geometry": { "type": "Point", "coordinates": [ 121.578579474382749, 31.194413133383005 ] } },
{ "type": "Feature", "properties": { "addr": "上海市 浦东新区 卫行村朱家队朱家宅  " }, "geometry": { "type": "Point", "coordinates": [ 121.587201410667518, 31.166665202015878 ] } },
{ "type": "Feature", "properties": { "addr": "上海市 浦东新区 浦电路149弄  " }, "geometry": { "type": "Point", "coordinates": [ 121.527706996063884, 31.224477857258311 ] } },
{ "type": "Feature", "properties": { "addr": "上海市 浦东新区 一心村  " }, "geometry": { "type": "Point", "coordinates": [ 121.688848811326878, 31.250038784030753 ] } },
{ "type": "Feature", "properties": { "addr": "上海市 浦东新区 洪山路1889弄  " }, "geometry": { "type": "Point", "coordinates": [ 121.5163869991799, 31.157596571078781 ] } },
{ "type": "Feature", "properties": { "addr": "上海市 浦东新区 苗圃路400弄  " }, "geometry": { "type": "Point", "coordinates": [ 121.55772495264641, 31.245613659451667 ] } },
{ "type": "Feature", "properties": { "addr": "上海市 浦东新区 莲振路269号  " }, "geometry": { "type": "Point", "coordinates": [ 121.574360941877359, 31.173909356804987 ] } },
{ "type": "Feature", "properties": { "addr": "上海市 浦东新区 上南路3827弄  " }, "geometry": { "type": "Point", "coordinates": [ 121.513376418093756, 31.157441286606257 ] } },
{ "type": "Feature", "properties": { "addr": "上海市 浦东新区 云山路1415弄  " }, "geometry": { "type": "Point", "coordinates": [ 121.583126427382609, 31.249598472910403 ] } },
{ "type": "Feature", "properties": { "addr": "上海市 浦东新区 康沈路465弄  " }, "geometry": { "type": "Point", "coordinates": [ 121.584859707864112, 31.120077939878794 ] } },
{ "type": "Feature", "properties": { "addr": "上海市 浦东新区 杨思路502弄  " }, "geometry": { "type": "Point", "coordinates": [ 121.501390507335216, 31.165181479780415 ] } },
{ "type": "Feature", "properties": { "addr": "上海市 浦东新区 华夏二路1255弄  " }, "geometry": { "type": "Point", "coordinates": [ 121.698001915659688, 31.182811977167781 ] } },
{ "type": "Feature", "properties": { "addr": "上海市 浦东新区 关岳路181弄  " }, "geometry": { "type": "Point", "coordinates": [ 121.593389118681344, 31.126134708539809 ] } },
{ "type": "Feature", "properties": { "addr": "上海市 浦东新区 长岛路1560弄  " }, "geometry": { "type": "Point", "coordinates": [ 121.608314285068531, 31.270698813371908 ] } },
{ "type": "Feature", "properties": { "addr": "上海市 浦东新区 金桥路530弄  " }, "geometry": { "type": "Point", "coordinates": [ 121.621784825343411, 31.260663815674061 ] } },
{ "type": "Feature", "properties": { "addr": "上海市 浦东新区 灵岩南路1065号  " }, "geometry": { "type": "Point", "coordinates": [ 121.506511836878147, 31.148492604144845 ] } },
{ "type": "Feature", "properties": { "addr": "上海市 浦东新区 创新中路380弄  " }, "geometry": { "type": "Point", "coordinates": [ 121.672441890000982, 31.21383929476541 ] } },
{ "type": "Feature", "properties": { "addr": "上海市 浦东新区 御青路918弄  " }, "geometry": { "type": "Point", "coordinates": [ 121.581132278981002, 31.158767840355527 ] } },
{ "type": "Feature", "properties": { "addr": "上海市 浦东新区 五星村三联队黄家宅  " }, "geometry": { "type": "Point", "coordinates": [ 121.578365498010271, 31.179988450201478 ] } },
{ "type": "Feature", "properties": { "addr": "上海市 浦东新区 天花庵村芦家队芦家油车  " }, "geometry": { "type": "Point", "coordinates": [ 121.533159710509452, 31.130072519334625 ] } },
{ "type": "Feature", "properties": { "addr": "上海市 浦东新区 施湾二路766弄  " }, "geometry": { "type": "Point", "coordinates": [ 121.753094902756089, 31.152146859432357 ] } },
{ "type": "Feature", "properties": { "addr": "上海市 浦东新区 光明村  " }, "geometry": { "type": "Point", "coordinates": [ 121.664900525414168, 31.296640292704971 ] } },
{ "type": "Feature", "properties": { "addr": "上海市 浦东新区 浦东大道1097号  " }, "geometry": { "type": "Point", "coordinates": [ 121.537874556809115, 31.248656871619037 ] } },
{ "type": "Feature", "properties": { "addr": "上海市 浦东新区 联勤村冯桥队冯家宅  " }, "geometry": { "type": "Point", "coordinates": [ 121.557447915227129, 31.171212397581485 ] } },
{ "type": "Feature", "properties": { "addr": "上海市 浦东新区 启明村  " }, "geometry": { "type": "Point", "coordinates": [ 121.699185882321842, 31.284123295970193 ] } },
{ "type": "Feature", "properties": { "addr": "上海市 浦东新区 陈胡村  " }, "geometry": { "type": "Point", "coordinates": [ 121.775553708302709, 31.200086337706974 ] } },
{ "type": "Feature", "properties": { "addr": "上海市 浦东新区 园洲路189弄  " }, "geometry": { "type": "Point", "coordinates": [ 121.641902287408826, 31.321913567362007 ] } },
{ "type": "Feature", "properties": { "addr": "上海市 浦东新区 南码头路1349弄  " }, "geometry": { "type": "Point", "coordinates": [ 121.522360102007383, 31.186235979404049 ] } },
{ "type": "Feature", "properties": { "addr": "上海市 浦东新区 卫行村张浜队顾家宅  " }, "geometry": { "type": "Point", "coordinates": [ 121.587971438150674, 31.170225746093237 ] } },
{ "type": "Feature", "properties": { "addr": "上海市 浦东新区 康杉路359弄  " }, "geometry": { "type": "Point", "coordinates": [ 121.536884264814915, 31.189702255537771 ] } },
{ "type": "Feature", "properties": { "addr": "上海市 浦东新区 前进村东窑队南李家宅  " }, "geometry": { "type": "Point", "coordinates": [ 121.603576442147812, 31.240662526223556 ] } },
{ "type": "Feature", "properties": { "addr": "上海市 浦东新区 下南路370弄  " }, "geometry": { "type": "Point", "coordinates": [ 121.536884264814915, 31.189702255537771 ] } },
{ "type": "Feature", "properties": { "addr": "上海市 浦东新区 川周公路4318弄  " }, "geometry": { "type": "Point", "coordinates": [ 121.587429400605956, 31.126894771815071 ] } },
{ "type": "Feature", "properties": { "addr": "上海市 浦东新区 林德路718弄  " }, "geometry": { "type": "Point", "coordinates": [ 121.517756825252064, 31.134869848898855 ] } },
{ "type": "Feature", "properties": { "addr": "上海市 浦东新区 五莲路1047弄  " }, "geometry": { "type": "Point", "coordinates": [ 121.601390415689281, 31.277745809783077 ] } },
{ "type": "Feature", "properties": { "addr": "上海市 浦东新区 罗山路1700弄  " }, "geometry": { "type": "Point", "coordinates": [ 121.575072579502347, 31.231436321956892 ] } },
{ "type": "Feature", "properties": { "addr": "上海市 浦东新区 上南路3521号  " }, "geometry": { "type": "Point", "coordinates": [ 121.511585466398515, 31.161595328123152 ] } },
{ "type": "Feature", "properties": { "addr": "上海市 浦东新区 下南路320弄  " }, "geometry": { "type": "Point", "coordinates": [ 121.547891741211998, 31.175548813657176 ] } },
{ "type": "Feature", "properties": { "addr": "上海市 浦东新区 东方路3344弄  " }, "geometry": { "type": "Point", "coordinates": [ 121.520630235086827, 31.197538785966152 ] } },
{ "type": "Feature", "properties": { "addr": "上海市 浦东新区 环东中心村  " }, "geometry": { "type": "Point", "coordinates": [ 121.665447234147535, 31.190730482752222 ] } },
{ "type": "Feature", "properties": { "addr": "上海市 浦东新区 博山路12弄  " }, "geometry": { "type": "Point", "coordinates": [ 121.563217821348275, 31.253252567913812 ] } },
{ "type": "Feature", "properties": { "addr": "上海市 浦东新区 博华路999弄  " }, "geometry": { "type": "Point", "coordinates": [ 121.557113925238525, 31.176806290465709 ] } },
{ "type": "Feature", "properties": { "addr": "上海市 浦东新区 柳埠路135弄  " }, "geometry": { "type": "Point", "coordinates": [ 121.58893424199627, 31.268891029980523 ] } },
{ "type": "Feature", "properties": { "addr": "上海市 浦东新区 瑞意路399弄  " }, "geometry": { "type": "Point", "coordinates": [ 121.592686284450338, 31.102791860761887 ] } },
{ "type": "Feature", "properties": { "addr": "上海市 浦东新区 德州路255弄  " }, "geometry": { "type": "Point", "coordinates": [ 121.497632266573135, 31.176228764666757 ] } },
{ "type": "Feature", "properties": { "addr": "上海市 浦东新区 金业路72号  " }, "geometry": { "type": "Point", "coordinates": [ 121.596777527064987, 31.260173779115412 ] } },
{ "type": "Feature", "properties": { "addr": "上海市 浦东新区 灵山路1390弄  " }, "geometry": { "type": "Point", "coordinates": [ 121.56966576846834, 31.243150012150576 ] } },
{ "type": "Feature", "properties": { "addr": "上海市 浦东新区 银峰路676弄  " }, "geometry": { "type": "Point", "coordinates": [ 121.652778790862527, 31.290487771739045 ] } },
{ "type": "Feature", "properties": { "addr": "上海市 浦东新区 五星村陈家队陈家宅  " }, "geometry": { "type": "Point", "coordinates": [ 121.578579474382749, 31.194413133383005 ] } },
{ "type": "Feature", "properties": { "addr": "上海市 浦东新区 城南村一队朱家宅  " }, "geometry": { "type": "Point", "coordinates": [ 121.805643978478784, 30.942819291075963 ] } },
{ "type": "Feature", "properties": { "addr": "上海市 浦东新区 东方路573弄  " }, "geometry": { "type": "Point", "coordinates": [ 121.531333545238212, 31.237684588126452 ] } },
{ "type": "Feature", "properties": { "addr": "上海市 浦东新区 临江村王家宅  " }, "geometry": { "type": "Point", "coordinates": [ 121.532353481314246, 31.222659143739939 ] } },
{ "type": "Feature", "properties": { "addr": "上海市 浦东新区 周市路380弄  " }, "geometry": { "type": "Point", "coordinates": [ 121.587868043186475, 31.122608042683122 ] } },
{ "type": "Feature", "properties": { "addr": "上海市 浦东新区 海春路65弄  " }, "geometry": { "type": "Point", "coordinates": [ 121.59127414818866, 31.355900064128416 ] } },
{ "type": "Feature", "properties": { "addr": "上海市 浦东新区 秀龙村  " }, "geometry": { "type": "Point", "coordinates": [ 121.569139900422797, 31.132605675883436 ] } },
{ "type": "Feature", "properties": { "addr": "上海市 浦东新区 瑞浦路77弄  " }, "geometry": { "type": "Point", "coordinates": [ 121.592640920022092, 31.103960025909874 ] } },
{ "type": "Feature", "properties": { "addr": "上海市 浦东新区 康弘路508弄  " }, "geometry": { "type": "Point", "coordinates": [ 121.606984613252664, 31.126934726165889 ] } },
{ "type": "Feature", "properties": { "addr": "上海市 浦东新区 柳埠路142弄  " }, "geometry": { "type": "Point", "coordinates": [ 121.588915647072199, 31.269330401417204 ] } },
{ "type": "Feature", "properties": { "addr": "上海市 浦东新区 钱堂村  " }, "geometry": { "type": "Point", "coordinates": [ 121.614687762661831, 31.163187258946337 ] } },
{ "type": "Feature", "properties": { "addr": "上海市 浦东新区 碧云路86弄  " }, "geometry": { "type": "Point", "coordinates": [ 121.580076859837334, 31.241368402522173 ] } },
{ "type": "Feature", "properties": { "addr": "上海市 浦东新区 浦东大道2639弄  " }, "geometry": { "type": "Point", "coordinates": [ 121.573829414507088, 31.270096402842292 ] } },
{ "type": "Feature", "properties": { "addr": "上海市 浦东新区 华夏西路5778号  " }, "geometry": { "type": "Point", "coordinates": [ 121.586719020608655, 31.172662886966279 ] } },
{ "type": "Feature", "properties": { "addr": "上海市 浦东新区 莲安西路123弄  " }, "geometry": { "type": "Point", "coordinates": [ 121.55996820116593, 31.184721596168878 ] } },
{ "type": "Feature", "properties": { "addr": "上海市 浦东新区 东陆路429弄  " }, "geometry": { "type": "Point", "coordinates": [ 121.592391191090314, 31.286284671095828 ] } },
{ "type": "Feature", "properties": { "addr": "上海市 浦东新区 商城路1177弄  " }, "geometry": { "type": "Point", "coordinates": [ 121.533303080068833, 31.240919559981307 ] } },
{ "type": "Feature", "properties": { "addr": "上海市 浦东新区 高青路4567弄  " }, "geometry": { "type": "Point", "coordinates": [ 121.536884264814915, 31.189702255537771 ] } },
{ "type": "Feature", "properties": { "addr": "上海市 浦东新区 康士路15弄  " }, "geometry": { "type": "Point", "coordinates": [ 121.56951673958423, 31.155668398702119 ] } },
{ "type": "Feature", "properties": { "addr": "上海市 浦东新区 金口路471弄  " }, "geometry": { "type": "Point", "coordinates": [ 121.589308206580071, 31.252606825486168 ] } },
{ "type": "Feature", "properties": { "addr": "上海市 浦东新区 周秀路118弄  " }, "geometry": { "type": "Point", "coordinates": [ 121.611806088416373, 31.105759862333979 ] } },
{ "type": "Feature", "properties": { "addr": "上海市 浦东新区 严杨路45弄  " }, "geometry": { "type": "Point", "coordinates": [ 121.533665815833771, 31.200106183473142 ] } },
{ "type": "Feature", "properties": { "addr": "上海市 浦东新区 浦东大道1623弄  " }, "geometry": { "type": "Point", "coordinates": [ 121.549043907859087, 31.251767592914419 ] } },
{ "type": "Feature", "properties": { "addr": "上海市 浦东新区 兰陵路24弄  " }, "geometry": { "type": "Point", "coordinates": [ 121.522661573336549, 31.200715608611411 ] } },
{ "type": "Feature", "properties": { "addr": "上海市 浦东新区 南新村西钟家宅  " }, "geometry": { "type": "Point", "coordinates": [ 121.548654941573261, 31.173251634963325 ] } },
{ "type": "Feature", "properties": { "addr": "上海市 浦东新区 长岛路825弄  " }, "geometry": { "type": "Point", "coordinates": [ 121.595186987329015, 31.269283871663198 ] } },
{ "type": "Feature", "properties": { "addr": "上海市 浦东新区 板泉路2000弄  " }, "geometry": { "type": "Point", "coordinates": [ 121.536884264814915, 31.189702255537771 ] } },
{ "type": "Feature", "properties": { "addr": "上海市 浦东新区 东陆路1018弄  " }, "geometry": { "type": "Point", "coordinates": [ 121.599020955245621, 31.277911928226455 ] } },
{ "type": "Feature", "properties": { "addr": "上海市 浦东新区 周康路169号  " }, "geometry": { "type": "Point", "coordinates": [ 121.579171278052712, 31.114682550427172 ] } },
{ "type": "Feature", "properties": { "addr": "上海市 浦东新区 杨高北路3885弄  " }, "geometry": { "type": "Point", "coordinates": [ 121.614215972607994, 31.289899143830819 ] } },
{ "type": "Feature", "properties": { "addr": "上海市 浦东新区 鹤永路751弄  " }, "geometry": { "type": "Point", "coordinates": [ 121.610426021661382, 31.077568725574618 ] } },
{ "type": "Feature", "properties": { "addr": "上海市 浦东新区 临江村益民队罗汉松  " }, "geometry": { "type": "Point", "coordinates": [ 121.487328612543138, 31.132083362831438 ] } },
{ "type": "Feature", "properties": { "addr": "上海市 浦东新区 周园路1680弄  " }, "geometry": { "type": "Point", "coordinates": [ 121.584859707864112, 31.120077939878794 ] } },
{ "type": "Feature", "properties": { "addr": "上海市 浦东新区 霞玉路436弄  " }, "geometry": { "type": "Point", "coordinates": [ 121.696086997804073, 31.262291027300432 ] } },
{ "type": "Feature", "properties": { "addr": "上海市 浦东新区 盛荣路288弄  " }, "geometry": { "type": "Point", "coordinates": [ 121.63626380338377, 31.194416454082223 ] } },
{ "type": "Feature", "properties": { "addr": "上海市 浦东新区 御青路56弄  " }, "geometry": { "type": "Point", "coordinates": [ 121.578469072635571, 31.165031924344618 ] } },
{ "type": "Feature", "properties": { "addr": "上海市 浦东新区 杨莲路310弄  " }, "geometry": { "type": "Point", "coordinates": [ 121.536884264814915, 31.189702255537771 ] } },
{ "type": "Feature", "properties": { "addr": "上海市 浦东新区 红星村一队张家宅  " }, "geometry": { "type": "Point", "coordinates": [ 121.691947606014082, 31.236233793114234 ] } },
{ "type": "Feature", "properties": { "addr": "上海市 浦东新区 康弘路515弄  " }, "geometry": { "type": "Point", "coordinates": [ 121.606533484225551, 31.127466032407003 ] } },
{ "type": "Feature", "properties": { "addr": "上海市 浦东新区 绿林路320弄  " }, "geometry": { "type": "Point", "coordinates": [ 121.554834744498592, 31.176162646734344 ] } },
{ "type": "Feature", "properties": { "addr": "上海市 浦东新区 德州路465弄  " }, "geometry": { "type": "Point", "coordinates": [ 121.536884264814915, 31.189702255537771 ] } },
{ "type": "Feature", "properties": { "addr": "上海市 浦东新区 枣庄路998弄  " }, "geometry": { "type": "Point", "coordinates": [ 121.59064021399027, 31.25339580836896 ] } },
{ "type": "Feature", "properties": { "addr": "上海市 浦东新区 航绣路50弄  " }, "geometry": { "type": "Point", "coordinates": [ 121.604393630670245, 31.076577146786715 ] } },
{ "type": "Feature", "properties": { "addr": "上海市 浦东新区 金晓路96弄  " }, "geometry": { "type": "Point", "coordinates": [ 121.681231989077219, 31.283805739728272 ] } },
{ "type": "Feature", "properties": { "addr": "上海市 浦东新区 韩荡村南曹家宅  " }, "geometry": { "type": "Point", "coordinates": [ 121.612718497322845, 31.161929908537449 ] } },
{ "type": "Feature", "properties": { "addr": "上海市 浦东新区 张家桥村  " }, "geometry": { "type": "Point", "coordinates": [ 121.693207659152947, 31.043286160191865 ] } },
{ "type": "Feature", "properties": { "addr": "上海市 浦东新区 莲振路298号  " }, "geometry": { "type": "Point", "coordinates": [ 121.574994965906285, 31.173395847534149 ] } },
{ "type": "Feature", "properties": { "addr": "上海市 浦东新区 寿光路78弄  " }, "geometry": { "type": "Point", "coordinates": [ 121.592102026546655, 31.279390855434528 ] } },
{ "type": "Feature", "properties": { "addr": "上海市 浦东新区 川沙路1215号  " }, "geometry": { "type": "Point", "coordinates": [ 121.684426004148506, 31.268620878023903 ] } },
{ "type": "Feature", "properties": { "addr": "上海市 浦东新区 芳华路478弄  " }, "geometry": { "type": "Point", "coordinates": [ 121.536884264814915, 31.189702255537771 ] } },
{ "type": "Feature", "properties": { "addr": "上海市 浦东新区 周星路500弄  " }, "geometry": { "type": "Point", "coordinates": [ 121.58569980317705, 31.108059311174181 ] } },
{ "type": "Feature", "properties": { "addr": "上海市 浦东新区 利津路1111弄  " }, "geometry": { "type": "Point", "coordinates": [ 121.599224870596373, 31.284803924296515 ] } },
{ "type": "Feature", "properties": { "addr": "上海市 浦东新区 联勤村张家宅  " }, "geometry": { "type": "Point", "coordinates": [ 121.641939387426376, 31.329869959295799 ] } },
{ "type": "Feature", "properties": { "addr": "上海市 浦东新区 兰谷路1888弄  " }, "geometry": { "type": "Point", "coordinates": [ 121.598513322801907, 31.304125850324844 ] } },
{ "type": "Feature", "properties": { "addr": "上海市 浦东新区 光泽路428弄  " }, "geometry": { "type": "Point", "coordinates": [ 121.623076229344562, 31.336400104686092 ] } },
{ "type": "Feature", "properties": { "addr": "上海市 浦东新区 金台路200弄  " }, "geometry": { "type": "Point", "coordinates": [ 121.594221578397438, 31.257084483190823 ] } },
{ "type": "Feature", "properties": { "addr": "上海市 浦东新区 胶东路818弄  " }, "geometry": { "type": "Point", "coordinates": [ 121.607414811761387, 31.266421128345605 ] } },
{ "type": "Feature", "properties": { "addr": "上海市 浦东新区 永泰路775弄  " }, "geometry": { "type": "Point", "coordinates": [ 121.524414706369811, 31.147980346490257 ] } },
{ "type": "Feature", "properties": { "addr": "上海市 浦东新区 翔川路458弄  " }, "geometry": { "type": "Point", "coordinates": [ 121.70152318342825, 31.189031438161631 ] } },
{ "type": "Feature", "properties": { "addr": "上海市 浦东新区 乳山路161弄  " }, "geometry": { "type": "Point", "coordinates": [ 121.528018079261983, 31.241597184030631 ] } },
{ "type": "Feature", "properties": { "addr": "上海市 浦东新区 博山东路41弄  " }, "geometry": { "type": "Point", "coordinates": [ 121.564810876339664, 31.25377945400249 ] } },
{ "type": "Feature", "properties": { "addr": "上海市 浦东新区 东陆路1182弄  " }, "geometry": { "type": "Point", "coordinates": [ 121.602356004281958, 31.275368269875603 ] } },
{ "type": "Feature", "properties": { "addr": "上海市 浦东新区 五星村家务队顾家宅  " }, "geometry": { "type": "Point", "coordinates": [ 121.578365498010271, 31.179988450201478 ] } },
{ "type": "Feature", "properties": { "addr": "上海市 浦东新区 莲安西路125弄  " }, "geometry": { "type": "Point", "coordinates": [ 121.559745780721656, 31.185327182486329 ] } },
{ "type": "Feature", "properties": { "addr": "上海市 浦东新区 巨峰路667弄  " }, "geometry": { "type": "Point", "coordinates": [ 121.60281279263377, 31.28804660034745 ] } },
{ "type": "Feature", "properties": { "addr": "上海市 浦东新区 一六村赵家队南赵家宅  " }, "geometry": { "type": "Point", "coordinates": [ 121.602726734965927, 31.173188295681612 ] } },
{ "type": "Feature", "properties": { "addr": "上海市 浦东新区 张杨路1269弄  " }, "geometry": { "type": "Point", "coordinates": [ 121.538690487703832, 31.238534367635964 ] } },
{ "type": "Feature", "properties": { "addr": "上海市 浦东新区 海阳路1080弄  " }, "geometry": { "type": "Point", "coordinates": [ 121.513439479140558, 31.164135359227771 ] } },
{ "type": "Feature", "properties": { "addr": "上海市 浦东新区 联合村西柴场  " }, "geometry": { "type": "Point", "coordinates": [ 121.677463148310096, 31.303329042391074 ] } },
{ "type": "Feature", "properties": { "addr": "上海市 浦东新区 上南路7992弄  " }, "geometry": { "type": "Point", "coordinates": [ 121.581006516209612, 31.12500136433539 ] } },
{ "type": "Feature", "properties": { "addr": "上海市 浦东新区 果园村  " }, "geometry": { "type": "Point", "coordinates": [ 121.737440132633708, 30.983664773262714 ] } },
{ "type": "Feature", "properties": { "addr": "上海市 浦东新区 博华路1018弄  " }, "geometry": { "type": "Point", "coordinates": [ 121.557501993218835, 31.176850857976813 ] } },
{ "type": "Feature", "properties": { "addr": "上海市 浦东新区 柳埠路196弄  " }, "geometry": { "type": "Point", "coordinates": [ 121.589881325495426, 31.271021584060716 ] } },
{ "type": "Feature", "properties": { "addr": "上海市 浦东新区 福山路40弄  " }, "geometry": { "type": "Point", "coordinates": [ 121.53090649079877, 31.242456421863974 ] } },
{ "type": "Feature", "properties": { "addr": "上海市 浦东新区 南桥路237弄  " }, "geometry": { "type": "Point", "coordinates": [ 121.715159461069717, 31.197580409147527 ] } },
{ "type": "Feature", "properties": { "addr": "上海市 浦东新区 横桥路136弄  " }, "geometry": { "type": "Point", "coordinates": [ 121.581984231926668, 31.114129607532206 ] } },
{ "type": "Feature", "properties": { "addr": "上海市 浦东新区 双桥路180弄  " }, "geometry": { "type": "Point", "coordinates": [ 121.600158299851785, 31.29039265033769 ] } },
{ "type": "Feature", "properties": { "addr": "上海市 浦东新区 浦东大道501弄  " }, "geometry": { "type": "Point", "coordinates": [ 121.525107120256905, 31.248512929274547 ] } },
{ "type": "Feature", "properties": { "addr": "上海市 浦东新区 莲园路18弄  " }, "geometry": { "type": "Point", "coordinates": [ 121.550383281374465, 31.19091583120769 ] } },
{ "type": "Feature", "properties": { "addr": "上海市 浦东新区 张杨北路555弄  " }, "geometry": { "type": "Point", "coordinates": [ 121.593490267881762, 31.272064273145428 ] } },
{ "type": "Feature", "properties": { "addr": "上海市 浦东新区 五莲路959弄  " }, "geometry": { "type": "Point", "coordinates": [ 121.598657680497368, 31.277323915445891 ] } },
{ "type": "Feature", "properties": { "addr": "上海市 浦东新区 丁香路1089弄  " }, "geometry": { "type": "Point", "coordinates": [ 121.562914194085891, 31.234723305955367 ] } },
{ "type": "Feature", "properties": { "addr": "上海市 浦东新区 周秀路516弄  " }, "geometry": { "type": "Point", "coordinates": [ 121.613691991004018, 31.096239833397437 ] } },
{ "type": "Feature", "properties": { "addr": "上海市 浦东新区 陈春路620弄  " }, "geometry": { "type": "Point", "coordinates": [ 121.552907609688049, 31.178078194108803 ] } },
{ "type": "Feature", "properties": { "addr": "上海市 浦东新区 上南路3333弄  " }, "geometry": { "type": "Point", "coordinates": [ 121.510000496156721, 31.165019950629485 ] } },
{ "type": "Feature", "properties": { "addr": "上海市 浦东新区 罗山路5011号  " }, "geometry": { "type": "Point", "coordinates": [ 121.597248328982772, 31.170025525562451 ] } },
{ "type": "Feature", "properties": { "addr": "上海市 浦东新区 招远路19弄  " }, "geometry": { "type": "Point", "coordinates": [ 121.521229943845299, 31.241645116927586 ] } },
{ "type": "Feature", "properties": { "addr": "上海市 浦东新区 蒋桥村  " }, "geometry": { "type": "Point", "coordinates": [ 121.667276184165857, 31.0543212498287 ] } },
{ "type": "Feature", "properties": { "addr": "上海市 浦东新区 五星村陈家队奚家宅  " }, "geometry": { "type": "Point", "coordinates": [ 121.578579474382749, 31.194413133383005 ] } },
{ "type": "Feature", "properties": { "addr": "上海市 浦东新区 芳甸路333弄  " }, "geometry": { "type": "Point", "coordinates": [ 121.529696185109415, 31.207201251711854 ] } },
{ "type": "Feature", "properties": { "addr": "上海市 浦东新区 博兴路462弄  " }, "geometry": { "type": "Point", "coordinates": [ 121.589409086288853, 31.27201836204534 ] } },
{ "type": "Feature", "properties": { "addr": "上海市 浦东新区 周市路1321号  " }, "geometry": { "type": "Point", "coordinates": [ 121.589701664393431, 31.119318594332626 ] } },
{ "type": "Feature", "properties": { "addr": "上海市 浦东新区 康巴路250弄  " }, "geometry": { "type": "Point", "coordinates": [ 121.576373415711345, 31.147101080228161 ] } },
{ "type": "Feature", "properties": { "addr": "上海市 浦东新区 南新村赵家厍  " }, "geometry": { "type": "Point", "coordinates": [ 121.54343515774643, 31.176791383130574 ] } },
{ "type": "Feature", "properties": { "addr": "上海市 浦东新区 商城路1317弄  " }, "geometry": { "type": "Point", "coordinates": [ 121.537666599083551, 31.242637577090154 ] } },
{ "type": "Feature", "properties": { "addr": "上海市 浦东新区 中科路申江路交界口工地生活区  " }, "geometry": { "type": "Point", "coordinates": [ 121.628613025185857, 31.185675580136653 ] } },
{ "type": "Feature", "properties": { "addr": "上海市 浦东新区 康花路661号工地生活区  " }, "geometry": { "type": "Point", "coordinates": [ 121.554831420768224, 31.153138397634866 ] } },
{ "type": "Feature", "properties": { "addr": "上海市 浦东新区 栖山路401弄  " }, "geometry": { "type": "Point", "coordinates": [ 121.55603344337112, 31.253987830572694 ] } },
{ "type": "Feature", "properties": { "addr": "上海市 浦东新区 乳山路200弄  " }, "geometry": { "type": "Point", "coordinates": [ 121.535521715017381, 31.2435075340906 ] } },
{ "type": "Feature", "properties": { "addr": "上海市 浦东新区 永业路193弄  " }, "geometry": { "type": "Point", "coordinates": [ 121.620843221507855, 31.273070453605381 ] } },
{ "type": "Feature", "properties": { "addr": "上海市 浦东新区 民丰村李家宅  " }, "geometry": { "type": "Point", "coordinates": [ 121.64861595329873, 31.214212833818383 ] } },
{ "type": "Feature", "properties": { "addr": "上海市 浦东新区 鹏飞路28弄  " }, "geometry": { "type": "Point", "coordinates": [ 121.561872249524882, 31.18091954304651 ] } },
{ "type": "Feature", "properties": { "addr": "上海市 浦东新区 浦三路858弄  " }, "geometry": { "type": "Point", "coordinates": [ 121.525334122059277, 31.187864099446919 ] } },
{ "type": "Feature", "properties": { "addr": "上海市 浦东新区 苗桥路935弄  " }, "geometry": { "type": "Point", "coordinates": [ 121.602516621307132, 31.104273708865044 ] } },
{ "type": "Feature", "properties": { "addr": "上海市 浦东新区 上南路1251弄  " }, "geometry": { "type": "Point", "coordinates": [ 121.502606274012422, 31.178521236106434 ] } },
{ "type": "Feature", "properties": { "addr": "上海市 浦东新区 凌河路354弄  " }, "geometry": { "type": "Point", "coordinates": [ 121.606028636528947, 31.279935494106077 ] } },
{ "type": "Feature", "properties": { "addr": "上海市 浦东新区 浦三路817弄  " }, "geometry": { "type": "Point", "coordinates": [ 121.525675029000325, 31.188961853906115 ] } },
{ "type": "Feature", "properties": { "addr": "上海市 浦东新区 创业路78弄  " }, "geometry": { "type": "Point", "coordinates": [ 121.584859707864112, 31.120077939878794 ] } },
{ "type": "Feature", "properties": { "addr": "上海市 浦东新区 勤益村  " }, "geometry": { "type": "Point", "coordinates": [ 121.716810366935945, 31.215195470671564 ] } },
{ "type": "Feature", "properties": { "addr": "上海市 浦东新区 芳甸路77弄  " }, "geometry": { "type": "Point", "coordinates": [ 121.564410142251674, 31.236162468533347 ] } },
{ "type": "Feature", "properties": { "addr": "上海市 浦东新区 南阜村  " }, "geometry": { "type": "Point", "coordinates": [ 121.526167659741986, 31.136051601892248 ] } },
{ "type": "Feature", "properties": { "addr": "上海市 浦东新区 周秀路336弄  " }, "geometry": { "type": "Point", "coordinates": [ 121.613561107891215, 31.100484088999426 ] } },
{ "type": "Feature", "properties": { "addr": "上海市 浦东新区 御桥村印家队东印家圈  " }, "geometry": { "type": "Point", "coordinates": [ 121.564637683037347, 31.17407504173234 ] } },
{ "type": "Feature", "properties": { "addr": "上海市 浦东新区 永建路86弄  " }, "geometry": { "type": "Point", "coordinates": [ 121.62244525955434, 31.268966727946502 ] } },
{ "type": "Feature", "properties": { "addr": "上海市 浦东新区 宁桥路825号  " }, "geometry": { "type": "Point", "coordinates": [ 121.626860520966432, 31.259191383125927 ] } },
{ "type": "Feature", "properties": { "addr": "上海市 浦东新区 浦三路637弄  " }, "geometry": { "type": "Point", "coordinates": [ 121.526473892090337, 31.194361315014945 ] } },
{ "type": "Feature", "properties": { "addr": "上海市 浦东新区 北艾路828弄  " }, "geometry": { "type": "Point", "coordinates": [ 121.544077176694415, 31.189935024801489 ] } },
{ "type": "Feature", "properties": { "addr": "上海市 浦东新区 航东村  " }, "geometry": { "type": "Point", "coordinates": [ 121.607737213608914, 31.032148438230021 ] } },
{ "type": "Feature", "properties": { "addr": "上海市 浦东新区 五星村南黄队陈家宅  " }, "geometry": { "type": "Point", "coordinates": [ 121.578365498010271, 31.179988450201478 ] } },
{ "type": "Feature", "properties": { "addr": "上海市 浦东新区 浦三路628弄  " }, "geometry": { "type": "Point", "coordinates": [ 121.522452447813819, 31.194323397234179 ] } },
{ "type": "Feature", "properties": { "addr": "上海市 浦东新区 红枫路108弄  " }, "geometry": { "type": "Point", "coordinates": [ 121.59452430735432, 31.250599184019357 ] } },
{ "type": "Feature", "properties": { "addr": "上海市 浦东新区 尚博路650弄  " }, "geometry": { "type": "Point", "coordinates": [ 121.528447918448521, 31.155241395638473 ] } },
{ "type": "Feature", "properties": { "addr": "上海市 浦东新区 汤巷中心村  " }, "geometry": { "type": "Point", "coordinates": [ 121.618456872920589, 31.14980584074975 ] } },
{ "type": "Feature", "properties": { "addr": "上海市 浦东新区 新丰村万翔宅  " }, "geometry": { "type": "Point", "coordinates": [ 121.655689210884304, 31.167614116870052 ] } },
{ "type": "Feature", "properties": { "addr": "上海市 浦东新区 顾东村  " }, "geometry": { "type": "Point", "coordinates": [ 121.668134784572288, 31.299381001669992 ] } },
{ "type": "Feature", "properties": { "addr": "上海市 浦东新区 胡巷村金家宅  " }, "geometry": { "type": "Point", "coordinates": [ 121.525004893089871, 31.158715770519464 ] } },
{ "type": "Feature", "properties": { "addr": "上海市 浦东新区 大众村中心新村  " }, "geometry": { "type": "Point", "coordinates": [ 121.654636127334953, 31.23453194599384 ] } },
{ "type": "Feature", "properties": { "addr": "上海市 浦东新区 施湾二路1026弄  " }, "geometry": { "type": "Point", "coordinates": [ 121.755632525991231, 31.14722547604309 ] } },
{ "type": "Feature", "properties": { "addr": "上海市 浦东新区 佳虹路50弄  " }, "geometry": { "type": "Point", "coordinates": [ 121.620594570542693, 31.272324075533714 ] } },
{ "type": "Feature", "properties": { "addr": "上海市 浦东新区 红旗村  " }, "geometry": { "type": "Point", "coordinates": [ 121.760312787528761, 31.174451442812664 ] } },
{ "type": "Feature", "properties": { "addr": "上海市 浦东新区 羽山路600弄  " }, "geometry": { "type": "Point", "coordinates": [ 121.55465445458276, 31.240309084356323 ] } },
{ "type": "Feature", "properties": { "addr": "上海市 浦东新区 金高路2131弄  " }, "geometry": { "type": "Point", "coordinates": [ 121.617046533269928, 31.267471971131776 ] } },
{ "type": "Feature", "properties": { "addr": "上海市 浦东新区 三彩路59弄  " }, "geometry": { "type": "Point", "coordinates": [ 121.506355531719436, 31.132930313734967 ] } },
{ "type": "Feature", "properties": { "addr": "上海市 浦东新区 瑞建路88弄  " }, "geometry": { "type": "Point", "coordinates": [ 121.599359796083974, 31.102542023663887 ] } },
{ "type": "Feature", "properties": { "addr": "上海市 浦东新区 拱乐路2400弄  " }, "geometry": { "type": "Point", "coordinates": [ 121.749606962121945, 31.067545829754987 ] } },
{ "type": "Feature", "properties": { "addr": "上海市 浦东新区 锦绣路666弄  " }, "geometry": { "type": "Point", "coordinates": [ 121.564378881219923, 31.228603452911862 ] } },
{ "type": "Feature", "properties": { "addr": "上海市 浦东新区 临江村周南队周家宅  " }, "geometry": { "type": "Point", "coordinates": [ 121.478736410170754, 31.124012372204763 ] } },
{ "type": "Feature", "properties": { "addr": "上海市 浦东新区 崮山路251弄  " }, "geometry": { "type": "Point", "coordinates": [ 121.560059469005736, 31.252282833521154 ] } },
{ "type": "Feature", "properties": { "addr": "上海市 浦东新区 牟平路154弄  " }, "geometry": { "type": "Point", "coordinates": [ 121.58962611690005, 31.28158489894264 ] } },
{ "type": "Feature", "properties": { "addr": "上海市 浦东新区 枣庄路399弄  " }, "geometry": { "type": "Point", "coordinates": [ 121.584712206099368, 31.261941757193952 ] } },
{ "type": "Feature", "properties": { "addr": "上海市 浦东新区 昌里东路71弄  " }, "geometry": { "type": "Point", "coordinates": [ 121.510706923609746, 31.182664380728731 ] } },
{ "type": "Feature", "properties": { "addr": "上海市 浦东新区 长岛路259弄  " }, "geometry": { "type": "Point", "coordinates": [ 121.583252369815099, 31.273179327236935 ] } },
{ "type": "Feature", "properties": { "addr": "上海市 浦东新区 金杨路785弄  " }, "geometry": { "type": "Point", "coordinates": [ 121.589437562573522, 31.259698788471169 ] } },
{ "type": "Feature", "properties": { "addr": "上海市 浦东新区 梅花路230弄  " }, "geometry": { "type": "Point", "coordinates": [ 121.54869806023774, 31.21442207062762 ] } },
{ "type": "Feature", "properties": { "addr": "上海市 浦东新区 南泉路1211弄  " }, "geometry": { "type": "Point", "coordinates": [ 121.529722254644966, 31.219263571698672 ] } },
{ "type": "Feature", "properties": { "addr": "上海市 浦东新区 康杉路151弄  " }, "geometry": { "type": "Point", "coordinates": [ 121.567301338535529, 31.15772404321492 ] } },
{ "type": "Feature", "properties": { "addr": "上海市 浦东新区 成山路558号  " }, "geometry": { "type": "Point", "coordinates": [ 121.515106015522676, 31.177956542566324 ] } },
{ "type": "Feature", "properties": { "addr": "上海市 浦东新区 上浦路510弄  " }, "geometry": { "type": "Point", "coordinates": [ 121.506222941826138, 31.152101739360106 ] } },
{ "type": "Feature", "properties": { "addr": "上海市 浦东新区 柴场村  " }, "geometry": { "type": "Point", "coordinates": [ 121.732663662576044, 31.186753897798436 ] } },
{ "type": "Feature", "properties": { "addr": "上海市 浦东新区 民众村运河西  " }, "geometry": { "type": "Point", "coordinates": [ 121.67691104974368, 31.282449015583392 ] } },
{ "type": "Feature", "properties": { "addr": "上海市 浦东新区 康杉路608弄  " }, "geometry": { "type": "Point", "coordinates": [ 121.536884264814915, 31.189702255537771 ] } },
{ "type": "Feature", "properties": { "addr": "上海市 浦东新区 拱川路561弄  " }, "geometry": { "type": "Point", "coordinates": [ 121.774859587635135, 31.060910455271795 ] } },
{ "type": "Feature", "properties": { "addr": "上海市 浦东新区 峨山路280弄  " }, "geometry": { "type": "Point", "coordinates": [ 121.53440970262659, 31.220273408639333 ] } },
{ "type": "Feature", "properties": { "addr": "上海市 浦东新区 锦和路289弄  " }, "geometry": { "type": "Point", "coordinates": [ 121.543645990049626, 31.210640834567769 ] } },
{ "type": "Feature", "properties": { "addr": "上海市 浦东新区 栏学路328弄  " }, "geometry": { "type": "Point", "coordinates": [ 121.672919968193384, 31.173113833349394 ] } },
{ "type": "Feature", "properties": { "addr": "上海市 浦东新区 南泉路1111弄  " }, "geometry": { "type": "Point", "coordinates": [ 121.529533610487874, 31.219331589345497 ] } },
{ "type": "Feature", "properties": { "addr": "上海市 浦东新区 迎春路1355弄  " }, "geometry": { "type": "Point", "coordinates": [ 121.569082498700709, 31.235478938541977 ] } },
{ "type": "Feature", "properties": { "addr": "上海市 浦东新区 清溪路365弄  " }, "geometry": { "type": "Point", "coordinates": [ 121.578081633469125, 31.347103664355974 ] } },
{ "type": "Feature", "properties": { "addr": "上海市 浦东新区 龚路公路700号  " }, "geometry": { "type": "Point", "coordinates": [ 121.702157297287741, 31.27015003119477 ] } },
{ "type": "Feature", "properties": { "addr": "上海市 浦东新区 海鸣路98弄  " }, "geometry": { "type": "Point", "coordinates": [ 121.677548217841903, 31.288627833747729 ] } },
{ "type": "Feature", "properties": { "addr": "上海市 浦东新区 海容路399弄  " }, "geometry": { "type": "Point", "coordinates": [ 121.68625863721941, 31.287655457702563 ] } },
{ "type": "Feature", "properties": { "addr": "上海市 浦东新区 龚华路35弄  " }, "geometry": { "type": "Point", "coordinates": [ 121.652778790862527, 31.290487771739045 ] } },
{ "type": "Feature", "properties": { "addr": "上海市 浦东新区 新安村  " }, "geometry": { "type": "Point", "coordinates": [ 121.687760154879328, 31.029332219409053 ] } },
{ "type": "Feature", "properties": { "addr": "上海市 浦东新区 清溪路400弄  " }, "geometry": { "type": "Point", "coordinates": [ 121.577475636572089, 31.347650837499692 ] } },
{ "type": "Feature", "properties": { "addr": "上海市 浦东新区 浦东大道1695弄  " }, "geometry": { "type": "Point", "coordinates": [ 121.550783925631904, 31.253683600624225 ] } },
{ "type": "Feature", "properties": { "addr": "上海市 浦东新区 花墙村  " }, "geometry": { "type": "Point", "coordinates": [ 121.552741692660348, 31.156328175262196 ] } },
{ "type": "Feature", "properties": { "addr": "上海市 浦东新区 博山路51弄  " }, "geometry": { "type": "Point", "coordinates": [ 121.563650984265195, 31.250794833134776 ] } },
{ "type": "Feature", "properties": { "addr": "上海市 浦东新区 成山路350弄  " }, "geometry": { "type": "Point", "coordinates": [ 121.510295409855644, 31.177370295777077 ] } },
{ "type": "Feature", "properties": { "addr": "上海市 浦东新区 华戴路599弄  " }, "geometry": { "type": "Point", "coordinates": [ 121.705983000793651, 31.182103882872319 ] } },
{ "type": "Feature", "properties": { "addr": "上海市 浦东新区 瑞浦路8弄  " }, "geometry": { "type": "Point", "coordinates": [ 121.550454606831948, 31.227348292436346 ] } },
{ "type": "Feature", "properties": { "addr": "上海市 浦东新区 瑞安路80弄  " }, "geometry": { "type": "Point", "coordinates": [ 121.592960267630886, 31.09521536386751 ] } },
{ "type": "Feature", "properties": { "addr": "上海市 浦东新区 成山路300弄  " }, "geometry": { "type": "Point", "coordinates": [ 121.507887861258354, 31.176840044371215 ] } },
{ "type": "Feature", "properties": { "addr": "上海市 浦东新区 航瑞路459弄  " }, "geometry": { "type": "Point", "coordinates": [ 121.597673676641747, 31.082369817171895 ] } },
{ "type": "Feature", "properties": { "addr": "上海市 浦东新区 五莲路1168号  " }, "geometry": { "type": "Point", "coordinates": [ 121.602929392688978, 31.278456344054472 ] } },
{ "type": "Feature", "properties": { "addr": "上海市 浦东新区 上南路5588号  " }, "geometry": { "type": "Point", "coordinates": [ 121.534100685531158, 31.12914416758575 ] } },
{ "type": "Feature", "properties": { "addr": "上海市 浦东新区 懿德村  " }, "geometry": { "type": "Point", "coordinates": [ 121.522822549683923, 31.124973851684217 ] } },
{ "type": "Feature", "properties": { "addr": "上海市 浦东新区 杨思路436弄  " }, "geometry": { "type": "Point", "coordinates": [ 121.500760435850523, 31.165660812615332 ] } },
{ "type": "Feature", "properties": { "addr": "上海市 浦东新区 金湘路201弄  " }, "geometry": { "type": "Point", "coordinates": [ 121.619764626082016, 31.261871069580963 ] } },
{ "type": "Feature", "properties": { "addr": "上海市 浦东新区 浦东大道691弄  " }, "geometry": { "type": "Point", "coordinates": [ 121.568688412073485, 31.265697229843504 ] } },
{ "type": "Feature", "properties": { "addr": "上海市 浦东新区 五莲路593弄  " }, "geometry": { "type": "Point", "coordinates": [ 121.593416966152148, 31.275602909383682 ] } },
{ "type": "Feature", "properties": { "addr": "上海市 浦东新区 灵山路1415弄  " }, "geometry": { "type": "Point", "coordinates": [ 121.570780206284013, 31.244998737805226 ] } },
{ "type": "Feature", "properties": { "addr": "上海市 浦东新区 川周公路4011弄  " }, "geometry": { "type": "Point", "coordinates": [ 121.593959991832946, 31.131479828376055 ] } },
{ "type": "Feature", "properties": { "addr": "上海市 浦东新区 五莲路1769弄  " }, "geometry": { "type": "Point", "coordinates": [ 121.603800120219788, 31.290088693222955 ] } },
{ "type": "Feature", "properties": { "addr": "上海市 浦东新区 桃林路299弄  " }, "geometry": { "type": "Point", "coordinates": [ 121.543789000286822, 31.245226892963494 ] } },
{ "type": "Feature", "properties": { "addr": "上海市 浦东新区 秋岚路58弄  " }, "geometry": { "type": "Point", "coordinates": [ 121.596696859230192, 31.333007354723282 ] } },
{ "type": "Feature", "properties": { "addr": "上海市 浦东新区 南码头路551弄  " }, "geometry": { "type": "Point", "coordinates": [ 121.518424535737637, 31.197425268104805 ] } },
{ "type": "Feature", "properties": { "addr": "上海市 浦东新区 永业路225弄  " }, "geometry": { "type": "Point", "coordinates": [ 121.621783208393481, 31.273076472136875 ] } },
{ "type": "Feature", "properties": { "addr": "上海市 浦东新区 严中路140弄  " }, "geometry": { "type": "Point", "coordinates": [ 121.536105883090528, 31.199272348787943 ] } },
{ "type": "Feature", "properties": { "addr": "上海市 浦东新区 灵山路600弄  " }, "geometry": { "type": "Point", "coordinates": [ 121.550404750876154, 31.234124986355546 ] } },
{ "type": "Feature", "properties": { "addr": "上海市 浦东新区 御青路999弄  " }, "geometry": { "type": "Point", "coordinates": [ 121.579524761270903, 31.160297629972529 ] } },
{ "type": "Feature", "properties": { "addr": "上海市 浦东新区 栖山路400弄  " }, "geometry": { "type": "Point", "coordinates": [ 121.557578978001033, 31.252017881658489 ] } },
{ "type": "Feature", "properties": { "addr": "上海市 浦东新区 严杨路60弄  " }, "geometry": { "type": "Point", "coordinates": [ 121.536194994997118, 31.20036688077375 ] } },
{ "type": "Feature", "properties": { "addr": "上海市 浦东新区 龙东大道4288弄  " }, "geometry": { "type": "Point", "coordinates": [ 121.666165339572217, 31.228510816020634 ] } },
{ "type": "Feature", "properties": { "addr": "上海市 浦东新区 胡巷村  " }, "geometry": { "type": "Point", "coordinates": [ 121.525004893089871, 31.158715770519464 ] } },
{ "type": "Feature", "properties": { "addr": "上海市 浦东新区 年家浜东路129弄  " }, "geometry": { "type": "Point", "coordinates": [ 121.598925375539352, 31.120365137063242 ] } },
{ "type": "Feature", "properties": { "addr": "上海市 浦东新区 宣春路201号  " }, "geometry": { "type": "Point", "coordinates": [ 121.732443128573337, 31.090001234780068 ] } },
{ "type": "Feature", "properties": { "addr": "上海市 浦东新区 航头路166号  " }, "geometry": { "type": "Point", "coordinates": [ 121.610102452016704, 31.041092492804157 ] } },
{ "type": "Feature", "properties": { "addr": "上海市 浦东新区 临江村庞家队庞信隆  " }, "geometry": { "type": "Point", "coordinates": [ 121.479922892088325, 31.12193527708931 ] } },
{ "type": "Feature", "properties": { "addr": "上海市 浦东新区 五莲路759弄  " }, "geometry": { "type": "Point", "coordinates": [ 121.597702871570817, 31.276387222961237 ] } },
{ "type": "Feature", "properties": { "addr": "上海市 浦东新区 丁香路910弄  " }, "geometry": { "type": "Point", "coordinates": [ 121.560392021705539, 31.231240477950827 ] } },
{ "type": "Feature", "properties": { "addr": "上海市 浦东新区 一六村油车队  " }, "geometry": { "type": "Point", "coordinates": [ 121.596814896574216, 31.168019975111559 ] } },
{ "type": "Feature", "properties": { "addr": "上海市 浦东新区 临江村庞家队庞家宅  " }, "geometry": { "type": "Point", "coordinates": [ 121.482806722267, 31.124007039641032 ] } },
{ "type": "Feature", "properties": { "addr": "上海市 浦东新区 一六村金桥队南赵家宅  " }, "geometry": { "type": "Point", "coordinates": [ 121.602726734965927, 31.173188295681612 ] } },
{ "type": "Feature", "properties": { "addr": "上海市 浦东新区 虹桥村  " }, "geometry": { "type": "Point", "coordinates": [ 121.71685456356704, 31.181656996001379 ] } },
{ "type": "Feature", "properties": { "addr": "上海市 浦东新区 和平村钱家宅  " }, "geometry": { "type": "Point", "coordinates": [ 121.736251135460691, 31.205557663946749 ] } },
{ "type": "Feature", "properties": { "addr": "上海市 浦东新区 双店村  " }, "geometry": { "type": "Point", "coordinates": [ 121.823464653016259, 31.005010249319067 ] } },
{ "type": "Feature", "properties": { "addr": "上海市 浦东新区 尚博路799弄  " }, "geometry": { "type": "Point", "coordinates": [ 121.530770397514004, 31.156164699441437 ] } },
{ "type": "Feature", "properties": { "addr": "上海市 浦东新区 临江村张塘队张家宅  " }, "geometry": { "type": "Point", "coordinates": [ 121.732101682649002, 31.261476576156298 ] } },
{ "type": "Feature", "properties": { "addr": "上海市 浦东新区 下南路276弄  " }, "geometry": { "type": "Point", "coordinates": [ 121.536884264814915, 31.189702255537771 ] } },
{ "type": "Feature", "properties": { "addr": "上海市 浦东新区 和平村龚家宅  " }, "geometry": { "type": "Point", "coordinates": [ 121.736251135460691, 31.205557663946749 ] } },
{ "type": "Feature", "properties": { "addr": "上海市 浦东新区 东陆路1350弄  " }, "geometry": { "type": "Point", "coordinates": [ 121.58962611690005, 31.28158489894264 ] } },
{ "type": "Feature", "properties": { "addr": "上海市 浦东新区 学前二村  " }, "geometry": { "type": "Point", "coordinates": [ 121.590492532564426, 31.352587432129926 ] } },
{ "type": "Feature", "properties": { "addr": "上海市 浦东新区 一六村船舫队  " }, "geometry": { "type": "Point", "coordinates": [ 121.596222374259824, 31.175098805881348 ] } },
{ "type": "Feature", "properties": { "addr": "上海市 浦东新区 新金桥路230号  " }, "geometry": { "type": "Point", "coordinates": [ 121.606037799245144, 31.255251663107057 ] } },
{ "type": "Feature", "properties": { "addr": "上海市 浦东新区 巨野路469弄  " }, "geometry": { "type": "Point", "coordinates": [ 121.556437860511707, 31.243434285427949 ] } },
{ "type": "Feature", "properties": { "addr": "上海市 浦东新区 迅建村  " }, "geometry": { "type": "Point", "coordinates": [ 121.699225138272624, 31.284090892321522 ] } },
{ "type": "Feature", "properties": { "addr": "上海市 浦东新区 五星村吴家队吴家宅  " }, "geometry": { "type": "Point", "coordinates": [ 121.522180979888702, 31.125604863131734 ] } },
{ "type": "Feature", "properties": { "addr": "上海市 浦东新区 张杨路1776弄  " }, "geometry": { "type": "Point", "coordinates": [ 121.556913962432006, 31.243885354258111 ] } },
{ "type": "Feature", "properties": { "addr": "上海市 浦东新区 峨山路500弄  " }, "geometry": { "type": "Point", "coordinates": [ 121.530728716138341, 31.219497888809606 ] } },
{ "type": "Feature", "properties": { "addr": "上海市 浦东新区 北园路258弄  " }, "geometry": { "type": "Point", "coordinates": [ 121.530865977220273, 31.209652667790809 ] } },
{ "type": "Feature", "properties": { "addr": "上海市 浦东新区 唐陆公路陈家宅  " }, "geometry": { "type": "Point", "coordinates": [ 121.689097102969839, 31.1957176185363 ] } },
{ "type": "Feature", "properties": { "addr": "上海市 浦东新区 新虹村赵家宅  " }, "geometry": { "type": "Point", "coordinates": [ 121.655033627523125, 31.248713367963926 ] } },
{ "type": "Feature", "properties": { "addr": "上海市 浦东新区 虹三村七队龚家宅  " }, "geometry": { "type": "Point", "coordinates": [ 121.842774268936552, 30.95595080044237 ] } },
{ "type": "Feature", "properties": { "addr": "上海市 浦东新区 前进村唐家宅  " }, "geometry": { "type": "Point", "coordinates": [ 121.758661702001419, 31.124503585038568 ] } },
{ "type": "Feature", "properties": { "addr": "上海市 浦东新区 上南路929弄  " }, "geometry": { "type": "Point", "coordinates": [ 121.50767882556616, 31.186093717393579 ] } },
{ "type": "Feature", "properties": { "addr": "上海市 浦东新区 沪南公路7518号  " }, "geometry": { "type": "Point", "coordinates": [ 121.660889591312113, 31.035401250406032 ] } },
{ "type": "Feature", "properties": { "addr": "上海市 浦东新区 新卫村  " }, "geometry": { "type": "Point", "coordinates": [ 121.647615151130069, 31.044082628274037 ] } },
{ "type": "Feature", "properties": { "addr": "上海市 浦东新区 韩荡村西丁家宅  " }, "geometry": { "type": "Point", "coordinates": [ 121.669724605663845, 31.2288207632593 ] } },
{ "type": "Feature", "properties": { "addr": "上海市 浦东新区 碧云路1198号  " }, "geometry": { "type": "Point", "coordinates": [ 121.596007679242931, 31.248880387013411 ] } },
{ "type": "Feature", "properties": { "addr": "上海市 浦东新区 上南路6393号  " }, "geometry": { "type": "Point", "coordinates": [ 121.584859707864112, 31.120077939878794 ] } },
{ "type": "Feature", "properties": { "addr": "上海市 浦东新区 林展路411弄  " }, "geometry": { "type": "Point", "coordinates": [ 121.515681739524013, 31.128169902288004 ] } },
{ "type": "Feature", "properties": { "addr": "上海市 浦东新区 板泉路2101弄  " }, "geometry": { "type": "Point", "coordinates": [ 121.539604693221335, 31.168815850763366 ] } },
{ "type": "Feature", "properties": { "addr": "上海市 浦东新区 牟平路304弄  " }, "geometry": { "type": "Point", "coordinates": [ 121.606641999531149, 31.26981051304805 ] } },
{ "type": "Feature", "properties": { "addr": "上海市 浦东新区 高科西路2757弄  " }, "geometry": { "type": "Point", "coordinates": [ 121.560650913353513, 31.195881488759181 ] } },
{ "type": "Feature", "properties": { "addr": "上海市 浦东新区 巨野路236号  " }, "geometry": { "type": "Point", "coordinates": [ 121.55183584138409, 31.246946065859394 ] } },
{ "type": "Feature", "properties": { "addr": "上海市 浦东新区 民建村  " }, "geometry": { "type": "Point", "coordinates": [ 121.667798908142103, 31.282249806545646 ] } },
{ "type": "Feature", "properties": { "addr": "上海市 浦东新区 和龙路295弄  " }, "geometry": { "type": "Point", "coordinates": [ 121.577540943382672, 31.349205602767256 ] } },
{ "type": "Feature", "properties": { "addr": "上海市 浦东新区 南泉路1300弄  " }, "geometry": { "type": "Point", "coordinates": [ 121.52893030850737, 31.217418043380952 ] } },
{ "type": "Feature", "properties": { "addr": "上海市 浦东新区 中界村张家队张家宅  " }, "geometry": { "type": "Point", "coordinates": [ 121.691947606014082, 31.236233793114234 ] } },
{ "type": "Feature", "properties": { "addr": "上海市 浦东新区 巨峰路176弄  " }, "geometry": { "type": "Point", "coordinates": [ 121.603201669089032, 31.285412489153977 ] } },
{ "type": "Feature", "properties": { "addr": "上海市 浦东新区 永泰路133弄  " }, "geometry": { "type": "Point", "coordinates": [ 121.50921573646319, 31.141593889142552 ] } },
{ "type": "Feature", "properties": { "addr": "上海市 浦东新区 东陆路1031弄  " }, "geometry": { "type": "Point", "coordinates": [ 121.58962611690005, 31.28158489894264 ] } },
{ "type": "Feature", "properties": { "addr": "上海市 浦东新区 航亭环路399弄  " }, "geometry": { "type": "Point", "coordinates": [ 121.768482426989252, 31.105525647466997 ] } },
{ "type": "Feature", "properties": { "addr": "上海市 浦东新区 拱海路78弄  " }, "geometry": { "type": "Point", "coordinates": [ 121.774859587635135, 31.060910455271795 ] } },
{ "type": "Feature", "properties": { "addr": "上海市 浦东新区 严杨路166弄  " }, "geometry": { "type": "Point", "coordinates": [ 121.536194994997118, 31.20036688077375 ] } },
{ "type": "Feature", "properties": { "addr": "上海市 浦东新区 张杨路1734弄  " }, "geometry": { "type": "Point", "coordinates": [ 121.554515217228712, 31.242822359690496 ] } },
{ "type": "Feature", "properties": { "addr": "上海市 浦东新区 张杨路1698弄  " }, "geometry": { "type": "Point", "coordinates": [ 121.551694448096839, 31.241769773219296 ] } },
{ "type": "Feature", "properties": { "addr": "上海市 浦东新区 浦东大道1851弄  " }, "geometry": { "type": "Point", "coordinates": [ 121.552497443392198, 31.253101686701353 ] } },
{ "type": "Feature", "properties": { "addr": "上海市 浦东新区 灵山路1724弄  " }, "geometry": { "type": "Point", "coordinates": [ 121.574529733482663, 31.246303135635344 ] } },
{ "type": "Feature", "properties": { "addr": "上海市 浦东新区 灵山路708弄  " }, "geometry": { "type": "Point", "coordinates": [ 121.554943080143104, 31.236668300668715 ] } },
{ "type": "Feature", "properties": { "addr": "上海市 浦东新区 碧云路777号  " }, "geometry": { "type": "Point", "coordinates": [ 121.591858046770142, 31.246712203396282 ] } },
{ "type": "Feature", "properties": { "addr": "上海市 浦东新区 浦东南路1475弄  " }, "geometry": { "type": "Point", "coordinates": [ 121.525751744290872, 31.228549414736456 ] } },
{ "type": "Feature", "properties": { "addr": "上海市 浦东新区 凌河路188弄  " }, "geometry": { "type": "Point", "coordinates": [ 121.602161970291789, 31.281903851498075 ] } },
{ "type": "Feature", "properties": { "addr": "上海市 浦东新区 潍坊路154弄  " }, "geometry": { "type": "Point", "coordinates": [ 121.532304344002839, 31.231346466894244 ] } },
{ "type": "Feature", "properties": { "addr": "上海市 浦东新区 莱阳路111弄  " }, "geometry": { "type": "Point", "coordinates": [ 121.589537813468425, 31.332463488478048 ] } },
{ "type": "Feature", "properties": { "addr": "上海市 浦东新区 利津路729弄  " }, "geometry": { "type": "Point", "coordinates": [ 121.596582954091531, 31.280678570870514 ] } },
{ "type": "Feature", "properties": { "addr": "上海市 浦东新区 新建村  " }, "geometry": { "type": "Point", "coordinates": [ 121.84481485973302, 30.965617301613808 ] } },
{ "type": "Feature", "properties": { "addr": "上海市 浦东新区 五莲路400弄  " }, "geometry": { "type": "Point", "coordinates": [ 121.587997039857697, 31.278002278635245 ] } },
{ "type": "Feature", "properties": { "addr": "上海市 浦东新区 长岛路1066弄  " }, "geometry": { "type": "Point", "coordinates": [ 121.597067769575261, 31.26601407599254 ] } },
{ "type": "Feature", "properties": { "addr": "上海市 浦东新区 上南路1000弄  " }, "geometry": { "type": "Point", "coordinates": [ 121.500667461230236, 31.180593835385782 ] } },
{ "type": "Feature", "properties": { "addr": "上海市 浦东新区 荷泽路567弄  " }, "geometry": { "type": "Point", "coordinates": [ 121.601167905414457, 31.27214128028449 ] } },
{ "type": "Feature", "properties": { "addr": "上海市 浦东新区 南泉路1250弄  " }, "geometry": { "type": "Point", "coordinates": [ 121.527931123288624, 31.217747714972386 ] } },
{ "type": "Feature", "properties": { "addr": "上海市 浦东新区 巨野路60弄  " }, "geometry": { "type": "Point", "coordinates": [ 121.54917497063299, 31.249685840680606 ] } },
{ "type": "Feature", "properties": { "addr": "上海市 浦东新区 浦东大道2511弄  " }, "geometry": { "type": "Point", "coordinates": [ 121.566406266925384, 31.265127505972 ] } },
{ "type": "Feature", "properties": { "addr": "上海市 浦东新区 兰城路115弄  " }, "geometry": { "type": "Point", "coordinates": [ 121.585504152236965, 31.272452471814049 ] } },
{ "type": "Feature", "properties": { "addr": "上海市 浦东新区 顾三村  " }, "geometry": { "type": "Point", "coordinates": [ 121.682658228735406, 31.301055132650703 ] } },
{ "type": "Feature", "properties": { "addr": "上海市 浦东新区 荷泽路58弄  " }, "geometry": { "type": "Point", "coordinates": [ 121.596890803389797, 31.278780862523867 ] } },
{ "type": "Feature", "properties": { "addr": "上海市 浦东新区 绿科路环业西路交界口工地生活区  " }, "geometry": { "type": "Point", "coordinates": [ 121.582003365834041, 31.182980426822898 ] } },
{ "type": "Feature", "properties": { "addr": "上海市 浦东新区 博山路13弄  " }, "geometry": { "type": "Point", "coordinates": [ 121.56423874556036, 31.250936765313728 ] } },
{ "type": "Feature", "properties": { "addr": "上海市 浦东新区 上南路6852号  " }, "geometry": { "type": "Point", "coordinates": [ 121.584859707864112, 31.120077939878794 ] } },
{ "type": "Feature", "properties": { "addr": "上海市 浦东新区 黄华村  " }, "geometry": { "type": "Point", "coordinates": [ 121.883529940771496, 30.977847150075128 ] } },
{ "type": "Feature", "properties": { "addr": "上海市 浦东新区 浦东大道2641弄  " }, "geometry": { "type": "Point", "coordinates": [ 121.57542031356526, 31.271472442613302 ] } },
{ "type": "Feature", "properties": { "addr": "上海市 浦东新区 东陆路898弄  " }, "geometry": { "type": "Point", "coordinates": [ 121.598981609464275, 31.280897766199242 ] } },
{ "type": "Feature", "properties": { "addr": "上海市 浦东新区 浦电路62弄  " }, "geometry": { "type": "Point", "coordinates": [ 121.524943538823536, 31.224365530063924 ] } },
{ "type": "Feature", "properties": { "addr": "上海市 浦东新区 长清路807弄  " }, "geometry": { "type": "Point", "coordinates": [ 121.499222985970206, 31.162053280418661 ] } },
{ "type": "Feature", "properties": { "addr": "上海市 浦东新区 南新村东钟家宅  " }, "geometry": { "type": "Point", "coordinates": [ 121.548654941573261, 31.173251634963325 ] } },
{ "type": "Feature", "properties": { "addr": "上海市 浦东新区 首善街619弄  " }, "geometry": { "type": "Point", "coordinates": [ 121.878165978910317, 30.981726147135195 ] } },
{ "type": "Feature", "properties": { "addr": "上海市 浦东新区 浦东大道2688号  " }, "geometry": { "type": "Point", "coordinates": [ 121.57667300059893, 31.26989986817085 ] } },
{ "type": "Feature", "properties": { "addr": "上海市 浦东新区 叠桥村  " }, "geometry": { "type": "Point", "coordinates": [ 121.622828746176552, 31.13384997321586 ] } },
{ "type": "Feature", "properties": { "addr": "上海市 浦东新区 三林镇徐家宅  " }, "geometry": { "type": "Point", "coordinates": [ 121.492635801496078, 31.160994455475659 ] } },
{ "type": "Feature", "properties": { "addr": "上海市 浦东新区 东海农场2村  " }, "geometry": { "type": "Point", "coordinates": [ 121.908737022195325, 30.960845876256776 ] } },
{ "type": "Feature", "properties": { "addr": "上海市 浦东新区 东靖路669弄  " }, "geometry": { "type": "Point", "coordinates": [ 121.58962611690005, 31.28158489894264 ] } },
{ "type": "Feature", "properties": { "addr": "上海市 浦东新区 宣中路697弄  " }, "geometry": { "type": "Point", "coordinates": [ 121.712276708857644, 31.027076259472249 ] } },
{ "type": "Feature", "properties": { "addr": "上海市 浦东新区 康桥东路1244号  " }, "geometry": { "type": "Point", "coordinates": [ 121.637737129222472, 31.162447356055775 ] } },
{ "type": "Feature", "properties": { "addr": "上海市 浦东新区 博山东路440弄  " }, "geometry": { "type": "Point", "coordinates": [ 121.575265715186987, 31.258583187628979 ] } },
{ "type": "Feature", "properties": { "addr": "上海市 浦东新区 秀沿西路68弄  " }, "geometry": { "type": "Point", "coordinates": [ 121.543756032474604, 31.137587866279553 ] } },
{ "type": "Feature", "properties": { "addr": "上海市 浦东新区 浦电路218弄  " }, "geometry": { "type": "Point", "coordinates": [ 121.530391582080455, 31.226031741548418 ] } },
{ "type": "Feature", "properties": { "addr": "上海市 浦东新区 上南路3880弄  " }, "geometry": { "type": "Point", "coordinates": [ 121.512285965035204, 31.155066947292617 ] } },
{ "type": "Feature", "properties": { "addr": "上海市 浦东新区 宣镇东路628弄  " }, "geometry": { "type": "Point", "coordinates": [ 121.707874203383795, 31.026321424163321 ] } },
{ "type": "Feature", "properties": { "addr": "上海市 浦东新区 齐河路28弄  " }, "geometry": { "type": "Point", "coordinates": [ 121.536884264814915, 31.189702255537771 ] } },
{ "type": "Feature", "properties": { "addr": "上海市 浦东新区 金桥路1502弄  " }, "geometry": { "type": "Point", "coordinates": [ 121.594345454727275, 31.25470255867954 ] } },
{ "type": "Feature", "properties": { "addr": "上海市 浦东新区 荷泽路825弄  " }, "geometry": { "type": "Point", "coordinates": [ 121.603786555806593, 31.266989301015624 ] } },
{ "type": "Feature", "properties": { "addr": "上海市 浦东新区 张家浜路188弄  " }, "geometry": { "type": "Point", "coordinates": [ 121.532554881409581, 31.222841726941716 ] } },
{ "type": "Feature", "properties": { "addr": "上海市 浦东新区 康沈路250号  " }, "geometry": { "type": "Point", "coordinates": [ 121.584859707864112, 31.120077939878794 ] } },
{ "type": "Feature", "properties": { "addr": "上海市 浦东新区 三舒路288弄  " }, "geometry": { "type": "Point", "coordinates": [ 121.525530311982649, 31.139159418419815 ] } },
{ "type": "Feature", "properties": { "addr": "上海市 浦东新区 川银路81弄  " }, "geometry": { "type": "Point", "coordinates": [ 121.692620975824369, 31.198646079849539 ] } },
{ "type": "Feature", "properties": { "addr": "上海市 浦东新区 德平路58弄  " }, "geometry": { "type": "Point", "coordinates": [ 121.565028176442524, 31.258310922203265 ] } },
{ "type": "Feature", "properties": { "addr": "上海市 浦东新区 耀路423弄  " }, "geometry": { "type": "Point", "coordinates": [ 121.550454606831948, 31.227348292436346 ] } },
{ "type": "Feature", "properties": { "addr": "上海市 浦东新区 临江村筠西队庞家宅  " }, "geometry": { "type": "Point", "coordinates": [ 121.482806722267, 31.124007039641032 ] } },
{ "type": "Feature", "properties": { "addr": "上海市 浦东新区 芦云路200弄  " }, "geometry": { "type": "Point", "coordinates": [ 121.865041915070634, 30.87912430958934 ] } },
{ "type": "Feature", "properties": { "addr": "上海市 浦东新区 新营村张朱家宅  " }, "geometry": { "type": "Point", "coordinates": [ 121.757882152479866, 31.202247879870665 ] } },
{ "type": "Feature", "properties": { "addr": "上海市 浦东新区 日新村  " }, "geometry": { "type": "Point", "coordinates": [ 121.818680457531229, 31.067839373744686 ] } },
{ "type": "Feature", "properties": { "addr": "上海市 浦东新区 永和村  " }, "geometry": { "type": "Point", "coordinates": [ 121.702053992154092, 31.270096557168518 ] } },
{ "type": "Feature", "properties": { "addr": "上海市 浦东新区 浦明路1228弄  " }, "geometry": { "type": "Point", "coordinates": [ 121.520969974230695, 31.219651912423011 ] } },
{ "type": "Feature", "properties": { "addr": "上海市 浦东新区 东河村  " }, "geometry": { "type": "Point", "coordinates": [ 121.859546081960602, 31.024416167292248 ] } },
{ "type": "Feature", "properties": { "addr": "上海市 浦东新区 镇南村  " }, "geometry": { "type": "Point", "coordinates": [ 121.585893837167205, 31.345267831413143 ] } },
{ "type": "Feature", "properties": { "addr": "上海市 浦东新区 浦建路207弄  " }, "geometry": { "type": "Point", "coordinates": [ 121.530780009382966, 31.21458559929172 ] } },
{ "type": "Feature", "properties": { "addr": "上海市 浦东新区 高桥镇胡家街  " }, "geometry": { "type": "Point", "coordinates": [ 121.588954453870244, 31.349628714003305 ] } },
{ "type": "Feature", "properties": { "addr": "上海市 浦东新区 康沈路1870弄  " }, "geometry": { "type": "Point", "coordinates": [ 121.583784076846456, 31.117394273176185 ] } },
{ "type": "Feature", "properties": { "addr": "上海市 浦东新区 海潮村  " }, "geometry": { "type": "Point", "coordinates": [ 121.771538641995306, 30.966605712285574 ] } },
{ "type": "Feature", "properties": { "addr": "上海市 浦东新区 莱阳路881弄  " }, "geometry": { "type": "Point", "coordinates": [ 121.58956036093673, 31.289971893195336 ] } },
{ "type": "Feature", "properties": { "addr": "上海市 浦东新区 沪南公路3468弄  " }, "geometry": { "type": "Point", "coordinates": [ 121.602676429857368, 31.044510909823853 ] } },
{ "type": "Feature", "properties": { "addr": "上海市 浦东新区 杨新路77弄  " }, "geometry": { "type": "Point", "coordinates": [ 121.500168003366696, 31.169243023786645 ] } },
{ "type": "Feature", "properties": { "addr": "上海市 浦东新区 江东路1992弄  " }, "geometry": { "type": "Point", "coordinates": [ 121.554829085173893, 31.365916880638576 ] } },
{ "type": "Feature", "properties": { "addr": "上海市 浦东新区 塘北村  " }, "geometry": { "type": "Point", "coordinates": [ 121.886683532094821, 30.915368157845567 ] } },
{ "type": "Feature", "properties": { "addr": "上海市 浦东新区 海鹏路380弄  " }, "geometry": { "type": "Point", "coordinates": [ 121.676483635982024, 31.293987138169218 ] } },
{ "type": "Feature", "properties": { "addr": "上海市 浦东新区 康桥路90弄  " }, "geometry": { "type": "Point", "coordinates": [ 121.584859707864112, 31.120077939878794 ] } },
{ "type": "Feature", "properties": { "addr": "上海市 浦东新区 曹路镇姜薛家宅  " }, "geometry": { "type": "Point", "coordinates": [ 121.66888954086177, 31.267774844391841 ] } },
{ "type": "Feature", "properties": { "addr": "上海市 浦东新区 长岛路1201弄  " }, "geometry": { "type": "Point", "coordinates": [ 121.596729737211859, 31.2693476089323 ] } },
{ "type": "Feature", "properties": { "addr": "上海市 浦东新区 东海二村  " }, "geometry": { "type": "Point", "coordinates": [ 121.908737022195325, 30.960845876256776 ] } },
{ "type": "Feature", "properties": { "addr": "上海市 浦东新区 长岛路85弄  " }, "geometry": { "type": "Point", "coordinates": [ 121.584693431514211, 31.274539040952714 ] } },
{ "type": "Feature", "properties": { "addr": "上海市 浦东新区 龚华路50弄  " }, "geometry": { "type": "Point", "coordinates": [ 121.691832533078269, 31.270582837879559 ] } },
{ "type": "Feature", "properties": { "addr": "上海市 浦东新区 民耀路293弄  " }, "geometry": { "type": "Point", "coordinates": [ 121.652778790862527, 31.290487771739045 ] } },
{ "type": "Feature", "properties": { "addr": "上海市 浦东新区 卫行村顾家队顾家宅  " }, "geometry": { "type": "Point", "coordinates": [ 121.659911336611756, 31.303725750231376 ] } },
{ "type": "Feature", "properties": { "addr": "上海市 浦东新区 锦绣东路418弄  " }, "geometry": { "type": "Point", "coordinates": [ 121.582601188150917, 31.234673825663982 ] } },
{ "type": "Feature", "properties": { "addr": "上海市 浦东新区 中林村  " }, "geometry": { "type": "Point", "coordinates": [ 121.505046161608064, 31.142497469241221 ] } },
{ "type": "Feature", "properties": { "addr": "上海市 浦东新区 沪南公路2688弄  " }, "geometry": { "type": "Point", "coordinates": [ 121.571058052178245, 31.137466084958678 ] } },
{ "type": "Feature", "properties": { "addr": "上海市 浦东新区 金钻路398弄  " }, "geometry": { "type": "Point", "coordinates": [ 121.677268934658855, 31.293179906356418 ] } },
{ "type": "Feature", "properties": { "addr": "上海市 浦东新区 妙境路162弄  " }, "geometry": { "type": "Point", "coordinates": [ 121.695020439672064, 31.202333593039469 ] } },
{ "type": "Feature", "properties": { "addr": "上海市 浦东新区 高博路188弄  " }, "geometry": { "type": "Point", "coordinates": [ 121.58962611690005, 31.28158489894264 ] } },
{ "type": "Feature", "properties": { "addr": "上海市 浦东新区 民耀路391弄  " }, "geometry": { "type": "Point", "coordinates": [ 121.652778790862527, 31.290487771739045 ] } },
{ "type": "Feature", "properties": { "addr": "上海市 浦东新区 民同路293弄  " }, "geometry": { "type": "Point", "coordinates": [ 121.652778790862527, 31.290487771739045 ] } },
{ "type": "Feature", "properties": { "addr": "上海市 浦东新区 瑞安路699弄  " }, "geometry": { "type": "Point", "coordinates": [ 121.600951054464346, 31.096582454583743 ] } },
{ "type": "Feature", "properties": { "addr": "上海市 浦东新区 中界村黄家队黄家宅  " }, "geometry": { "type": "Point", "coordinates": [ 121.736194182891353, 31.260788678121866 ] } },
{ "type": "Feature", "properties": { "addr": "上海市 浦东新区 南码头路1186弄  " }, "geometry": { "type": "Point", "coordinates": [ 121.518999181772372, 31.188476075588628 ] } },
{ "type": "Feature", "properties": { "addr": "上海市 浦东新区 临江村周北队周家宅  " }, "geometry": { "type": "Point", "coordinates": [ 121.478736410170754, 31.124012372204763 ] } },
{ "type": "Feature", "properties": { "addr": "上海市 浦东新区 利津路215弄  " }, "geometry": { "type": "Point", "coordinates": [ 121.589409804933254, 31.284205385163165 ] } },
{ "type": "Feature", "properties": { "addr": "上海市 浦东新区 华星村陆家宅  " }, "geometry": { "type": "Point", "coordinates": [ 121.718486333001678, 31.210331189522361 ] } },
{ "type": "Feature", "properties": { "addr": "上海市 浦东新区 栖山路1489弄  " }, "geometry": { "type": "Point", "coordinates": [ 121.571031731826807, 31.263823525136839 ] } },
{ "type": "Feature", "properties": { "addr": "上海市 浦东新区 浦东南路1533号  " }, "geometry": { "type": "Point", "coordinates": [ 121.527644653661497, 31.227372301137734 ] } },
{ "type": "Feature", "properties": { "addr": "上海市 浦东新区 博兴路1676弄  " }, "geometry": { "type": "Point", "coordinates": [ 121.60817944941148, 31.281497329533256 ] } },
{ "type": "Feature", "properties": { "addr": "上海市 浦东新区 永业路218弄  " }, "geometry": { "type": "Point", "coordinates": [ 121.622881566540542, 31.272262037844655 ] } },
{ "type": "Feature", "properties": { "addr": "上海市 浦东新区 栖山路1460弄  " }, "geometry": { "type": "Point", "coordinates": [ 121.572349456179396, 31.261677295730113 ] } },
{ "type": "Feature", "properties": { "addr": "上海市 浦东新区 浦东南路1288号  " }, "geometry": { "type": "Point", "coordinates": [ 121.523559878846527, 31.230896186745355 ] } },
{ "type": "Feature", "properties": { "addr": "上海市 浦东新区 溪平路425弄  " }, "geometry": { "type": "Point", "coordinates": [ 121.69284698949069, 31.267755861790882 ] } },
{ "type": "Feature", "properties": { "addr": "上海市 浦东新区 迎春路719号  " }, "geometry": { "type": "Point", "coordinates": [ 121.559101605840439, 31.23055776115083 ] } },
{ "type": "Feature", "properties": { "addr": "上海市 浦东新区 寿光路31弄  " }, "geometry": { "type": "Point", "coordinates": [ 121.589460469364013, 31.278797451050615 ] } },
{ "type": "Feature", "properties": { "addr": "上海市 浦东新区 川周公路2828弄  " }, "geometry": { "type": "Point", "coordinates": [ 121.624521962232308, 31.149124848312649 ] } },
{ "type": "Feature", "properties": { "addr": "上海市 浦东新区 昌里路340弄  " }, "geometry": { "type": "Point", "coordinates": [ 121.500968393576088, 31.178239082858738 ] } },
{ "type": "Feature", "properties": { "addr": "上海市 浦东新区 灵山路1840弄  " }, "geometry": { "type": "Point", "coordinates": [ 121.578033843615998, 31.248054473360007 ] } },
{ "type": "Feature", "properties": { "addr": "上海市 浦东新区 牌楼村  " }, "geometry": { "type": "Point", "coordinates": [ 121.565577580092423, 31.05914827465531 ] } },
{ "type": "Feature", "properties": { "addr": "上海市 浦东新区 栏杆村  " }, "geometry": { "type": "Point", "coordinates": [ 121.672901912252641, 31.179777437248575 ] } },
{ "type": "Feature", "properties": { "addr": "上海市 浦东新区 成山路24弄  " }, "geometry": { "type": "Point", "coordinates": [ 121.492308997951554, 31.174146877064409 ] } },
{ "type": "Feature", "properties": { "addr": "上海市 浦东新区 祝家港路155弄  " }, "geometry": { "type": "Point", "coordinates": [ 121.592181436753734, 31.116418572112241 ] } },
{ "type": "Feature", "properties": { "addr": "上海市 浦东新区 崂山五村  " }, "geometry": { "type": "Point", "coordinates": [ 121.523565268679576, 31.242727884421647 ] } },
{ "type": "Feature", "properties": { "addr": "上海市 浦东新区 成山路601弄  " }, "geometry": { "type": "Point", "coordinates": [ 121.515312086806659, 31.180125469338968 ] } },
{ "type": "Feature", "properties": { "addr": "上海市 浦东新区 张杨路2238弄  " }, "geometry": { "type": "Point", "coordinates": [ 121.563858043685229, 31.246144602101179 ] } },
{ "type": "Feature", "properties": { "addr": "上海市 浦东新区 懿行路971弄  " }, "geometry": { "type": "Point", "coordinates": [ 121.519394975180049, 31.131133547765522 ] } },
{ "type": "Feature", "properties": { "addr": "上海市 浦东新区 城南路374弄  " }, "geometry": { "type": "Point", "coordinates": [ 121.708184028954193, 31.198148845586282 ] } },
{ "type": "Feature", "properties": { "addr": "上海市 浦东新区 五莲路1424弄  " }, "geometry": { "type": "Point", "coordinates": [ 121.606921013222561, 31.281810881647033 ] } },
{ "type": "Feature", "properties": { "addr": "上海市 浦东新区 崂山三村  " }, "geometry": { "type": "Point", "coordinates": [ 121.52639681747759, 31.238932508563483 ] } },
{ "type": "Feature", "properties": { "addr": "上海市 浦东新区 金家浜  " }, "geometry": { "type": "Point", "coordinates": [ 121.564865762806321, 31.263202163919217 ] } },
{ "type": "Feature", "properties": { "addr": "上海市 浦东新区 浦东大道2742弄  " }, "geometry": { "type": "Point", "coordinates": [ 121.577979316471527, 31.272927088984172 ] } },
{ "type": "Feature", "properties": { "addr": "上海市 浦东新区 天花庵村乐耕队  " }, "geometry": { "type": "Point", "coordinates": [ 121.52853496425243, 31.13252183088585 ] } },
{ "type": "Feature", "properties": { "addr": "上海市 浦东新区 航梅路525号  " }, "geometry": { "type": "Point", "coordinates": [ 121.584725501020912, 31.032255038861667 ] } },
{ "type": "Feature", "properties": { "addr": "上海市 浦东新区 寿光路161弄  " }, "geometry": { "type": "Point", "coordinates": [ 121.590525320715543, 31.280396185422553 ] } },
{ "type": "Feature", "properties": { "addr": "上海市 浦东新区 羽山路1445弄  " }, "geometry": { "type": "Point", "coordinates": [ 121.567132277438546, 31.246777885619089 ] } },
{ "type": "Feature", "properties": { "addr": "上海市 浦东新区 金桥路835弄  " }, "geometry": { "type": "Point", "coordinates": [ 121.621784825343411, 31.260663815674061 ] } },
{ "type": "Feature", "properties": { "addr": "上海市 浦东新区 新场村  " }, "geometry": { "type": "Point", "coordinates": [ 121.651506700429849, 31.025181307355499 ] } },
{ "type": "Feature", "properties": { "addr": "上海市 浦东新区 金葵路945弄  " }, "geometry": { "type": "Point", "coordinates": [ 121.602138614348533, 31.244250205910852 ] } },
{ "type": "Feature", "properties": { "addr": "上海市 浦东新区 巨野路大陆家宅  " }, "geometry": { "type": "Point", "coordinates": [ 121.553185994565595, 31.244897858469482 ] } },
{ "type": "Feature", "properties": { "addr": "上海市 浦东新区 杨辉村  " }, "geometry": { "type": "Point", "coordinates": [ 121.655436427713795, 31.014212056098323 ] } },
{ "type": "Feature", "properties": { "addr": "上海市 浦东新区 跃丰村  " }, "geometry": { "type": "Point", "coordinates": [ 121.715041333895158, 31.230562701679265 ] } },
{ "type": "Feature", "properties": { "addr": "上海市 浦东新区 新奉公路122弄  " }, "geometry": { "type": "Point", "coordinates": [ 121.654089777923787, 31.01644000558796 ] } },
{ "type": "Feature", "properties": { "addr": "上海市 浦东新区 高宝路229弄  " }, "geometry": { "type": "Point", "coordinates": [ 121.627287216083673, 31.297669581878687 ] } },
{ "type": "Feature", "properties": { "addr": "上海市 浦东新区 新川路625弄  " }, "geometry": { "type": "Point", "coordinates": [ 121.700788369521078, 31.197903277761203 ] } },
{ "type": "Feature", "properties": { "addr": "上海市 浦东新区 新环西路1000弄  " }, "geometry": { "type": "Point", "coordinates": [ 121.645105644857395, 31.034752228613804 ] } },
{ "type": "Feature", "properties": { "addr": "上海市 浦东新区 拱海路79弄  " }, "geometry": { "type": "Point", "coordinates": [ 121.74678161163196, 31.07553127655628 ] } },
{ "type": "Feature", "properties": { "addr": "上海市 浦东新区 千汇路750弄  " }, "geometry": { "type": "Point", "coordinates": [ 121.770910097629965, 31.122895232134738 ] } },
{ "type": "Feature", "properties": { "addr": "上海市 浦东新区 浦电路48弄  " }, "geometry": { "type": "Point", "coordinates": [ 121.523018290454559, 31.224774384963634 ] } },
{ "type": "Feature", "properties": { "addr": "上海市 浦东新区 龙汇路1880弄  " }, "geometry": { "type": "Point", "coordinates": [ 121.536884264814915, 31.189702255537771 ] } },
{ "type": "Feature", "properties": { "addr": "上海市 浦东新区 千汇路580弄  " }, "geometry": { "type": "Point", "coordinates": [ 121.774441695911889, 31.118038783714734 ] } },
{ "type": "Feature", "properties": { "addr": "上海市 浦东新区 祥安路36弄  " }, "geometry": { "type": "Point", "coordinates": [ 121.821194455331465, 30.966646353950573 ] } },
{ "type": "Feature", "properties": { "addr": "上海市 浦东新区 上浦路480弄  " }, "geometry": { "type": "Point", "coordinates": [ 121.505296160031492, 31.151717599784316 ] } },
{ "type": "Feature", "properties": { "addr": "上海市 浦东新区 乳山二村  " }, "geometry": { "type": "Point", "coordinates": [ 121.524533013205485, 31.239631836915859 ] } },
{ "type": "Feature", "properties": { "addr": "上海市 浦东新区 千汇路32弄  " }, "geometry": { "type": "Point", "coordinates": [ 121.766842749941887, 31.114088797527916 ] } },
{ "type": "Feature", "properties": { "addr": "上海市 浦东新区 行德路141弄  " }, "geometry": { "type": "Point", "coordinates": [ 121.617842431951757, 31.300027577864299 ] } },
{ "type": "Feature", "properties": { "addr": "上海市 浦东新区 康沈路2588弄  " }, "geometry": { "type": "Point", "coordinates": [ 121.587931553386028, 31.102745480162682 ] } },
{ "type": "Feature", "properties": { "addr": "上海市 浦东新区 长清路773弄  " }, "geometry": { "type": "Point", "coordinates": [ 121.49801207014275, 31.161973865099831 ] } },
{ "type": "Feature", "properties": { "addr": "上海市 浦东新区 金亭公路619号  " }, "geometry": { "type": "Point", "coordinates": [ 121.774519938321816, 31.118119704680012 ] } },
{ "type": "Feature", "properties": { "addr": "上海市 浦东新区 五莲路100弄  " }, "geometry": { "type": "Point", "coordinates": [ 121.585797359155421, 31.281678100479343 ] } },
{ "type": "Feature", "properties": { "addr": "上海市 浦东新区 尚博路366弄  " }, "geometry": { "type": "Point", "coordinates": [ 121.50248491293803, 31.151581620796641 ] } },
{ "type": "Feature", "properties": { "addr": "上海市 浦东新区 浦东南路2351弄  " }, "geometry": { "type": "Point", "coordinates": [ 121.519461719279448, 31.205598665834319 ] } },
{ "type": "Feature", "properties": { "addr": "上海市 浦东新区 兰谷路2777弄  " }, "geometry": { "type": "Point", "coordinates": [ 121.602138973670748, 31.316277446367362 ] } },
{ "type": "Feature", "properties": { "addr": "上海市 浦东新区 济阳路65弄  " }, "geometry": { "type": "Point", "coordinates": [ 121.488308933346161, 31.173016198002603 ] } },
{ "type": "Feature", "properties": { "addr": "上海市 浦东新区 北中路354弄  " }, "geometry": { "type": "Point", "coordinates": [ 121.566413902522214, 31.190149799113598 ] } },
{ "type": "Feature", "properties": { "addr": "上海市 浦东新区 沪二小区  " }, "geometry": { "type": "Point", "coordinates": [ 121.589043475946283, 31.274819978085866 ] } },
{ "type": "Feature", "properties": { "addr": "上海市 浦东新区 秀沿路2875弄  " }, "geometry": { "type": "Point", "coordinates": [ 121.616066481958541, 31.144930230822322 ] } },
{ "type": "Feature", "properties": { "addr": "上海市 浦东新区 高桥村江家宅  " }, "geometry": { "type": "Point", "coordinates": [ 121.704849429070592, 31.292735015579424 ] } },
{ "type": "Feature", "properties": { "addr": "上海市 浦东新区 锦安东路458弄  " }, "geometry": { "type": "Point", "coordinates": [ 121.548974019690405, 31.206312837075853 ] } },
{ "type": "Feature", "properties": { "addr": "上海市 浦东新区 六灶湾村  " }, "geometry": { "type": "Point", "coordinates": [ 121.772763391727608, 31.02063578916092 ] } },
{ "type": "Feature", "properties": { "addr": "上海市 浦东新区 德平路1060弄  " }, "geometry": { "type": "Point", "coordinates": [ 121.573486710955038, 31.248249664713569 ] } },
{ "type": "Feature", "properties": { "addr": "上海市 浦东新区 俱进路505弄  " }, "geometry": { "type": "Point", "coordinates": [ 121.58962611690005, 31.28158489894264 ] } },
{ "type": "Feature", "properties": { "addr": "上海市 浦东新区 浦东大道2740弄  " }, "geometry": { "type": "Point", "coordinates": [ 121.5781029233097, 31.272592827882505 ] } },
{ "type": "Feature", "properties": { "addr": "上海市 浦东新区 博兴路616弄  " }, "geometry": { "type": "Point", "coordinates": [ 121.59050564782487, 31.26885013299071 ] } },
{ "type": "Feature", "properties": { "addr": "上海市 浦东新区 康沈路1929弄  " }, "geometry": { "type": "Point", "coordinates": [ 121.58702570210977, 31.11734851809284 ] } },
{ "type": "Feature", "properties": { "addr": "上海市 浦东新区 莲溪路1099弄  " }, "geometry": { "type": "Point", "coordinates": [ 121.569863395680528, 31.181747748346829 ] } },
{ "type": "Feature", "properties": { "addr": "上海市 浦东新区 东方路1600弄  " }, "geometry": { "type": "Point", "coordinates": [ 121.532426513552196, 31.214714306495512 ] } },
{ "type": "Feature", "properties": { "addr": "上海市 浦东新区 莱阳路451弄  " }, "geometry": { "type": "Point", "coordinates": [ 121.589291857419795, 31.282158997327386 ] } },
{ "type": "Feature", "properties": { "addr": "上海市 浦东新区 东绣路1086弄  " }, "geometry": { "type": "Point", "coordinates": [ 121.542941718529804, 31.205269183115451 ] } },
{ "type": "Feature", "properties": { "addr": "上海市 浦东新区 张杨北路588弄  " }, "geometry": { "type": "Point", "coordinates": [ 121.595215283952584, 31.275260170384001 ] } },
{ "type": "Feature", "properties": { "addr": "上海市 浦东新区 北张家浜路188弄  " }, "geometry": { "type": "Point", "coordinates": [ 121.531700772530698, 31.222277223307351 ] } },
{ "type": "Feature", "properties": { "addr": "上海市 浦东新区 上南四村  " }, "geometry": { "type": "Point", "coordinates": [ 121.503619113474926, 31.177644727701431 ] } },
{ "type": "Feature", "properties": { "addr": "上海市 浦东新区 大众村王家宅  " }, "geometry": { "type": "Point", "coordinates": [ 121.532353481314246, 31.222659143739939 ] } },
{ "type": "Feature", "properties": { "addr": "上海市 浦东新区 西门村  " }, "geometry": { "type": "Point", "coordinates": [ 121.748019117302519, 31.060393930804395 ] } },
{ "type": "Feature", "properties": { "addr": "上海市 浦东新区 劳动村  " }, "geometry": { "type": "Point", "coordinates": [ 121.635001684142253, 31.185503659844144 ] } },
{ "type": "Feature", "properties": { "addr": "上海市 浦东新区 丁香路1399弄  " }, "geometry": { "type": "Point", "coordinates": [ 121.570496790895632, 31.236774283462957 ] } },
{ "type": "Feature", "properties": { "addr": "上海市 浦东新区 民生路423号  " }, "geometry": { "type": "Point", "coordinates": [ 121.549549653861192, 31.246153400950913 ] } },
{ "type": "Feature", "properties": { "addr": "上海市 浦东新区 博兴路986弄  " }, "geometry": { "type": "Point", "coordinates": [ 121.597262971362582, 31.27067103482398 ] } },
{ "type": "Feature", "properties": { "addr": "上海市 浦东新区 西泥路113弄  " }, "geometry": { "type": "Point", "coordinates": [ 121.709314097285727, 31.203518666083113 ] } },
{ "type": "Feature", "properties": { "addr": "上海市 浦东新区 红四村  " }, "geometry": { "type": "Point", "coordinates": [ 121.661870451098466, 31.246575513217142 ] } },
{ "type": "Feature", "properties": { "addr": "上海市 浦东新区 新南村  " }, "geometry": { "type": "Point", "coordinates": [ 121.651758764955943, 31.00795239326175 ] } },
{ "type": "Feature", "properties": { "addr": "上海市 浦东新区 汤巷村  " }, "geometry": { "type": "Point", "coordinates": [ 121.61059382513065, 31.144564683154275 ] } },
{ "type": "Feature", "properties": { "addr": "上海市 浦东新区 崮山路311号  " }, "geometry": { "type": "Point", "coordinates": [ 121.560707955753386, 31.251708319996219 ] } },
{ "type": "Feature", "properties": { "addr": "上海市 浦东新区 永宁路33弄  " }, "geometry": { "type": "Point", "coordinates": [ 121.620991980900314, 31.278981853544852 ] } },
{ "type": "Feature", "properties": { "addr": "上海市 浦东新区 浦建路83弄  " }, "geometry": { "type": "Point", "coordinates": [ 121.5253901763231, 31.215623976480853 ] } },
{ "type": "Feature", "properties": { "addr": "上海市 浦东新区 云山路1045弄  " }, "geometry": { "type": "Point", "coordinates": [ 121.580790653395567, 31.254575295646955 ] } },
{ "type": "Feature", "properties": { "addr": "上海市 浦东新区 荡湾路2号  " }, "geometry": { "type": "Point", "coordinates": [ 121.771344338513487, 31.050459467363268 ] } },
{ "type": "Feature", "properties": { "addr": "上海市 浦东新区 浦电路311号  " }, "geometry": { "type": "Point", "coordinates": [ 121.53317174780328, 31.22577026650125 ] } },
{ "type": "Feature", "properties": { "addr": "上海市 浦东新区 新任村  " }, "geometry": { "type": "Point", "coordinates": [ 121.50281306394082, 31.161867720395563 ] } },
{ "type": "Feature", "properties": { "addr": "上海市 浦东新区 永泰路59弄  " }, "geometry": { "type": "Point", "coordinates": [ 121.507846629035427, 31.140260061067913 ] } },
{ "type": "Feature", "properties": { "addr": "上海市 浦东新区 夏碧路79弄  " }, "geometry": { "type": "Point", "coordinates": [ 121.596205845438433, 31.344936913491289 ] } },
{ "type": "Feature", "properties": { "addr": "上海市 浦东新区 季桥村  " }, "geometry": { "type": "Point", "coordinates": [ 121.697999669895907, 31.064372155593095 ] } },
{ "type": "Feature", "properties": { "addr": "上海市 浦东新区 康桥路1558弄  " }, "geometry": { "type": "Point", "coordinates": [ 121.58763637019544, 31.155405954675448 ] } },
{ "type": "Feature", "properties": { "addr": "上海市 浦东新区 海春路150弄  " }, "geometry": { "type": "Point", "coordinates": [ 121.592615138653954, 31.354915900397863 ] } },
{ "type": "Feature", "properties": { "addr": "上海市 浦东新区 浦东大道275弄  " }, "geometry": { "type": "Point", "coordinates": [ 121.52178994750021, 31.246496092349336 ] } },
{ "type": "Feature", "properties": { "addr": "上海市 浦东新区 浦东大道3076弄  " }, "geometry": { "type": "Point", "coordinates": [ 121.584105041405181, 31.287169265881928 ] } },
{ "type": "Feature", "properties": { "addr": "上海市 浦东新区 项文路333弄  " }, "geometry": { "type": "Point", "coordinates": [ 121.712866985408255, 31.053397718847805 ] } },
{ "type": "Feature", "properties": { "addr": "上海市 浦东新区 王桥村  " }, "geometry": { "type": "Point", "coordinates": [ 121.70182842764055, 31.212551353419951 ] } },
{ "type": "Feature", "properties": { "addr": "上海市 浦东新区 荣科路177弄  " }, "geometry": { "type": "Point", "coordinates": [ 121.615302023969562, 31.184540174381912 ] } },
{ "type": "Feature", "properties": { "addr": "上海市 浦东新区 沪南路3468弄  " }, "geometry": { "type": "Point", "coordinates": [ 121.571596496500945, 31.122291020369307 ] } },
{ "type": "Feature", "properties": { "addr": "上海市 浦东新区 杨高北路4705弄  " }, "geometry": { "type": "Point", "coordinates": [ 121.611561030673244, 31.284400886766342 ] } },
{ "type": "Feature", "properties": { "addr": "上海市 浦东新区 万六村  " }, "geometry": { "type": "Point", "coordinates": [ 121.825190477562046, 30.97449923435299 ] } },
{ "type": "Feature", "properties": { "addr": "上海市 浦东新区 万和路118弄  " }, "geometry": { "type": "Point", "coordinates": [ 121.825241321653905, 30.979408598090973 ] } },
{ "type": "Feature", "properties": { "addr": "上海市 浦东新区 御北路235号工地生活区  " }, "geometry": { "type": "Point", "coordinates": [ 121.565527172320373, 31.16483088712021 ] } },
{ "type": "Feature", "properties": { "addr": "上海市 浦东新区 民雨路333弄  " }, "geometry": { "type": "Point", "coordinates": [ 121.670360965287117, 31.2814146978831 ] } },
{ "type": "Feature", "properties": { "addr": "上海市 浦东新区 坦西村  " }, "geometry": { "type": "Point", "coordinates": [ 121.65331067755497, 31.091888312065223 ] } },
{ "type": "Feature", "properties": { "addr": "上海市 浦东新区 笋心路10号  " }, "geometry": { "type": "Point", "coordinates": [ 121.649601124951531, 31.028108510380058 ] } },
{ "type": "Feature", "properties": { "addr": "上海市 浦东新区 天花庵村南陈队大陈家宅  " }, "geometry": { "type": "Point", "coordinates": [ 121.582591396620856, 31.161181021514196 ] } },
{ "type": "Feature", "properties": { "addr": "上海市 浦东新区 博山路50弄  " }, "geometry": { "type": "Point", "coordinates": [ 121.562882933054155, 31.252223638107505 ] } },
{ "type": "Feature", "properties": { "addr": "上海市 浦东新区 新路村  " }, "geometry": { "type": "Point", "coordinates": [ 121.839406970732398, 30.979778270401592 ] } },
{ "type": "Feature", "properties": { "addr": "上海市 浦东新区 潍坊路140弄  " }, "geometry": { "type": "Point", "coordinates": [ 121.531550935171637, 31.231112411033813 ] } },
{ "type": "Feature", "properties": { "addr": "上海市 浦东新区 周秀路26弄  " }, "geometry": { "type": "Point", "coordinates": [ 121.613149208927169, 31.104936638727523 ] } },
{ "type": "Feature", "properties": { "addr": "上海市 浦东新区 南码头路1696弄  " }, "geometry": { "type": "Point", "coordinates": [ 121.521437362587548, 31.182629933802659 ] } },
{ "type": "Feature", "properties": { "addr": "上海市 浦东新区 东明路660弄  " }, "geometry": { "type": "Point", "coordinates": [ 121.529696185109415, 31.207201251711854 ] } },
{ "type": "Feature", "properties": { "addr": "上海市 浦东新区 博兴路916弄  " }, "geometry": { "type": "Point", "coordinates": [ 121.597995000522658, 31.270420178729555 ] } },
{ "type": "Feature", "properties": { "addr": "上海市 浦东新区 东八灶  " }, "geometry": { "type": "Point", "coordinates": [ 121.589325723537513, 31.120954831437075 ] } },
{ "type": "Feature", "properties": { "addr": "上海市 浦东新区 仁义村  " }, "geometry": { "type": "Point", "coordinates": [ 121.647293378096393, 31.064314697494762 ] } },
{ "type": "Feature", "properties": { "addr": "上海市 浦东新区 王楼村  " }, "geometry": { "type": "Point", "coordinates": [ 121.624150692565038, 31.074255122839745 ] } },
{ "type": "Feature", "properties": { "addr": "上海市 浦东新区 荷泽路25弄  " }, "geometry": { "type": "Point", "coordinates": [ 121.596918471199501, 31.279466390580961 ] } },
{ "type": "Feature", "properties": { "addr": "上海市 浦东新区 芳华路916弄  " }, "geometry": { "type": "Point", "coordinates": [ 121.574598004701429, 31.202853893456744 ] } },
{ "type": "Feature", "properties": { "addr": "上海市 浦东新区 定水路50弄  " }, "geometry": { "type": "Point", "coordinates": [ 121.556696662329145, 31.248679099693231 ] } },
{ "type": "Feature", "properties": { "addr": "上海市 浦东新区 康沈公路1300弄  " }, "geometry": { "type": "Point", "coordinates": [ 121.578537793007087, 31.143909537196446 ] } },
{ "type": "Feature", "properties": { "addr": "上海市 浦东新区 耀华路414弄  " }, "geometry": { "type": "Point", "coordinates": [ 121.492226982658494, 31.1790527910542 ] } },
{ "type": "Feature", "properties": { "addr": "上海市 浦东新区 妙境路55弄  " }, "geometry": { "type": "Point", "coordinates": [ 121.697769613854817, 31.199172964588545 ] } },
{ "type": "Feature", "properties": { "addr": "上海市 浦东新区 德州路300弄  " }, "geometry": { "type": "Point", "coordinates": [ 121.536884264814915, 31.189702255537771 ] } },
{ "type": "Feature", "properties": { "addr": "上海市 浦东新区 周南村  " }, "geometry": { "type": "Point", "coordinates": [ 121.589970886554781, 31.111919735760996 ] } },
{ "type": "Feature", "properties": { "addr": "上海市 浦东新区 灵山路1799弄  " }, "geometry": { "type": "Point", "coordinates": [ 121.577772616373693, 31.24837161086446 ] } },
{ "type": "Feature", "properties": { "addr": "上海市 浦东新区 崮山路968号  " }, "geometry": { "type": "Point", "coordinates": [ 121.568139277915236, 31.241428762610123 ] } },
{ "type": "Feature", "properties": { "addr": "上海市 浦东新区 汇成路1245弄  " }, "geometry": { "type": "Point", "coordinates": [ 121.711538032236788, 31.039535855262031 ] } },
{ "type": "Feature", "properties": { "addr": "上海市 浦东新区 陈行村一队张家宅  " }, "geometry": { "type": "Point", "coordinates": [ 121.72654593256145, 31.171741135925934 ] } },
{ "type": "Feature", "properties": { "addr": "上海市 浦东新区 耀华路87弄  " }, "geometry": { "type": "Point", "coordinates": [ 121.496691830534729, 31.18425850265287 ] } },
{ "type": "Feature", "properties": { "addr": "上海市 浦东新区 民同路176弄  " }, "geometry": { "type": "Point", "coordinates": [ 121.657803642393688, 31.278610039104937 ] } },
{ "type": "Feature", "properties": { "addr": "上海市 浦东新区 唐陆路石家观音堂  " }, "geometry": { "type": "Point", "coordinates": [ 121.667984947213228, 31.20439794399034 ] } },
{ "type": "Feature", "properties": { "addr": "上海市 浦东新区 乳山路114弄  " }, "geometry": { "type": "Point", "coordinates": [ 121.527850994437131, 31.240750133905028 ] } },
{ "type": "Feature", "properties": { "addr": "上海市 浦东新区 周市路66号  " }, "geometry": { "type": "Point", "coordinates": [ 121.58929985233884, 31.116348933998541 ] } },
{ "type": "Feature", "properties": { "addr": "上海市 浦东新区 牌楼东路528弄  " }, "geometry": { "type": "Point", "coordinates": [ 121.663264351758286, 31.029129687300479 ] } },
{ "type": "Feature", "properties": { "addr": "上海市 浦东新区 海桥村  " }, "geometry": { "type": "Point", "coordinates": [ 121.617062972260754, 31.016067923499705 ] } },
{ "type": "Feature", "properties": { "addr": "上海市 浦东新区 东陆路1268弄  " }, "geometry": { "type": "Point", "coordinates": [ 121.601560554752865, 31.272878863483545 ] } },
{ "type": "Feature", "properties": { "addr": "上海市 浦东新区 长岛路1203弄  " }, "geometry": { "type": "Point", "coordinates": [ 121.600997586689758, 31.270094010785566 ] } },
{ "type": "Feature", "properties": { "addr": "上海市 浦东新区 长岛路625弄  " }, "geometry": { "type": "Point", "coordinates": [ 121.590574547857486, 31.266999409719872 ] } },
{ "type": "Feature", "properties": { "addr": "上海市 浦东新区 三林镇金家宅  " }, "geometry": { "type": "Point", "coordinates": [ 121.593249522005109, 31.131094754366096 ] } },
{ "type": "Feature", "properties": { "addr": "上海市 浦东新区 沪南路2000号  " }, "geometry": { "type": "Point", "coordinates": [ 121.56787580490915, 31.170008145287881 ] } },
{ "type": "Feature", "properties": { "addr": "上海市 浦东新区 新春村  " }, "geometry": { "type": "Point", "coordinates": [ 121.485071080966009, 31.129238448295137 ] } },
{ "type": "Feature", "properties": { "addr": "上海市 浦东新区 康沈路1527弄  " }, "geometry": { "type": "Point", "coordinates": [ 121.582648798342959, 31.124953139907806 ] } },
{ "type": "Feature", "properties": { "addr": "上海市 浦东新区 沪南公路2000号  " }, "geometry": { "type": "Point", "coordinates": [ 121.567891255763939, 31.170216322142657 ] } },
{ "type": "Feature", "properties": { "addr": "上海市 浦东新区 创新西路199弄  " }, "geometry": { "type": "Point", "coordinates": [ 121.660810450596685, 31.207582255485885 ] } },
{ "type": "Feature", "properties": { "addr": "上海市 浦东新区 滨海一村西顾家宅  " }, "geometry": { "type": "Point", "coordinates": [ 121.836835301718423, 31.0324116905146 ] } },
{ "type": "Feature", "properties": { "addr": "上海市 浦东新区 长达村  " }, "geometry": { "type": "Point", "coordinates": [ 121.575007093030678, 31.035704873488882 ] } },
{ "type": "Feature", "properties": { "addr": "上海市 浦东新区 成山路1712号  " }, "geometry": { "type": "Point", "coordinates": [ 121.536262008588153, 31.183060982878342 ] } },
{ "type": "Feature", "properties": { "addr": "上海市 浦东新区 长岛路99号  " }, "geometry": { "type": "Point", "coordinates": [ 121.583231618957825, 31.273668138186082 ] } },
{ "type": "Feature", "properties": { "addr": "上海市 浦东新区 沪南路4851弄  " }, "geometry": { "type": "Point", "coordinates": [ 121.536884264814915, 31.189702255537771 ] } },
{ "type": "Feature", "properties": { "addr": "上海市 浦东新区 东波路585弄  " }, "geometry": { "type": "Point", "coordinates": [ 121.592860016735969, 31.289979530718124 ] } },
{ "type": "Feature", "properties": { "addr": "上海市 浦东新区 上南路东明路工地生活区  " }, "geometry": { "type": "Point", "coordinates": [ 121.524156982519003, 31.161339389910029 ] } },
{ "type": "Feature", "properties": { "addr": "上海市 浦东新区 天花庵村闵北队闵家宅  " }, "geometry": { "type": "Point", "coordinates": [ 121.539890174712411, 31.126238497918969 ] } },
{ "type": "Feature", "properties": { "addr": "上海市 浦东新区 新镇村谢家宅  " }, "geometry": { "type": "Point", "coordinates": [ 121.648514804098312, 31.221847435503069 ] } },
{ "type": "Feature", "properties": { "addr": "上海市 浦东新区 新浜村陈家宅  " }, "geometry": { "type": "Point", "coordinates": [ 121.738244295726233, 31.134541740382254 ] } },
{ "type": "Feature", "properties": { "addr": "上海市 浦东新区 佳林路919弄  " }, "geometry": { "type": "Point", "coordinates": [ 121.618257898250121, 31.270835776924955 ] } },
{ "type": "Feature", "properties": { "addr": "上海市 浦东新区 光明路61弄  " }, "geometry": { "type": "Point", "coordinates": [ 121.620730573996894, 31.340620223614575 ] } },
{ "type": "Feature", "properties": { "addr": "上海市 浦东新区 华路村七队蔡家宅  " }, "geometry": { "type": "Point", "coordinates": [ 121.740729637580685, 31.207050090203317 ] } },
{ "type": "Feature", "properties": { "addr": "上海市 浦东新区 沪南路235号工地生活区  " }, "geometry": { "type": "Point", "coordinates": [ 121.555532211354191, 31.202491447920121 ] } },
{ "type": "Feature", "properties": { "addr": "上海市 浦东新区 沪南公路5192号  " }, "geometry": { "type": "Point", "coordinates": [ 121.595382997591301, 31.058301819203898 ] } },
{ "type": "Feature", "properties": { "addr": "上海市 浦东新区 金桥路2552弄  " }, "geometry": { "type": "Point", "coordinates": [ 121.60918438378549, 31.239913033365511 ] } },
{ "type": "Feature", "properties": { "addr": "上海市 浦东新区 张江镇中心村王家宅  " }, "geometry": { "type": "Point", "coordinates": [ 121.664786799936607, 31.192715005059494 ] } },
{ "type": "Feature", "properties": { "addr": "上海市 浦东新区 五莲路780弄  " }, "geometry": { "type": "Point", "coordinates": [ 121.597136939099528, 31.274305479007058 ] } },
{ "type": "Feature", "properties": { "addr": "上海市 浦东新区 佳乐路255弄  " }, "geometry": { "type": "Point", "coordinates": [ 121.622398906990028, 31.274493516866418 ] } },
{ "type": "Feature", "properties": { "addr": "上海市 浦东新区 德平路1065弄  " }, "geometry": { "type": "Point", "coordinates": [ 121.574234190969889, 31.249263047832805 ] } },
{ "type": "Feature", "properties": { "addr": "上海市 浦东新区 御桥村姚家宅  " }, "geometry": { "type": "Point", "coordinates": [ 121.564117833638718, 31.162329302205315 ] } },
{ "type": "Feature", "properties": { "addr": "上海市 浦东新区 长桥村南乔家宅  " }, "geometry": { "type": "Point", "coordinates": [ 121.735381036743732, 31.14259088659535 ] } },
{ "type": "Feature", "properties": { "addr": "上海市 浦东新区 蓝村路471弄  " }, "geometry": { "type": "Point", "coordinates": [ 121.533601586989803, 31.217902204702717 ] } },
{ "type": "Feature", "properties": { "addr": "上海市 浦东新区 环林西路613弄  " }, "geometry": { "type": "Point", "coordinates": [ 121.530575195726684, 31.146684082619981 ] } },
{ "type": "Feature", "properties": { "addr": "上海市 浦东新区 大沟村西王家宅  " }, "geometry": { "type": "Point", "coordinates": [ 121.793150255615458, 31.143344171689513 ] } },
{ "type": "Feature", "properties": { "addr": "上海市 浦东新区 宣镇东路625弄  " }, "geometry": { "type": "Point", "coordinates": [ 121.706413289132911, 31.027020016442911 ] } },
{ "type": "Feature", "properties": { "addr": "上海市 浦东新区 成山路648弄  " }, "geometry": { "type": "Point", "coordinates": [ 121.515115986713823, 31.177611823719104 ] } },
{ "type": "Feature", "properties": { "addr": "上海市 浦东新区 会龙村  " }, "geometry": { "type": "Point", "coordinates": [ 121.720019383709243, 31.100736018736946 ] } },
{ "type": "Feature", "properties": { "addr": "上海市 浦东新区 环林东路271弄  " }, "geometry": { "type": "Point", "coordinates": [ 121.53316411220645, 31.155298952705344 ] } },
{ "type": "Feature", "properties": { "addr": "上海市 浦东新区 潘姚村西刘队刘家宅  " }, "geometry": { "type": "Point", "coordinates": [ 121.583074056171384, 31.188165531405321 ] } },
{ "type": "Feature", "properties": { "addr": "上海市 浦东新区 前进村西李家宅  " }, "geometry": { "type": "Point", "coordinates": [ 121.781723809528529, 31.095422160419265 ] } },
{ "type": "Feature", "properties": { "addr": "上海市 浦东新区 永业路94弄  " }, "geometry": { "type": "Point", "coordinates": [ 121.621249794581672, 31.270001029178218 ] } },
{ "type": "Feature", "properties": { "addr": "上海市 浦东新区 芳芯路149弄  " }, "geometry": { "type": "Point", "coordinates": [ 121.5603708216955, 31.199031648878705 ] } },
{ "type": "Feature", "properties": { "addr": "上海市 浦东新区 周东路529号  " }, "geometry": { "type": "Point", "coordinates": [ 121.591498724566151, 31.124692619374933 ] } },
{ "type": "Feature", "properties": { "addr": "上海市 浦东新区 德州路254号  " }, "geometry": { "type": "Point", "coordinates": [ 121.49909228251849, 31.172918021851245 ] } },
{ "type": "Feature", "properties": { "addr": "上海市 浦东新区 罗山路108弄  " }, "geometry": { "type": "Point", "coordinates": [ 121.558879454887844, 31.254641589752865 ] } },
{ "type": "Feature", "properties": { "addr": "上海市 浦东新区 新环北路1080弄  " }, "geometry": { "type": "Point", "coordinates": [ 121.64626841150951, 31.037499826764336 ] } },
{ "type": "Feature", "properties": { "addr": "上海市 浦东新区 杨莲路160弄  " }, "geometry": { "type": "Point", "coordinates": [ 121.536884264814915, 31.189702255537771 ] } },
{ "type": "Feature", "properties": { "addr": "上海市 浦东新区 祝城路84弄  " }, "geometry": { "type": "Point", "coordinates": [ 121.766842749941887, 31.114088797527916 ] } },
{ "type": "Feature", "properties": { "addr": "上海市 浦东新区 杨新路197弄  " }, "geometry": { "type": "Point", "coordinates": [ 121.4985201517392, 31.168845590720398 ] } },
{ "type": "Feature", "properties": { "addr": "上海市 浦东新区 鹏岳路152弄  " }, "geometry": { "type": "Point", "coordinates": [ 121.560933340605843, 31.177214966797443 ] } },
{ "type": "Feature", "properties": { "addr": "上海市 浦东新区 三彩路166弄  " }, "geometry": { "type": "Point", "coordinates": [ 121.525530311982649, 31.139159418419815 ] } },
{ "type": "Feature", "properties": { "addr": "上海市 浦东新区 李桥村  " }, "geometry": { "type": "Point", "coordinates": [ 121.721178916461525, 31.022446657389377 ] } },
{ "type": "Feature", "properties": { "addr": "上海市 浦东新区 唐四村王家东宅  " }, "geometry": { "type": "Point", "coordinates": [ 121.66768949453099, 31.221019816280922 ] } },