{
"type": "FeatureCollection",
"crs": { "type": "name", "properties": { "name": "urn:ogc:def:crs:OGC:1.3:CRS84" } },
"features": [
{ "type": "Feature", "properties": { "addr": "上海市 浦东新区 北张家浜路168弄  " }, "geometry": { "type": "Point", "coordinates": [ 121.531177509571137, 31.222559475550117 ] } },
{ "type": "Feature", "properties": { "addr": "上海市 浦东新区 北张家浜路58号  " }, "geometry": { "type": "Point", "coordinates": [ 121.527623453651458, 31.222173076955738 ] } },
{ "type": "Feature", "properties": { "addr": "上海市 浦东新区 博山路51弄  " }, "geometry": { "type": "Point", "coordinates": [ 121.563650984265195, 31.250794833134776 ] } },
{ "type": "Feature", "properties": { "addr": "上海市 浦东新区 成山路24弄  " }, "geometry": { "type": "Point", "coordinates": [ 121.492308997951554, 31.174146877064409 ] } },
{ "type": "Feature", "properties": { "addr": "上海市 浦东新区 德平路1066弄  " }, "geometry": { "type": "Point", "coordinates": [ 121.573972784066484, 31.246835695198861 ] } },
{ "type": "Feature", "properties": { "addr": "上海市 浦东新区 德州路421弄  " }, "geometry": { "type": "Point", "coordinates": [ 121.489477988136855, 31.173812880924558 ] } },
{ "type": "Feature", "properties": { "addr": "上海市 浦东新区 东建新村  " }, "geometry": { "type": "Point", "coordinates": [ 121.526861421087332, 31.222713416923376 ] } },
{ "type": "Feature", "properties": { "addr": "上海市 浦东新区 高东镇珊黄村苍头宅  " }, "geometry": { "type": "Point", "coordinates": [ 121.646532423498897, 31.336547689860097 ] } },
{ "type": "Feature", "properties": { "addr": "上海市 浦东新区 高桥镇陆凌村西凌家宅  " }, "geometry": { "type": "Point", "coordinates": [ 121.581738635200239, 31.353566840637729 ] } },
{ "type": "Feature", "properties": { "addr": "上海市 浦东新区 高桥镇新农村南项湾  " }, "geometry": { "type": "Point", "coordinates": [ 121.55982483160652, 31.367077216842677 ] } },
{ "type": "Feature", "properties": { "addr": "上海市 浦东新区 龚华路479弄  " }, "geometry": { "type": "Point", "coordinates": [ 121.693823986563331, 31.265518974474919 ] } },
{ "type": "Feature", "properties": { "addr": "上海市 浦东新区 航头路988弄  " }, "geometry": { "type": "Point", "coordinates": [ 121.60690466406227, 31.040624900894645 ] } },
{ "type": "Feature", "properties": { "addr": "上海市 浦东新区 航头镇牌楼村谈弄  " }, "geometry": { "type": "Point", "coordinates": [ 121.563823009770331, 31.061636477088769 ] } },
{ "type": "Feature", "properties": { "addr": "上海市 浦东新区 鹤永路750弄  " }, "geometry": { "type": "Point", "coordinates": [ 121.609967885851304, 31.077777493950869 ] } },
{ "type": "Feature", "properties": { "addr": "上海市 浦东新区 沪南公路4518号  " }, "geometry": { "type": "Point", "coordinates": [ 121.590165010375486, 31.089876840507038 ] } },
{ "type": "Feature", "properties": { "addr": "上海市 浦东新区 金桥路226弄  " }, "geometry": { "type": "Point", "coordinates": [ 121.621784825343411, 31.260663815674061 ] } },
{ "type": "Feature", "properties": { "addr": "上海市 浦东新区 金杨路685弄  " }, "geometry": { "type": "Point", "coordinates": [ 121.588343067140158, 31.258255434906122 ] } },
{ "type": "Feature", "properties": { "addr": "上海市 浦东新区 崂山三村  " }, "geometry": { "type": "Point", "coordinates": [ 121.52639681747759, 31.238932508563483 ] } },
{ "type": "Feature", "properties": { "addr": "上海市 浦东新区 莲振路269号  " }, "geometry": { "type": "Point", "coordinates": [ 121.574360941877359, 31.173909356804987 ] } },
{ "type": "Feature", "properties": { "addr": "上海市 浦东新区 南港大道与环湖南三路交界口工地生活区  " }, "geometry": { "type": "Point", "coordinates": [ 121.894828827476005, 30.900192727463445 ] } },
{ "type": "Feature", "properties": { "addr": "上海市 浦东新区 浦城路580弄  " }, "geometry": { "type": "Point", "coordinates": [ 121.521080555638974, 31.230158967011022 ] } },
{ "type": "Feature", "properties": { "addr": "上海市 浦东新区 浦电路48弄  " }, "geometry": { "type": "Point", "coordinates": [ 121.523018290454559, 31.224774384963634 ] } },
{ "type": "Feature", "properties": { "addr": "上海市 浦东新区 浦东南路2351弄  " }, "geometry": { "type": "Point", "coordinates": [ 121.519461719279448, 31.205598665834319 ] } },
{ "type": "Feature", "properties": { "addr": "上海市 浦东新区 清溪路260弄  " }, "geometry": { "type": "Point", "coordinates": [ 121.580223283635462, 31.348955343285247 ] } },
{ "type": "Feature", "properties": { "addr": "上海市 浦东新区 三林镇临江村周南队周家宅  " }, "geometry": { "type": "Point", "coordinates": [ 121.478736410170754, 31.124012372204763 ] } },
{ "type": "Feature", "properties": { "addr": "上海市 浦东新区 三林镇西林村洪家队洪家新宅  " }, "geometry": { "type": "Point", "coordinates": [ 121.504634198701197, 31.13952467804987 ] } },
{ "type": "Feature", "properties": { "addr": "上海市 浦东新区 下南路500弄  " }, "geometry": { "type": "Point", "coordinates": [ 121.543720818898606, 31.177967587760506 ] } },
{ "type": "Feature", "properties": { "addr": "上海市 浦东新区 新浦路251弄  " }, "geometry": { "type": "Point", "coordinates": [ 121.541342016077635, 31.17422589586613 ] } },
{ "type": "Feature", "properties": { "addr": "上海市 浦东新区 耀华路220弄  " }, "geometry": { "type": "Point", "coordinates": [ 121.497392239340869, 31.179261334020538 ] } },
{ "type": "Feature", "properties": { "addr": "上海市 浦东新区 梓康路188弄  " }, "geometry": { "type": "Point", "coordinates": [ 121.575652795031246, 31.128640846099366 ] } },
{ "type": "Feature", "properties": { "addr": "上海市 浦东新区 邹平路191号工地生活区  " }, "geometry": { "type": "Point", "coordinates": [ 121.521600584698717, 31.17630685482829 ] } },
{ "type": "Feature", "properties": { "addr": "上海市 黄浦区 保屯路211弄  " }, "geometry": { "type": "Point", "coordinates": [ 121.498305816044507, 31.209535149529046 ] } },
{ "type": "Feature", "properties": { "addr": "上海市 黄浦区 北海路267弄  " }, "geometry": { "type": "Point", "coordinates": [ 121.484519341721779, 31.236080259939193 ] } },
{ "type": "Feature", "properties": { "addr": "上海市 黄浦区 成都北路262弄  " }, "geometry": { "type": "Point", "coordinates": [ 121.474451223396485, 31.234991008544441 ] } },
{ "type": "Feature", "properties": { "addr": "上海市 黄浦区 大沽路199号  " }, "geometry": { "type": "Point", "coordinates": [ 121.477019478849527, 31.231947737658999 ] } },
{ "type": "Feature", "properties": { "addr": "上海市 黄浦区 大沽路254号  " }, "geometry": { "type": "Point", "coordinates": [ 121.475885817295932, 31.231991738577477 ] } },
{ "type": "Feature", "properties": { "addr": "上海市 黄浦区 方斜路269号  " }, "geometry": { "type": "Point", "coordinates": [ 121.491635897632918, 31.221482959693272 ] } },
{ "type": "Feature", "properties": { "addr": "上海市 黄浦区 凤阳路228弄  " }, "geometry": { "type": "Point", "coordinates": [ 121.478205960767099, 31.240573683460127 ] } },
{ "type": "Feature", "properties": { "addr": "上海市 黄浦区 广西北路200号  " }, "geometry": { "type": "Point", "coordinates": [ 121.484809404570939, 31.238537223635465 ] } },
{ "type": "Feature", "properties": { "addr": "上海市 黄浦区 贵州路171号  " }, "geometry": { "type": "Point", "coordinates": [ 121.482407425467827, 31.242845438193459 ] } },
{ "type": "Feature", "properties": { "addr": "上海市 黄浦区 汉口路455弄  " }, "geometry": { "type": "Point", "coordinates": [ 121.488773626786482, 31.240622388756176 ] } },
{ "type": "Feature", "properties": { "addr": "上海市 黄浦区 合肥路592弄  " }, "geometry": { "type": "Point", "coordinates": [ 121.47806654375195, 31.220031759048009 ] } },
{ "type": "Feature", "properties": { "addr": "上海市 黄浦区 淮海中路899弄  " }, "geometry": { "type": "Point", "coordinates": [ 121.466966002904044, 31.223149994515893 ] } },
{ "type": "Feature", "properties": { "addr": "上海市 黄浦区 黄河路288号  " }, "geometry": { "type": "Point", "coordinates": [ 121.475909263069738, 31.243495416033404 ] } },
{ "type": "Feature", "properties": { "addr": "上海市 黄浦区 江阴路88弄  " }, "geometry": { "type": "Point", "coordinates": [ 121.475551737476763, 31.235860033180316 ] } },
{ "type": "Feature", "properties": { "addr": "上海市 黄浦区 金陵东路79号  " }, "geometry": { "type": "Point", "coordinates": [ 121.496879127233569, 31.236786556772227 ] } },
{ "type": "Feature", "properties": { "addr": "上海市 黄浦区 进贤路156弄  " }, "geometry": { "type": "Point", "coordinates": [ 121.465757781993133, 31.227951210049856 ] } },
{ "type": "Feature", "properties": { "addr": "上海市 黄浦区 九江路619号  " }, "geometry": { "type": "Point", "coordinates": [ 121.485146628459404, 31.240162350399974 ] } },
{ "type": "Feature", "properties": { "addr": "上海市 黄浦区 丽园路570号  " }, "geometry": { "type": "Point", "coordinates": [ 121.487422485468926, 31.212946362073112 ] } },
{ "type": "Feature", "properties": { "addr": "上海市 黄浦区 丽园路842弄  " }, "geometry": { "type": "Point", "coordinates": [ 121.483621395534001, 31.211378208045655 ] } },
{ "type": "Feature", "properties": { "addr": "上海市 黄浦区 灵济街61号  " }, "geometry": { "type": "Point", "coordinates": [ 121.502149305999509, 31.226673498730978 ] } },
{ "type": "Feature", "properties": { "addr": "上海市 黄浦区 鲁班路168弄  " }, "geometry": { "type": "Point", "coordinates": [ 121.480692470418731, 31.210777731674401 ] } },
{ "type": "Feature", "properties": { "addr": "上海市 黄浦区 陆家浜路468弄  " }, "geometry": { "type": "Point", "coordinates": [ 121.504498105416431, 31.216107143381389 ] } },
{ "type": "Feature", "properties": { "addr": "上海市 黄浦区 马当路278弄  " }, "geometry": { "type": "Point", "coordinates": [ 121.480389561800749, 31.223680369859316 ] } },
{ "type": "Feature", "properties": { "addr": "上海市 黄浦区 马当路606号  " }, "geometry": { "type": "Point", "coordinates": [ 121.482600111999716, 31.215837379363109 ] } },
{ "type": "Feature", "properties": { "addr": "上海市 黄浦区 梅家街1号  " }, "geometry": { "type": "Point", "coordinates": [ 121.502163229734904, 31.226235547987297 ] } },
{ "type": "Feature", "properties": { "addr": "上海市 黄浦区 梦花街198弄  " }, "geometry": { "type": "Point", "coordinates": [ 121.493182330568345, 31.223949648068164 ] } },
{ "type": "Feature", "properties": { "addr": "上海市 黄浦区 南昌路151弄  " }, "geometry": { "type": "Point", "coordinates": [ 121.469268988739984, 31.222656055648891 ] } },
{ "type": "Feature", "properties": { "addr": "上海市 黄浦区 南车站路555号  " }, "geometry": { "type": "Point", "coordinates": [ 121.501598644721881, 31.20954456952656 ] } },
{ "type": "Feature", "properties": { "addr": "上海市 黄浦区 牛庄路582号  " }, "geometry": { "type": "Point", "coordinates": [ 121.485595421892171, 31.244017494475305 ] } },
{ "type": "Feature", "properties": { "addr": "上海市 黄浦区 普育东路200弄  " }, "geometry": { "type": "Point", "coordinates": [ 121.502308755227531, 31.213623648246671 ] } },
{ "type": "Feature", "properties": { "addr": "上海市 黄浦区 普育东路26号  " }, "geometry": { "type": "Point", "coordinates": [ 121.502612651981551, 31.21670040530525 ] } },
{ "type": "Feature", "properties": { "addr": "上海市 黄浦区 普育东路31号  " }, "geometry": { "type": "Point", "coordinates": [ 121.503071955588794, 31.216461834785726 ] } },
{ "type": "Feature", "properties": { "addr": "上海市 黄浦区 瞿溪路1003弄  " }, "geometry": { "type": "Point", "coordinates": [ 121.483856931238719, 31.205771630284882 ] } },
{ "type": "Feature", "properties": { "addr": "上海市 黄浦区 瞿溪路1111弄  " }, "geometry": { "type": "Point", "coordinates": [ 121.480162649828941, 31.204909430212833 ] } },
{ "type": "Feature", "properties": { "addr": "上海市 黄浦区 瞿溪路1200弄  " }, "geometry": { "type": "Point", "coordinates": [ 121.477917514867855, 31.202302396543868 ] } },
{ "type": "Feature", "properties": { "addr": "上海市 黄浦区 瞿溪路566号  " }, "geometry": { "type": "Point", "coordinates": [ 121.492495306514314, 31.207253551895199 ] } },
{ "type": "Feature", "properties": { "addr": "上海市 黄浦区 瞿溪路937弄  " }, "geometry": { "type": "Point", "coordinates": [ 121.484684090952314, 31.206350981651095 ] } },
{ "type": "Feature", "properties": { "addr": "上海市 黄浦区 厦门路136弄  " }, "geometry": { "type": "Point", "coordinates": [ 121.48264269168088, 31.2467917012629 ] } },
{ "type": "Feature", "properties": { "addr": "上海市 黄浦区 山西南路264号  " }, "geometry": { "type": "Point", "coordinates": [ 121.488444128325426, 31.244049140177182 ] } },
{ "type": "Feature", "properties": { "addr": "上海市 黄浦区 陕西南路285弄  " }, "geometry": { "type": "Point", "coordinates": [ 121.467360628514584, 31.258900057899563 ] } },
{ "type": "Feature", "properties": { "addr": "上海市 黄浦区 绍兴路35号  " }, "geometry": { "type": "Point", "coordinates": [ 121.468959971644551, 31.214359840097792 ] } },
{ "type": "Feature", "properties": { "addr": "上海市 黄浦区 顺昌路485号  " }, "geometry": { "type": "Point", "coordinates": [ 121.485956540707193, 31.218980846285149 ] } },
{ "type": "Feature", "properties": { "addr": "上海市 黄浦区 四川中路530号  " }, "geometry": { "type": "Point", "coordinates": [ 121.493404032368204, 31.246665893928274 ] } },
{ "type": "Feature", "properties": { "addr": "上海市 黄浦区 西凌家宅路160号  " }, "geometry": { "type": "Point", "coordinates": [ 121.491752048535375, 31.209531134447857 ] } },
{ "type": "Feature", "properties": { "addr": "上海市 黄浦区 西凌家宅路27弄  " }, "geometry": { "type": "Point", "coordinates": [ 121.493752125753318, 31.210565784292413 ] } },
{ "type": "Feature", "properties": { "addr": "上海市 黄浦区 斜土路118弄  " }, "geometry": { "type": "Point", "coordinates": [ 121.489370999950623, 31.211599882225087 ] } },
{ "type": "Feature", "properties": { "addr": "上海市 黄浦区 斜土路352号  " }, "geometry": { "type": "Point", "coordinates": [ 121.485722891444055, 31.210413598827149 ] } },
{ "type": "Feature", "properties": { "addr": "上海市 黄浦区 斜土路80弄  " }, "geometry": { "type": "Point", "coordinates": [ 121.490479149627717, 31.21070993944921 ] } },
{ "type": "Feature", "properties": { "addr": "上海市 黄浦区 新昌路328弄  " }, "geometry": { "type": "Point", "coordinates": [ 121.474649209930902, 31.242473016839636 ] } },
{ "type": "Feature", "properties": { "addr": "上海市 黄浦区 兴安路141弄  " }, "geometry": { "type": "Point", "coordinates": [ 121.477259955234544, 31.226603865240154 ] } },
{ "type": "Feature", "properties": { "addr": "上海市 黄浦区 巡道街49号  " }, "geometry": { "type": "Point", "coordinates": [ 121.504146149317634, 31.225886374790704 ] } },
{ "type": "Feature", "properties": { "addr": "上海市 黄浦区 延安东路1060号  " }, "geometry": { "type": "Point", "coordinates": [ 121.481706118356186, 31.232981522191203 ] } },
{ "type": "Feature", "properties": { "addr": "上海市 黄浦区 迎勋北路8弄  " }, "geometry": { "type": "Point", "coordinates": [ 121.491585592524359, 31.23724715206362 ] } },
{ "type": "Feature", "properties": { "addr": "上海市 黄浦区 中山南路1586弄  " }, "geometry": { "type": "Point", "coordinates": [ 121.501523995534001, 31.211132057209905 ] } },
{ "type": "Feature", "properties": { "addr": "上海市 黄浦区 中山南路1814弄  " }, "geometry": { "type": "Point", "coordinates": [ 121.497545220769211, 31.208519174071316 ] } },
{ "type": "Feature", "properties": { "addr": "上海市 黄浦区 中山南路1887弄  " }, "geometry": { "type": "Point", "coordinates": [ 121.49909354014622, 31.207753594767183 ] } },
{ "type": "Feature", "properties": { "addr": "上海市 黄浦区 中山南路1893号  " }, "geometry": { "type": "Point", "coordinates": [ 121.497358283392586, 31.207285364461335 ] } },
{ "type": "Feature", "properties": { "addr": "上海市 黄浦区 中山南一路247弄  " }, "geometry": { "type": "Point", "coordinates": [ 121.492960718599036, 31.206304961068518 ] } },
{ "type": "Feature", "properties": { "addr": "上海市 静安区 安远路375号  " }, "geometry": { "type": "Point", "coordinates": [ 121.448829214657593, 31.245592742765719 ] } },
{ "type": "Feature", "properties": { "addr": "上海市 静安区 宝昌路731弄  " }, "geometry": { "type": "Point", "coordinates": [ 121.477102302617553, 31.270603131672043 ] } },
{ "type": "Feature", "properties": { "addr": "上海市 静安区 保德路241弄  " }, "geometry": { "type": "Point", "coordinates": [ 121.469495810881256, 31.323506241946539 ] } },
{ "type": "Feature", "properties": { "addr": "上海市 静安区 场中路2601弄  " }, "geometry": { "type": "Point", "coordinates": [ 121.446657650917771, 31.311671662005885 ] } },
{ "type": "Feature", "properties": { "addr": "上海市 静安区 共和新路619弄  " }, "geometry": { "type": "Point", "coordinates": [ 121.471503433865493, 31.260466257937509 ] } },
{ "type": "Feature", "properties": { "addr": "上海市 静安区 共和新路730弄  " }, "geometry": { "type": "Point", "coordinates": [ 121.468387032390282, 31.26166263341522 ] } },
{ "type": "Feature", "properties": { "addr": "上海市 静安区 淮安路687弄  " }, "geometry": { "type": "Point", "coordinates": [ 121.458216686897956, 31.245507532306739 ] } },
{ "type": "Feature", "properties": { "addr": "上海市 静安区 淮安路811号  " }, "geometry": { "type": "Point", "coordinates": [ 121.456114382512965, 31.245259850377757 ] } },
{ "type": "Feature", "properties": { "addr": "上海市 静安区 江宁路401弄  " }, "geometry": { "type": "Point", "coordinates": [ 121.45864832269551, 31.240244092279916 ] } },
{ "type": "Feature", "properties": { "addr": "上海市 静安区 江宁路599弄  " }, "geometry": { "type": "Point", "coordinates": [ 121.456093901147341, 31.242293559388351 ] } },
{ "type": "Feature", "properties": { "addr": "上海市 静安区 江宁路906弄  " }, "geometry": { "type": "Point", "coordinates": [ 121.454120683264122, 31.246327525385976 ] } },
{ "type": "Feature", "properties": { "addr": "上海市 静安区 临汾路1061号  " }, "geometry": { "type": "Point", "coordinates": [ 121.452099406036126, 31.316928764294047 ] } },
{ "type": "Feature", "properties": { "addr": "上海市 静安区 临汾路1564弄  " }, "geometry": { "type": "Point", "coordinates": [ 121.443148061120837, 31.318263932540905 ] } },
{ "type": "Feature", "properties": { "addr": "上海市 静安区 临汾路894弄  " }, "geometry": { "type": "Point", "coordinates": [ 121.456228287651626, 31.317197850976278 ] } },
{ "type": "Feature", "properties": { "addr": "上海市 静安区 灵石路666弄  " }, "geometry": { "type": "Point", "coordinates": [ 121.452108658582873, 31.288327496845277 ] } },
{ "type": "Feature", "properties": { "addr": "上海市 静安区 毛家弄80号  " }, "geometry": { "type": "Point", "coordinates": [ 121.458712628537114, 31.263141641501878 ] } },
{ "type": "Feature", "properties": { "addr": "上海市 静安区 彭浦新村258号  " }, "geometry": { "type": "Point", "coordinates": [ 121.458200407868404, 31.316738437465187 ] } },
{ "type": "Feature", "properties": { "addr": "上海市 静安区 彭浦新村316号  " }, "geometry": { "type": "Point", "coordinates": [ 121.459365080661911, 31.315013899754156 ] } },
{ "type": "Feature", "properties": { "addr": "上海市 静安区 彭浦新村415号  " }, "geometry": { "type": "Point", "coordinates": [ 121.461904590338634, 31.315086243909246 ] } },
{ "type": "Feature", "properties": { "addr": "上海市 静安区 平顺路790弄  " }, "geometry": { "type": "Point", "coordinates": [ 121.459392299318878, 31.323759731658178 ] } },
{ "type": "Feature", "properties": { "addr": "上海市 静安区 陕西北路900号  " }, "geometry": { "type": "Point", "coordinates": [ 121.454442007145047, 31.243143914506323 ] } },
{ "type": "Feature", "properties": { "addr": "上海市 静安区 天目中路749弄  " }, "geometry": { "type": "Point", "coordinates": [ 121.468220666209831, 31.252132799701027 ] } },
{ "type": "Feature", "properties": { "addr": "上海市 静安区 万航渡路393弄  " }, "geometry": { "type": "Point", "coordinates": [ 121.443146983154236, 31.232252115518914 ] } },
{ "type": "Feature", "properties": { "addr": "上海市 静安区 闻喜路770号  " }, "geometry": { "type": "Point", "coordinates": [ 121.45682660403655, 31.314617509861282 ] } },
{ "type": "Feature", "properties": { "addr": "上海市 静安区 西藏北路875号  " }, "geometry": { "type": "Point", "coordinates": [ 121.473855107860075, 31.263056777762145 ] } },
{ "type": "Feature", "properties": { "addr": "上海市 静安区 余姚路318弄  " }, "geometry": { "type": "Point", "coordinates": [ 121.443705549520345, 31.242585245109431 ] } },
{ "type": "Feature", "properties": { "addr": "上海市 静安区 芷江西路239弄  " }, "geometry": { "type": "Point", "coordinates": [ 121.469162180214852, 31.26398642727618 ] } },
{ "type": "Feature", "properties": { "addr": "上海市 静安区 芷江西路285弄  " }, "geometry": { "type": "Point", "coordinates": [ 121.466751846870466, 31.263678757293864 ] } },
{ "type": "Feature", "properties": { "addr": "上海市 静安区 中山北路255弄  " }, "geometry": { "type": "Point", "coordinates": [ 121.475517961189595, 31.270384838136735 ] } },
{ "type": "Feature", "properties": { "addr": "上海市 徐汇区 东安二村  " }, "geometry": { "type": "Point", "coordinates": [ 121.459977814850276, 31.192831077114452 ] } },
{ "type": "Feature", "properties": { "addr": "上海市 徐汇区 机场新村  " }, "geometry": { "type": "Point", "coordinates": [ 121.458088049548948, 31.173742203975578 ] } },
{ "type": "Feature", "properties": { "addr": "上海市 徐汇区 龙华西路21弄  " }, "geometry": { "type": "Point", "coordinates": [ 121.454790729344012, 31.17506088030758 ] } },
{ "type": "Feature", "properties": { "addr": "上海市 徐汇区 龙南三村  " }, "geometry": { "type": "Point", "coordinates": [ 121.462678031382723, 31.16240585890181 ] } },
{ "type": "Feature", "properties": { "addr": "上海市 徐汇区 梅陇十一村  " }, "geometry": { "type": "Point", "coordinates": [ 121.433632041361989, 31.138721831339719 ] } },
{ "type": "Feature", "properties": { "addr": "上海市 徐汇区 日晖二村  " }, "geometry": { "type": "Point", "coordinates": [ 121.472543312323864, 31.200582635040785 ] } },
{ "type": "Feature", "properties": { "addr": "上海市 徐汇区 陕西南路370弄  " }, "geometry": { "type": "Point", "coordinates": [ 121.466479750131512, 31.220178524577058 ] } },
{ "type": "Feature", "properties": { "addr": "上海市 徐汇区 天钥新村  " }, "geometry": { "type": "Point", "coordinates": [ 121.452930158971739, 31.192061894349106 ] } },
{ "type": "Feature", "properties": { "addr": "上海市 徐汇区 五原路228弄  " }, "geometry": { "type": "Point", "coordinates": [ 121.45145648878264, 31.218944636988354 ] } },
{ "type": "Feature", "properties": { "addr": "上海市 徐汇区 小木桥路360弄  " }, "geometry": { "type": "Point", "coordinates": [ 121.466127973693801, 31.200767886786949 ] } },
{ "type": "Feature", "properties": { "addr": "上海市 徐汇区 斜土路2200弄  " }, "geometry": { "type": "Point", "coordinates": [ 121.457232593211785, 31.19745530787878 ] } },
{ "type": "Feature", "properties": { "addr": "上海市 长宁区 长宁路491弄  " }, "geometry": { "type": "Point", "coordinates": [ 121.433272988649648, 31.228760858219243 ] } },
{ "type": "Feature", "properties": { "addr": "上海市 长宁区 定西路710弄  " }, "geometry": { "type": "Point", "coordinates": [ 121.432318898367512, 31.21343880797814 ] } },
{ "type": "Feature", "properties": { "addr": "上海市 长宁区 虹桥路1112号  " }, "geometry": { "type": "Point", "coordinates": [ 121.423666599356508, 31.201859698618808 ] } },
{ "type": "Feature", "properties": { "addr": "上海市 长宁区 娄山关路810弄  " }, "geometry": { "type": "Point", "coordinates": [ 121.412385409270556, 31.21899350795492 ] } },
{ "type": "Feature", "properties": { "addr": "上海市 长宁区 新泾一村  " }, "geometry": { "type": "Point", "coordinates": [ 121.377624938578649, 31.22381284742357 ] } },
{ "type": "Feature", "properties": { "addr": "上海市 长宁区 愚园路1088弄  " }, "geometry": { "type": "Point", "coordinates": [ 121.435514440558165, 31.225303284299834 ] } },
{ "type": "Feature", "properties": { "addr": "上海市 长宁区 昭化路518弄  " }, "geometry": { "type": "Point", "coordinates": [ 121.426547285465901, 31.217174070214497 ] } },
{ "type": "Feature", "properties": { "addr": "上海市 长宁区 遵义路800弄  " }, "geometry": { "type": "Point", "coordinates": [ 121.416564955316815, 31.221725609177632 ] } },
{ "type": "Feature", "properties": { "addr": "上海市 普陀区 长寿路295弄  " }, "geometry": { "type": "Point", "coordinates": [ 121.446316000592986, 31.246502163795345 ] } },
{ "type": "Feature", "properties": { "addr": "上海市 普陀区 大渡河路1927弄  " }, "geometry": { "type": "Point", "coordinates": [ 121.405966657079546, 31.262566985259447 ] } },
{ "type": "Feature", "properties": { "addr": "上海市 普陀区 宁夏路366弄  " }, "geometry": { "type": "Point", "coordinates": [ 121.423531584038344, 31.240019398423104 ] } },
{ "type": "Feature", "properties": { "addr": "上海市 普陀区 石泉路125号  " }, "geometry": { "type": "Point", "coordinates": [ 121.433163395377434, 31.257177554825404 ] } },
{ "type": "Feature", "properties": { "addr": "上海市 普陀区 石泉路135弄  " }, "geometry": { "type": "Point", "coordinates": [ 121.431647953982107, 31.257274253531648 ] } },
{ "type": "Feature", "properties": { "addr": "上海市 普陀区 泰山二村  " }, "geometry": { "type": "Point", "coordinates": [ 121.452083955181351, 31.266026885629156 ] } },
{ "type": "Feature", "properties": { "addr": "上海市 普陀区 中山北路3856弄  " }, "geometry": { "type": "Point", "coordinates": [ 121.426319026035813, 31.237553905571289 ] } },
{ "type": "Feature", "properties": { "addr": "上海市 虹口区 宝山路888弄  " }, "geometry": { "type": "Point", "coordinates": [ 121.486028674639641, 31.269817766403179 ] } },
{ "type": "Feature", "properties": { "addr": "上海市 虹口区 保定路520弄  " }, "geometry": { "type": "Point", "coordinates": [ 121.513260985835714, 31.266799859065621 ] } },
{ "type": "Feature", "properties": { "addr": "上海市 虹口区 北苏州路400号  " }, "geometry": { "type": "Point", "coordinates": [ 121.490087937578139, 31.248865877052367 ] } },
{ "type": "Feature", "properties": { "addr": "上海市 虹口区 大连西路201弄  " }, "geometry": { "type": "Point", "coordinates": [ 121.500654974783657, 31.281813890631206 ] } },
{ "type": "Feature", "properties": { "addr": "上海市 虹口区 大连西路96号  " }, "geometry": { "type": "Point", "coordinates": [ 121.502457065467226, 31.283519814743904 ] } },
{ "type": "Feature", "properties": { "addr": "上海市 虹口区 丹徒路377号  " }, "geometry": { "type": "Point", "coordinates": [ 121.507984878253424, 31.262312171759003 ] } },
{ "type": "Feature", "properties": { "addr": "上海市 虹口区 飞虹路187弄  " }, "geometry": { "type": "Point", "coordinates": [ 121.508557009032714, 31.267445889261172 ] } },
{ "type": "Feature", "properties": { "addr": "上海市 虹口区 沽源路113弄  " }, "geometry": { "type": "Point", "coordinates": [ 121.484596057012325, 31.308272381404961 ] } },
{ "type": "Feature", "properties": { "addr": "上海市 虹口区 广粤路281号  " }, "geometry": { "type": "Point", "coordinates": [ 121.471720015323967, 31.292926873540615 ] } },
{ "type": "Feature", "properties": { "addr": "上海市 虹口区 广中支路26号  " }, "geometry": { "type": "Point", "coordinates": [ 121.482587266230922, 31.280040579145044 ] } },
{ "type": "Feature", "properties": { "addr": "上海市 虹口区 海宁路5号  " }, "geometry": { "type": "Point", "coordinates": [ 121.498231975331592, 31.258801894598882 ] } },
{ "type": "Feature", "properties": { "addr": "上海市 虹口区 恒业路118弄  " }, "geometry": { "type": "Point", "coordinates": [ 121.482721652735208, 31.274291513110732 ] } },
{ "type": "Feature", "properties": { "addr": "上海市 虹口区 恒业路388弄  " }, "geometry": { "type": "Point", "coordinates": [ 121.479535363091316, 31.271386947097412 ] } },
{ "type": "Feature", "properties": { "addr": "上海市 虹口区 奎照路11弄  " }, "geometry": { "type": "Point", "coordinates": [ 121.490410069934015, 31.306438097510956 ] } },
{ "type": "Feature", "properties": { "addr": "上海市 虹口区 溧阳路133弄  " }, "geometry": { "type": "Point", "coordinates": [ 121.513547724954506, 31.26385416094692 ] } },
{ "type": "Feature", "properties": { "addr": "上海市 虹口区 临平路20弄  " }, "geometry": { "type": "Point", "coordinates": [ 121.502244795875214, 31.267832795316448 ] } },
{ "type": "Feature", "properties": { "addr": "上海市 虹口区 柳营路45弄  " }, "geometry": { "type": "Point", "coordinates": [ 121.476111920792789, 31.277724128719658 ] } },
{ "type": "Feature", "properties": { "addr": "上海市 虹口区 欧阳路452弄  " }, "geometry": { "type": "Point", "coordinates": [ 121.493335850980003, 31.277424528313848 ] } },
{ "type": "Feature", "properties": { "addr": "上海市 虹口区 欧阳路679弄  " }, "geometry": { "type": "Point", "coordinates": [ 121.492715301533707, 31.281058401097596 ] } },
{ "type": "Feature", "properties": { "addr": "上海市 虹口区 青云路167号  " }, "geometry": { "type": "Point", "coordinates": [ 121.481787325174281, 31.271130305755726 ] } },
{ "type": "Feature", "properties": { "addr": "上海市 虹口区 山阴路85弄  " }, "geometry": { "type": "Point", "coordinates": [ 121.492920564342754, 31.27096417525091 ] } },
{ "type": "Feature", "properties": { "addr": "上海市 虹口区 水电路191弄  " }, "geometry": { "type": "Point", "coordinates": [ 121.480956392577554, 31.280340325467748 ] } },
{ "type": "Feature", "properties": { "addr": "上海市 虹口区 四川北路1515弄  " }, "geometry": { "type": "Point", "coordinates": [ 121.488911786173915, 31.261482363923982 ] } },
{ "type": "Feature", "properties": { "addr": "上海市 虹口区 四川北路1545弄  " }, "geometry": { "type": "Point", "coordinates": [ 121.488676879283062, 31.261487997350841 ] } },
{ "type": "Feature", "properties": { "addr": "上海市 虹口区 四川北路1999弄  " }, "geometry": { "type": "Point", "coordinates": [ 121.490374317374716, 31.26948364850286 ] } },
{ "type": "Feature", "properties": { "addr": "上海市 虹口区 四川北路2023弄  " }, "geometry": { "type": "Point", "coordinates": [ 121.489450769479902, 31.269598082089164 ] } },
{ "type": "Feature", "properties": { "addr": "上海市 虹口区 同心路209弄  " }, "geometry": { "type": "Point", "coordinates": [ 121.482747164611681, 31.273484496803512 ] } },
{ "type": "Feature", "properties": { "addr": "上海市 虹口区 同心路803弄  " }, "geometry": { "type": "Point", "coordinates": [ 121.477894518246785, 31.277457551532155 ] } },
{ "type": "Feature", "properties": { "addr": "上海市 虹口区 同心路93弄  " }, "geometry": { "type": "Point", "coordinates": [ 121.485367791275948, 31.272135493177043 ] } },
{ "type": "Feature", "properties": { "addr": "上海市 虹口区 西宝兴路949弄  " }, "geometry": { "type": "Point", "coordinates": [ 121.475029552483818, 31.275593187403278 ] } },
{ "type": "Feature", "properties": { "addr": "上海市 虹口区 新市北路1508弄  " }, "geometry": { "type": "Point", "coordinates": [ 121.487582743171899, 31.31190860125206 ] } },
{ "type": "Feature", "properties": { "addr": "上海市 虹口区 榆兰新村  " }, "geometry": { "type": "Point", "coordinates": [ 121.512035068306261, 31.274600768491922 ] } },
{ "type": "Feature", "properties": { "addr": "上海市 虹口区 乍浦路254弄  " }, "geometry": { "type": "Point", "coordinates": [ 121.493967539414626, 31.254731731139263 ] } },
{ "type": "Feature", "properties": { "addr": "上海市 杨浦区 爱国路300号  " }, "geometry": { "type": "Point", "coordinates": [ 121.557299418546663, 31.28479223228484 ] } },
{ "type": "Feature", "properties": { "addr": "上海市 杨浦区 安波路567弄  " }, "geometry": { "type": "Point", "coordinates": [ 121.534321578856051, 31.307126507767119 ] } },
{ "type": "Feature", "properties": { "addr": "上海市 杨浦区 安图新村  " }, "geometry": { "type": "Point", "coordinates": [ 121.547117851015145, 31.296818488675392 ] } },
{ "type": "Feature", "properties": { "addr": "上海市 杨浦区 鞍山四村  " }, "geometry": { "type": "Point", "coordinates": [ 121.516323219488697, 31.282015955270047 ] } },
{ "type": "Feature", "properties": { "addr": "上海市 杨浦区 鞍山五村  " }, "geometry": { "type": "Point", "coordinates": [ 121.512357739645452, 31.280881332353999 ] } },
{ "type": "Feature", "properties": { "addr": "上海市 杨浦区 波阳路301号  " }, "geometry": { "type": "Point", "coordinates": [ 121.559337141545171, 31.279891901525836 ] } },
{ "type": "Feature", "properties": { "addr": "上海市 杨浦区 长白路181号  " }, "geometry": { "type": "Point", "coordinates": [ 121.549286001194019, 31.293741127608104 ] } },
{ "type": "Feature", "properties": { "addr": "上海市 杨浦区 长阳路1529弄  " }, "geometry": { "type": "Point", "coordinates": [ 121.535883821968454, 31.274035419868103 ] } },
{ "type": "Feature", "properties": { "addr": "上海市 杨浦区 长阳路2021弄  " }, "geometry": { "type": "Point", "coordinates": [ 121.546420406617187, 31.27854970302592 ] } },
{ "type": "Feature", "properties": { "addr": "上海市 杨浦区 大学路63弄  " }, "geometry": { "type": "Point", "coordinates": [ 121.518075993199758, 31.310324907024906 ] } },
{ "type": "Feature", "properties": { "addr": "上海市 杨浦区 定海路150号  " }, "geometry": { "type": "Point", "coordinates": [ 121.564397116821766, 31.279474646206129 ] } },
{ "type": "Feature", "properties": { "addr": "上海市 杨浦区 凤城二村  " }, "geometry": { "type": "Point", "coordinates": [ 121.525134338913858, 31.284134020032397 ] } },
{ "type": "Feature", "properties": { "addr": "上海市 杨浦区 凤城三村  " }, "geometry": { "type": "Point", "coordinates": [ 121.528297991258896, 31.287822870041119 ] } },
{ "type": "Feature", "properties": { "addr": "上海市 杨浦区 抚顺路363弄  " }, "geometry": { "type": "Point", "coordinates": [ 121.518063327092065, 31.284159325728258 ] } },
{ "type": "Feature", "properties": { "addr": "上海市 杨浦区 阜新路169弄  " }, "geometry": { "type": "Point", "coordinates": [ 121.513533172405246, 31.28312610710616 ] } },
{ "type": "Feature", "properties": { "addr": "上海市 杨浦区 共青路136号  " }, "geometry": { "type": "Point", "coordinates": [ 121.568913168112076, 31.284580340521639 ] } },
{ "type": "Feature", "properties": { "addr": "上海市 杨浦区 国顺东路179弄  " }, "geometry": { "type": "Point", "coordinates": [ 121.544615441356001, 31.306482911823394 ] } },
{ "type": "Feature", "properties": { "addr": "上海市 杨浦区 国顺路117弄  " }, "geometry": { "type": "Point", "coordinates": [ 121.52280449374318, 31.296240700504011 ] } },
{ "type": "Feature", "properties": { "addr": "上海市 杨浦区 海州路83号  " }, "geometry": { "type": "Point", "coordinates": [ 121.554280130676759, 31.27374144031781 ] } },
{ "type": "Feature", "properties": { "addr": "上海市 杨浦区 河间路1040弄  " }, "geometry": { "type": "Point", "coordinates": [ 121.55222346021165, 31.278329421997306 ] } },
{ "type": "Feature", "properties": { "addr": "上海市 杨浦区 河间路827弄  " }, "geometry": { "type": "Point", "coordinates": [ 121.549122150269, 31.277467427632558 ] } },
{ "type": "Feature", "properties": { "addr": "上海市 杨浦区 浣纱六村  " }, "geometry": { "type": "Point", "coordinates": [ 121.540396998681146, 31.304521860565039 ] } },
{ "type": "Feature", "properties": { "addr": "上海市 杨浦区 黄兴路221号  " }, "geometry": { "type": "Point", "coordinates": [ 121.535376189524769, 31.278968505594108 ] } },
{ "type": "Feature", "properties": { "addr": "上海市 杨浦区 江浦路1379号  " }, "geometry": { "type": "Point", "coordinates": [ 121.524762979416025, 31.27894481876351 ] } },
{ "type": "Feature", "properties": { "addr": "上海市 杨浦区 锦西路100弄  " }, "geometry": { "type": "Point", "coordinates": [ 121.516099990569458, 31.280210396935328 ] } },
{ "type": "Feature", "properties": { "addr": "上海市 杨浦区 锦西路63弄  " }, "geometry": { "type": "Point", "coordinates": [ 121.518837037627804, 31.282811710730069 ] } },
{ "type": "Feature", "properties": { "addr": "上海市 杨浦区 锦州湾路169弄  " }, "geometry": { "type": "Point", "coordinates": [ 121.544661973581412, 31.273193987744598 ] } },
{ "type": "Feature", "properties": { "addr": "上海市 杨浦区 军工路2866号  " }, "geometry": { "type": "Point", "coordinates": [ 121.549025851918344, 31.341007751583398 ] } },
{ "type": "Feature", "properties": { "addr": "上海市 杨浦区 军工路334号  " }, "geometry": { "type": "Point", "coordinates": [ 121.56245021929, 31.293292073732776 ] } },
{ "type": "Feature", "properties": { "addr": "上海市 杨浦区 军工路400弄  " }, "geometry": { "type": "Point", "coordinates": [ 121.562258970046926, 31.294829077214423 ] } },
{ "type": "Feature", "properties": { "addr": "上海市 杨浦区 军工路601号  " }, "geometry": { "type": "Point", "coordinates": [ 121.556047097614879, 31.297602315481832 ] } },
{ "type": "Feature", "properties": { "addr": "上海市 杨浦区 开鲁四村  " }, "geometry": { "type": "Point", "coordinates": [ 121.536914986863351, 31.332001974649078 ] } },
{ "type": "Feature", "properties": { "addr": "上海市 杨浦区 控江路129弄  " }, "geometry": { "type": "Point", "coordinates": [ 121.551861982074428, 31.293063804494093 ] } },
{ "type": "Feature", "properties": { "addr": "上海市 杨浦区 控江路2026弄  " }, "geometry": { "type": "Point", "coordinates": [ 121.517312792838482, 31.279189325204559 ] } },
{ "type": "Feature", "properties": { "addr": "上海市 杨浦区 控江路648号  " }, "geometry": { "type": "Point", "coordinates": [ 121.547642191941307, 31.291736992955983 ] } },
{ "type": "Feature", "properties": { "addr": "上海市 杨浦区 控江路652弄  " }, "geometry": { "type": "Point", "coordinates": [ 121.547770649629243, 31.291775025551146 ] } },
{ "type": "Feature", "properties": { "addr": "上海市 杨浦区 控江路802弄  " }, "geometry": { "type": "Point", "coordinates": [ 121.542783347268397, 31.289124895755961 ] } },
{ "type": "Feature", "properties": { "addr": "上海市 杨浦区 控江路888弄  " }, "geometry": { "type": "Point", "coordinates": [ 121.540224254531566, 31.289846452580182 ] } },
{ "type": "Feature", "properties": { "addr": "上海市 杨浦区 控江四村  " }, "geometry": { "type": "Point", "coordinates": [ 121.531554977546421, 31.290911920976683 ] } },
{ "type": "Feature", "properties": { "addr": "上海市 杨浦区 控江五村  " }, "geometry": { "type": "Point", "coordinates": [ 121.536617288417361, 31.293492262078431 ] } },
{ "type": "Feature", "properties": { "addr": "上海市 杨浦区 辽源西路169弄  " }, "geometry": { "type": "Point", "coordinates": [ 121.527772554471866, 31.26262683846539 ] } },
{ "type": "Feature", "properties": { "addr": "上海市 杨浦区 辽源西路230弄  " }, "geometry": { "type": "Point", "coordinates": [ 121.515985366786396, 31.275367189652901 ] } },
{ "type": "Feature", "properties": { "addr": "上海市 杨浦区 临青路377号  " }, "geometry": { "type": "Point", "coordinates": [ 121.545417089193108, 31.273640283360947 ] } },
{ "type": "Feature", "properties": { "addr": "上海市 杨浦区 隆昌路362号  " }, "geometry": { "type": "Point", "coordinates": [ 121.552613863786291, 31.277566574363895 ] } },
{ "type": "Feature", "properties": { "addr": "上海市 杨浦区 隆昌路62号  " }, "geometry": { "type": "Point", "coordinates": [ 121.557260079544989, 31.274986950483132 ] } },
{ "type": "Feature", "properties": { "addr": "上海市 杨浦区 隆昌路661弄  " }, "geometry": { "type": "Point", "coordinates": [ 121.546727177948853, 31.284801686918403 ] } },
{ "type": "Feature", "properties": { "addr": "上海市 杨浦区 隆昌路718弄  " }, "geometry": { "type": "Point", "coordinates": [ 121.543603410368448, 31.289609611598763 ] } },
{ "type": "Feature", "properties": { "addr": "上海市 杨浦区 隆昌路8号  " }, "geometry": { "type": "Point", "coordinates": [ 121.557826550999593, 31.274426310928966 ] } },
{ "type": "Feature", "properties": { "addr": "上海市 杨浦区 内江路9号  " }, "geometry": { "type": "Point", "coordinates": [ 121.560874771086603, 31.279497252727403 ] } },
{ "type": "Feature", "properties": { "addr": "上海市 杨浦区 宁武路269号  " }, "geometry": { "type": "Point", "coordinates": [ 121.550964125717215, 31.274679702523247 ] } },
{ "type": "Feature", "properties": { "addr": "上海市 杨浦区 宁武路622号  " }, "geometry": { "type": "Point", "coordinates": [ 121.546795808489819, 31.279010478334541 ] } },
{ "type": "Feature", "properties": { "addr": "上海市 杨浦区 平凉路1749弄  " }, "geometry": { "type": "Point", "coordinates": [ 121.549871606555968, 31.275135558752012 ] } },
{ "type": "Feature", "properties": { "addr": "上海市 杨浦区 平凉路1759号  " }, "geometry": { "type": "Point", "coordinates": [ 121.549109035008556, 31.274703853391454 ] } },
{ "type": "Feature", "properties": { "addr": "上海市 杨浦区 平凉路1889弄  " }, "geometry": { "type": "Point", "coordinates": [ 121.550238654187353, 31.275817718597352 ] } },
{ "type": "Feature", "properties": { "addr": "上海市 杨浦区 三门路11弄  " }, "geometry": { "type": "Point", "coordinates": [ 121.52249089528965, 31.317430842858901 ] } },
{ "type": "Feature", "properties": { "addr": "上海市 杨浦区 三门路358弄  " }, "geometry": { "type": "Point", "coordinates": [ 121.499199540196386, 31.316978046779749 ] } },
{ "type": "Feature", "properties": { "addr": "上海市 杨浦区 市光路165弄  " }, "geometry": { "type": "Point", "coordinates": [ 121.523049551486295, 31.31987379055046 ] } },
{ "type": "Feature", "properties": { "addr": "上海市 杨浦区 市光三村  " }, "geometry": { "type": "Point", "coordinates": [ 121.547556583426214, 31.325646962871275 ] } },
{ "type": "Feature", "properties": { "addr": "上海市 杨浦区 市光一村  " }, "geometry": { "type": "Point", "coordinates": [ 121.54272801164899, 31.322038964866046 ] } },
{ "type": "Feature", "properties": { "addr": "上海市 杨浦区 双辽路768号  " }, "geometry": { "type": "Point", "coordinates": [ 121.521951193339248, 31.279645545198782 ] } },
{ "type": "Feature", "properties": { "addr": "上海市 杨浦区 双阳北路395弄  " }, "geometry": { "type": "Point", "coordinates": [ 121.533279544464477, 31.304029585797455 ] } },
{ "type": "Feature", "properties": { "addr": "上海市 杨浦区 双阳路190号  " }, "geometry": { "type": "Point", "coordinates": [ 121.542792599815144, 31.280164798458589 ] } },
{ "type": "Feature", "properties": { "addr": "上海市 杨浦区 双阳路300弄  " }, "geometry": { "type": "Point", "coordinates": [ 121.541210324489867, 31.281000072607377 ] } },
{ "type": "Feature", "properties": { "addr": "上海市 杨浦区 双阳支路19号  " }, "geometry": { "type": "Point", "coordinates": [ 121.544206712348952, 31.279654649515571 ] } },
{ "type": "Feature", "properties": { "addr": "上海市 杨浦区 松花江路159号  " }, "geometry": { "type": "Point", "coordinates": [ 121.546723584726806, 31.301422075192015 ] } },
{ "type": "Feature", "properties": { "addr": "上海市 杨浦区 松花江路55弄  " }, "geometry": { "type": "Point", "coordinates": [ 121.549851304851444, 31.3051391672929 ] } },
{ "type": "Feature", "properties": { "addr": "上海市 杨浦区 松花一村  " }, "geometry": { "type": "Point", "coordinates": [ 121.547631861427959, 31.30123925976951 ] } },
{ "type": "Feature", "properties": { "addr": "上海市 杨浦区 唐山路1188弄  " }, "geometry": { "type": "Point", "coordinates": [ 121.519759507556003, 31.269461888357963 ] } },
{ "type": "Feature", "properties": { "addr": "上海市 杨浦区 翔殷路258弄  " }, "geometry": { "type": "Point", "coordinates": [ 121.547913390374788, 31.315248362483711 ] } },
{ "type": "Feature", "properties": { "addr": "上海市 杨浦区 延吉东路137弄  " }, "geometry": { "type": "Point", "coordinates": [ 121.551377615743448, 31.299151281680984 ] } },
{ "type": "Feature", "properties": { "addr": "上海市 杨浦区 延吉东路555弄  " }, "geometry": { "type": "Point", "coordinates": [ 121.54730317144184, 31.293973483790058 ] } },
{ "type": "Feature", "properties": { "addr": "上海市 杨浦区 延吉中路25弄  " }, "geometry": { "type": "Point", "coordinates": [ 121.532519937325233, 31.265524144657057 ] } },
{ "type": "Feature", "properties": { "addr": "上海市 杨浦区 延吉中路365弄  " }, "geometry": { "type": "Point", "coordinates": [ 121.532664205190144, 31.287438592701548 ] } },
{ "type": "Feature", "properties": { "addr": "上海市 杨浦区 延吉中路75号  " }, "geometry": { "type": "Point", "coordinates": [ 121.540121578211782, 31.290567463803594 ] } },
{ "type": "Feature", "properties": { "addr": "上海市 杨浦区 逸仙路655弄  " }, "geometry": { "type": "Point", "coordinates": [ 121.49543393332911, 31.308013527497781 ] } },
{ "type": "Feature", "properties": { "addr": "上海市 杨浦区 营口路625弄  " }, "geometry": { "type": "Point", "coordinates": [ 121.540139005338673, 31.298821434260518 ] } },
{ "type": "Feature", "properties": { "addr": "上海市 杨浦区 永吉路158号  " }, "geometry": { "type": "Point", "coordinates": [ 121.539985574757566, 31.289369992717447 ] } },
{ "type": "Feature", "properties": { "addr": "上海市 杨浦区 榆林路858弄  " }, "geometry": { "type": "Point", "coordinates": [ 121.534636794259512, 31.266056054554188 ] } },
{ "type": "Feature", "properties": { "addr": "上海市 杨浦区 远东一村  " }, "geometry": { "type": "Point", "coordinates": [ 121.545550038408578, 31.304380858280325 ] } },
{ "type": "Feature", "properties": { "addr": "上海市 杨浦区 闸殷路171号  " }, "geometry": { "type": "Point", "coordinates": [ 121.535249169125663, 31.337394488048396 ] } },
{ "type": "Feature", "properties": { "addr": "上海市 杨浦区 政修路270号  " }, "geometry": { "type": "Point", "coordinates": [ 121.509503014565283, 31.295565864076202 ] } },
{ "type": "Feature", "properties": { "addr": "上海市 杨浦区 周家嘴路4468弄  " }, "geometry": { "type": "Point", "coordinates": [ 121.561400639132145, 31.291376338266154 ] } },
{ "type": "Feature", "properties": { "addr": "上海市 宝山区 宝安公路218号  " }, "geometry": { "type": "Point", "coordinates": [ 121.429597391994477, 31.375032988803362 ] } },
{ "type": "Feature", "properties": { "addr": "上海市 宝山区 宝荻路535弄  " }, "geometry": { "type": "Point", "coordinates": [ 121.401101344606957, 31.366305767930893 ] } },
{ "type": "Feature", "properties": { "addr": "上海市 宝山区 电台路599弄  " }, "geometry": { "type": "Point", "coordinates": [ 121.398884057116675, 31.362152028473584 ] } },
{ "type": "Feature", "properties": { "addr": "上海市 宝山区 高境路477弄  " }, "geometry": { "type": "Point", "coordinates": [ 121.478486411747326, 31.329764776141669 ] } },
{ "type": "Feature", "properties": { "addr": "上海市 宝山区 顾北东路575弄  " }, "geometry": { "type": "Point", "coordinates": [ 121.412592749884311, 31.363044029886478 ] } },
{ "type": "Feature", "properties": { "addr": "上海市 宝山区 华和路728弄  " }, "geometry": { "type": "Point", "coordinates": [ 121.401856999201939, 31.297451583035752 ] } },
{ "type": "Feature", "properties": { "addr": "上海市 宝山区 华灵路201弄  " }, "geometry": { "type": "Point", "coordinates": [ 121.430750816269295, 31.278089311226466 ] } },
{ "type": "Feature", "properties": { "addr": "上海市 宝山区 华灵路1500弄  " }, "geometry": { "type": "Point", "coordinates": [ 121.430519861922676, 31.283276554077286 ] } },
{ "type": "Feature", "properties": { "addr": "上海市 宝山区 锦秋路101号  " }, "geometry": { "type": "Point", "coordinates": [ 121.41038497273037, 31.327980885699994 ] } },
{ "type": "Feature", "properties": { "addr": "上海市 宝山区 锦秋路699弄  " }, "geometry": { "type": "Point", "coordinates": [ 121.396682220481182, 31.326725749134798 ] } },
{ "type": "Feature", "properties": { "addr": "上海市 宝山区 锦秋路1588弄  " }, "geometry": { "type": "Point", "coordinates": [ 121.379542731011895, 31.322806461781244 ] } },
{ "type": "Feature", "properties": { "addr": "上海市 宝山区 菊联路89弄  " }, "geometry": { "type": "Point", "coordinates": [ 121.374262401393693, 31.353942056832231 ] } },
{ "type": "Feature", "properties": { "addr": "上海市 宝山区 菊泉街1596弄  " }, "geometry": { "type": "Point", "coordinates": [ 121.378812008422372, 31.367549747702906 ] } },
{ "type": "Feature", "properties": { "addr": "上海市 宝山区 菊太路258弄  " }, "geometry": { "type": "Point", "coordinates": [ 121.385292335428517, 31.361329429631255 ] } },
{ "type": "Feature", "properties": { "addr": "上海市 宝山区 聚丰园路88号  " }, "geometry": { "type": "Point", "coordinates": [ 121.392902420386832, 31.320570122265067 ] } },
{ "type": "Feature", "properties": { "addr": "上海市 宝山区 聚丰园路95弄  " }, "geometry": { "type": "Point", "coordinates": [ 121.390733821055207, 31.320764005261356 ] } },
{ "type": "Feature", "properties": { "addr": "上海市 宝山区 潘泾路1799弄  " }, "geometry": { "type": "Point", "coordinates": [ 121.359160741811536, 31.46377889432198 ] } },
{ "type": "Feature", "properties": { "addr": "上海市 宝山区 盘古路1848号  " }, "geometry": { "type": "Point", "coordinates": [ 121.454297020635721, 31.401951926709412 ] } },
{ "type": "Feature", "properties": { "addr": "上海市 宝山区 三门路409号  " }, "geometry": { "type": "Point", "coordinates": [ 121.501917992330689, 31.317979964092739 ] } },
{ "type": "Feature", "properties": { "addr": "上海市 宝山区 水产路1458号  " }, "geometry": { "type": "Point", "coordinates": [ 121.485842994890731, 31.384509116151687 ] } },
{ "type": "Feature", "properties": { "addr": "上海市 宝山区 淞滨路91号  " }, "geometry": { "type": "Point", "coordinates": [ 121.505080027725811, 31.380480891536028 ] } },
{ "type": "Feature", "properties": { "addr": "上海市 宝山区 淞发路901弄  " }, "geometry": { "type": "Point", "coordinates": [ 121.488097112906914, 31.345298903096133 ] } },
{ "type": "Feature", "properties": { "addr": "上海市 宝山区 淞兴西路187号  " }, "geometry": { "type": "Point", "coordinates": [ 121.496777888202587, 31.374582784958175 ] } },
{ "type": "Feature", "properties": { "addr": "上海市 宝山区 铁峰路823号  " }, "geometry": { "type": "Point", "coordinates": [ 121.472086427462628, 31.385015229964313 ] } },
{ "type": "Feature", "properties": { "addr": "上海市 宝山区 通南路167弄  " }, "geometry": { "type": "Point", "coordinates": [ 121.479752573363626, 31.34624361609222 ] } },
{ "type": "Feature", "properties": { "addr": "上海市 宝山区 新二路183弄  " }, "geometry": { "type": "Point", "coordinates": [ 121.481739175998953, 31.331699849571358 ] } },
{ "type": "Feature", "properties": { "addr": "上海市 宝山区 新沪路198弄  " }, "geometry": { "type": "Point", "coordinates": [ 121.426340854859703, 31.275401139503494 ] } },
{ "type": "Feature", "properties": { "addr": "上海市 宝山区 逸仙路3458弄  " }, "geometry": { "type": "Point", "coordinates": [ 121.503025513193933, 31.352497693618606 ] } },
{ "type": "Feature", "properties": { "addr": "上海市 宝山区 长江路500号  " }, "geometry": { "type": "Point", "coordinates": [ 121.496949734046652, 31.354765414787074 ] } },
{ "type": "Feature", "properties": { "addr": "上海市 宝山区 真北路4333弄  " }, "geometry": { "type": "Point", "coordinates": [ 121.408209007293564, 31.297871149357832 ] } },
{ "type": "Feature", "properties": { "addr": "上海市 宝山区 镇泰路111弄  " }, "geometry": { "type": "Point", "coordinates": [ 121.450982003812257, 31.387958867802453 ] } },
{ "type": "Feature", "properties": { "addr": "上海市 宝山区 宝林八村  " }, "geometry": { "type": "Point", "coordinates": [ 121.500805800278783, 31.411767395174287 ] } },
{ "type": "Feature", "properties": { "addr": "上海市 宝山区 共富四村  " }, "geometry": { "type": "Point", "coordinates": [ 121.431283152114503, 31.356292539493641 ] } },
{ "type": "Feature", "properties": { "addr": "上海市 宝山区 聚源桥村  " }, "geometry": { "type": "Point", "coordinates": [ 121.39220704209157, 31.445278226407702 ] } },
{ "type": "Feature", "properties": { "addr": "上海市 宝山区 康家村  " }, "geometry": { "type": "Point", "coordinates": [ 121.431716315031423, 31.327048480321658 ] } },
{ "type": "Feature", "properties": { "addr": "上海市 宝山区 湄浦村  " }, "geometry": { "type": "Point", "coordinates": [ 121.432377647547852, 31.394080989093933 ] } },
{ "type": "Feature", "properties": { "addr": "上海市 宝山区 淞南新村  " }, "geometry": { "type": "Point", "coordinates": [ 121.489349710110019, 31.350794264496766 ] } },
{ "type": "Feature", "properties": { "addr": "上海市 宝山区 淞南三村  " }, "geometry": { "type": "Point", "coordinates": [ 121.496085923468257, 31.350175563924726 ] } },
{ "type": "Feature", "properties": { "addr": "上海市 宝山区 淞南五村  " }, "geometry": { "type": "Point", "coordinates": [ 121.491637424752284, 31.344884793040421 ] } },
{ "type": "Feature", "properties": { "addr": "上海市 宝山区 淞南十村  " }, "geometry": { "type": "Point", "coordinates": [ 121.481393418208157, 31.33734984280704 ] } },
{ "type": "Feature", "properties": { "addr": "上海市 宝山区 月浦九村  " }, "geometry": { "type": "Point", "coordinates": [ 121.430216953304708, 31.421050958243377 ] } },
{ "type": "Feature", "properties": { "addr": "上海市 宝山区 长征新村  " }, "geometry": { "type": "Point", "coordinates": [ 121.49775156154486, 31.375972698490145 ] } },
{ "type": "Feature", "properties": { "addr": "上海市 宝山区 朱家弄村  " }, "geometry": { "type": "Point", "coordinates": [ 121.395986662524805, 31.347668338968923 ] } },
{ "type": "Feature", "properties": { "addr": "上海市 闵行区 古美路377弄  " }, "geometry": { "type": "Point", "coordinates": [ 121.412807253538034, 31.146656344525489 ] } },
{ "type": "Feature", "properties": { "addr": "上海市 闵行区 平吉路88弄  " }, "geometry": { "type": "Point", "coordinates": [ 121.411431768141156, 31.155072509866677 ] } },
{ "type": "Feature", "properties": { "addr": "上海市 闵行区 莘朱路1924弄  " }, "geometry": { "type": "Point", "coordinates": [ 121.42862488644937, 31.128692468940034 ] } },
{ "type": "Feature", "properties": { "addr": "上海市 闵行区 益文路101弄  " }, "geometry": { "type": "Point", "coordinates": [ 121.417756557575814, 31.134922472885403 ] } },
{ "type": "Feature", "properties": { "addr": "上海市 嘉定区 玉麦路388弄  " }, "geometry": { "type": "Point", "coordinates": [ 121.218459305607055, 31.283978945343975 ] } },
{ "type": "Feature", "properties": { "addr": "上海市 金山区 天华路305号  " }, "geometry": { "type": "Point", "coordinates": [ 121.441778145218123, 30.811425898653255 ] } },
{ "type": "Feature", "properties": { "addr": "上海市 金山区 中一东路47号  " }, "geometry": { "type": "Point", "coordinates": [ 121.432071145707852, 30.799821328063985 ] } },
{ "type": "Feature", "properties": { "addr": "上海市 松江区 影振路299弄  " }, "geometry": { "type": "Point", "coordinates": [ 121.315064596786229, 31.010332420418038 ] } },
{ "type": "Feature", "properties": { "addr": "上海市 松江区 九新公路528号  " }, "geometry": { "type": "Point", "coordinates": [ 121.327014765468704, 31.123438308388849 ] } },
{ "type": "Feature", "properties": { "addr": "上海市 松江区 沪亭南路501弄  " }, "geometry": { "type": "Point", "coordinates": [ 121.339041728789041, 31.125506560096127 ] } },
{ "type": "Feature", "properties": { "addr": "上海市 松江区 新北街新乐路7弄  " }, "geometry": { "type": "Point", "coordinates": [ 121.31776554244631, 31.071364691335379 ] } },
{ "type": "Feature", "properties": { "addr": "上海市 松江区 沪亭南路290弄  " }, "geometry": { "type": "Point", "coordinates": [ 121.337951994374876, 31.126384714779778 ] } },
{ "type": "Feature", "properties": { "addr": "上海市 松江区 联阳路12弄  " }, "geometry": { "type": "Point", "coordinates": [ 121.291729684358955, 31.029698292384051 ] } },
{ "type": "Feature", "properties": { "addr": "上海市 青浦区 光联村  " }, "geometry": { "type": "Point", "coordinates": [ 121.317580850833451, 31.165954436563592 ] } },
{ "type": "Feature", "properties": { "addr": "上海市 青浦区 汇龙路印氏达路  " }, "geometry": { "type": "Point", "coordinates": [ 121.280378695934886, 31.200479082321095 ] } },
{ "type": "Feature", "properties": { "addr": "上海市 青浦区 龙联路208弄  " }, "geometry": { "type": "Point", "coordinates": [ 121.296974890231724, 31.200586804946575 ] } },
{ "type": "Feature", "properties": { "addr": "上海市 青浦区 龙联路58弄  " }, "geometry": { "type": "Point", "coordinates": [ 121.303675620522299, 31.204284588875726 ] } },
{ "type": "Feature", "properties": { "addr": "上海市 青浦区 明珠路785弄  " }, "geometry": { "type": "Point", "coordinates": [ 121.267398989790664, 31.184115928704834 ] } },
{ "type": "Feature", "properties": { "addr": "上海市 青浦区 崧泽大道333号  " }, "geometry": { "type": "Point", "coordinates": [ 121.308617558454898, 31.196205058244473 ] } },
{ "type": "Feature", "properties": { "addr": "上海市 青浦区 徐灵路200弄  " }, "geometry": { "type": "Point", "coordinates": [ 121.302542048799268, 31.20736389203584 ] } },
{ "type": "Feature", "properties": { "addr": "上海市 青浦区 竹盈路339弄  " }, "geometry": { "type": "Point", "coordinates": [ 121.106685756086478, 31.175016080221027 ] } }
]
}
