{
"type": "FeatureCollection",
"crs": { "type": "name", "properties": { "name": "urn:ogc:def:crs:OGC:1.3:CRS84" } },
"features": [
{ "type": "Feature", "properties": { "addr": "上海市 浦东新区 北艾路1200弄  " }, "geometry": { "type": "Point", "coordinates": [ 121.538886767457754, 31.188481867872763 ] } },
{ "type": "Feature", "properties": { "addr": "上海市 浦东新区 北艾路1660弄  " }, "geometry": { "type": "Point", "coordinates": [ 121.530288187116255, 31.187040813780268 ] } },
{ "type": "Feature", "properties": { "addr": "上海市 浦东新区 北艾路73弄  " }, "geometry": { "type": "Point", "coordinates": [ 121.550455145815263, 31.191186130381443 ] } },
{ "type": "Feature", "properties": { "addr": "上海市 浦东新区 北蔡镇联勤村冯桥队冯家宅  " }, "geometry": { "type": "Point", "coordinates": [ 121.557447915227129, 31.171212397581485 ] } },
{ "type": "Feature", "properties": { "addr": "上海市 浦东新区 北蔡镇联勤村麦家队麦家宅  " }, "geometry": { "type": "Point", "coordinates": [ 121.553913442367573, 31.169263494054469 ] } },
{ "type": "Feature", "properties": { "addr": "上海市 浦东新区 北蔡镇南新村西钟家宅  " }, "geometry": { "type": "Point", "coordinates": [ 121.548654941573261, 31.173251634963325 ] } },
{ "type": "Feature", "properties": { "addr": "上海市 浦东新区 北蔡镇南新村赵家厍  " }, "geometry": { "type": "Point", "coordinates": [ 121.54343515774643, 31.176791383130574 ] } },
{ "type": "Feature", "properties": { "addr": "上海市 浦东新区 北蔡镇卫行村顾家队张家宅  " }, "geometry": { "type": "Point", "coordinates": [ 121.584959240114614, 31.172225069869427 ] } },
{ "type": "Feature", "properties": { "addr": "上海市 浦东新区 北蔡镇卫行村张浜队曹家宅  " }, "geometry": { "type": "Point", "coordinates": [ 121.587201410667518, 31.166665202015878 ] } },
{ "type": "Feature", "properties": { "addr": "上海市 浦东新区 北蔡镇卫行村张浜队顾家宅  " }, "geometry": { "type": "Point", "coordinates": [ 121.587971438150674, 31.170225746093237 ] } },
{ "type": "Feature", "properties": { "addr": "上海市 浦东新区 北蔡镇卫行村朱家队朱家宅  " }, "geometry": { "type": "Point", "coordinates": [ 121.587201410667518, 31.166665202015878 ] } },
{ "type": "Feature", "properties": { "addr": "上海市 浦东新区 北蔡镇五星村陈家队陈家宅  " }, "geometry": { "type": "Point", "coordinates": [ 121.578579474382749, 31.194413133383005 ] } },
{ "type": "Feature", "properties": { "addr": "上海市 浦东新区 北蔡镇五星村家务队顾家宅  " }, "geometry": { "type": "Point", "coordinates": [ 121.578365498010271, 31.179988450201478 ] } },
{ "type": "Feature", "properties": { "addr": "上海市 浦东新区 北蔡镇五星村三联队黄家宅  " }, "geometry": { "type": "Point", "coordinates": [ 121.578365498010271, 31.179988450201478 ] } },
{ "type": "Feature", "properties": { "addr": "上海市 浦东新区 北蔡镇五星村吴家队吴家宅  " }, "geometry": { "type": "Point", "coordinates": [ 121.578365498010271, 31.179988450201478 ] } },
{ "type": "Feature", "properties": { "addr": "上海市 浦东新区 北蔡镇中界村复兴队陈家宅  " }, "geometry": { "type": "Point", "coordinates": [ 121.578579474382749, 31.194413133383005 ] } },
{ "type": "Feature", "properties": { "addr": "上海市 浦东新区 北蔡镇中界村黄家队黄家宅  " }, "geometry": { "type": "Point", "coordinates": [ 121.574173735009055, 31.195446174063392 ] } },
{ "type": "Feature", "properties": { "addr": "上海市 浦东新区 北蔡镇中界村林家湾  " }, "geometry": { "type": "Point", "coordinates": [ 121.578108313142764, 31.189157400206415 ] } },
{ "type": "Feature", "properties": { "addr": "上海市 浦东新区 北蔡镇中界村陆家队陆家宅  " }, "geometry": { "type": "Point", "coordinates": [ 121.507419754257086, 31.190563205456431 ] } },
{ "type": "Feature", "properties": { "addr": "上海市 浦东新区 北蔡镇中界村庄家队蔡家宅  " }, "geometry": { "type": "Point", "coordinates": [ 121.578579474382749, 31.194413133383005 ] } },
{ "type": "Feature", "properties": { "addr": "上海市 浦东新区 北新园路460弄  " }, "geometry": { "type": "Point", "coordinates": [ 121.634743151816494, 31.326191717177842 ] } },
{ "type": "Feature", "properties": { "addr": "上海市 浦东新区 北张家浜路172号  " }, "geometry": { "type": "Point", "coordinates": [ 121.532325184690677, 31.222430470322667 ] } },
{ "type": "Feature", "properties": { "addr": "上海市 浦东新区 北张家浜路58号  " }, "geometry": { "type": "Point", "coordinates": [ 121.527623453651458, 31.222173076955738 ] } },
{ "type": "Feature", "properties": { "addr": "上海市 浦东新区 博华路1018弄  " }, "geometry": { "type": "Point", "coordinates": [ 121.557501993218835, 31.176850857976813 ] } },
{ "type": "Feature", "properties": { "addr": "上海市 浦东新区 博华路999弄  " }, "geometry": { "type": "Point", "coordinates": [ 121.557113925238525, 31.176806290465709 ] } },
{ "type": "Feature", "properties": { "addr": "上海市 浦东新区 博山东路188弄  " }, "geometry": { "type": "Point", "coordinates": [ 121.572354486690259, 31.257327349027737 ] } },
{ "type": "Feature", "properties": { "addr": "上海市 浦东新区 博兴路1185弄  " }, "geometry": { "type": "Point", "coordinates": [ 121.600830861187106, 31.274160727405675 ] } },
{ "type": "Feature", "properties": { "addr": "上海市 浦东新区 博兴路1663弄  " }, "geometry": { "type": "Point", "coordinates": [ 121.607201015050023, 31.280776093952529 ] } },
{ "type": "Feature", "properties": { "addr": "上海市 浦东新区 博兴路916弄  " }, "geometry": { "type": "Point", "coordinates": [ 121.597995000522658, 31.270420178729555 ] } },
{ "type": "Feature", "properties": { "addr": "上海市 浦东新区 曹路镇顾东村花厅  " }, "geometry": { "type": "Point", "coordinates": [ 121.668198025280205, 31.301248053430943 ] } },
{ "type": "Feature", "properties": { "addr": "上海市 浦东新区 曹路镇光明村沙桥宅  " }, "geometry": { "type": "Point", "coordinates": [ 121.65818551206597, 31.292967682842971 ] } },
{ "type": "Feature", "properties": { "addr": "上海市 浦东新区 曹路镇联合村西柴场  " }, "geometry": { "type": "Point", "coordinates": [ 121.677463148310096, 31.303329042391074 ] } },
{ "type": "Feature", "properties": { "addr": "上海市 浦东新区 曹路镇五四村唐朱家宅  " }, "geometry": { "type": "Point", "coordinates": [ 121.668338969414705, 31.258308838536237 ] } },
{ "type": "Feature", "properties": { "addr": "上海市 浦东新区 曹路镇迅建村季家宅  " }, "geometry": { "type": "Point", "coordinates": [ 121.697148794916856, 31.289202814595352 ] } },
{ "type": "Feature", "properties": { "addr": "上海市 浦东新区 长清路693弄  " }, "geometry": { "type": "Point", "coordinates": [ 121.536884264814915, 31.189702255537771 ] } },
{ "type": "Feature", "properties": { "addr": "上海市 浦东新区 长清路773弄  " }, "geometry": { "type": "Point", "coordinates": [ 121.49801207014275, 31.161973865099831 ] } },
{ "type": "Feature", "properties": { "addr": "上海市 浦东新区 昌里东路411弄  " }, "geometry": { "type": "Point", "coordinates": [ 121.519301551407025, 31.185511228668684 ] } },
{ "type": "Feature", "properties": { "addr": "上海市 浦东新区 昌里东路650弄  " }, "geometry": { "type": "Point", "coordinates": [ 121.521399004942268, 31.183535899194091 ] } },
{ "type": "Feature", "properties": { "addr": "上海市 浦东新区 陈春路620弄  " }, "geometry": { "type": "Point", "coordinates": [ 121.552907609688049, 31.178078194108803 ] } },
{ "type": "Feature", "properties": { "addr": "上海市 浦东新区 成山路1728弄  " }, "geometry": { "type": "Point", "coordinates": [ 121.535534201463975, 31.181824984316307 ] } },
{ "type": "Feature", "properties": { "addr": "上海市 浦东新区 成山路24弄  " }, "geometry": { "type": "Point", "coordinates": [ 121.492308997951554, 31.174146877064409 ] } },
{ "type": "Feature", "properties": { "addr": "上海市 浦东新区 成山路544弄  " }, "geometry": { "type": "Point", "coordinates": [ 121.514758730612513, 31.174425412250987 ] } },
{ "type": "Feature", "properties": { "addr": "上海市 浦东新区 川沙新镇黄楼村姚家宅  " }, "geometry": { "type": "Point", "coordinates": [ 121.670267451683529, 31.168147433085426 ] } },
{ "type": "Feature", "properties": { "addr": "上海市 浦东新区 川沙新镇新春村西王家宅  " }, "geometry": { "type": "Point", "coordinates": [ 121.698522753194382, 31.166716649452901 ] } },
{ "type": "Feature", "properties": { "addr": "上海市 浦东新区 川沙新镇药师村  " }, "geometry": { "type": "Point", "coordinates": [ 121.688302012762961, 31.209451836559015 ] } },
{ "type": "Feature", "properties": { "addr": "上海市 浦东新区 川周公路2928弄  " }, "geometry": { "type": "Point", "coordinates": [ 121.620997999547228, 31.147934683568153 ] } },
{ "type": "Feature", "properties": { "addr": "上海市 浦东新区 川周公路3010弄  " }, "geometry": { "type": "Point", "coordinates": [ 121.61762315557678, 31.147196115555047 ] } },
{ "type": "Feature", "properties": { "addr": "上海市 浦东新区 创新西路199弄  " }, "geometry": { "type": "Point", "coordinates": [ 121.660810450596685, 31.207582255485885 ] } },
{ "type": "Feature", "properties": { "addr": "上海市 浦东新区 德爱路380弄  " }, "geometry": { "type": "Point", "coordinates": [ 121.58962611690005, 31.28158489894264 ] } },
{ "type": "Feature", "properties": { "addr": "上海市 浦东新区 德平路100弄  " }, "geometry": { "type": "Point", "coordinates": [ 121.568682662918221, 31.253939981179144 ] } },
{ "type": "Feature", "properties": { "addr": "上海市 浦东新区 德平路1189弄  " }, "geometry": { "type": "Point", "coordinates": [ 121.57681313625848, 31.2458715286161 ] } },
{ "type": "Feature", "properties": { "addr": "上海市 浦东新区 德平路155弄  " }, "geometry": { "type": "Point", "coordinates": [ 121.567954047319077, 31.256601836594431 ] } },
{ "type": "Feature", "properties": { "addr": "上海市 浦东新区 丁香路1599弄  " }, "geometry": { "type": "Point", "coordinates": [ 121.572306876498232, 31.233862298835515 ] } },
{ "type": "Feature", "properties": { "addr": "上海市 浦东新区 东波路195弄  " }, "geometry": { "type": "Point", "coordinates": [ 121.586241571230104, 31.290794581956991 ] } },
{ "type": "Feature", "properties": { "addr": "上海市 浦东新区 东波路49弄  " }, "geometry": { "type": "Point", "coordinates": [ 121.583378042755953, 31.290723839031642 ] } },
{ "type": "Feature", "properties": { "addr": "上海市 浦东新区 东海三村  " }, "geometry": { "type": "Point", "coordinates": [ 121.910942991036194, 30.958858859678774 ] } },
{ "type": "Feature", "properties": { "addr": "上海市 浦东新区 东建路228弄  " }, "geometry": { "type": "Point", "coordinates": [ 121.538810411489408, 31.206686097292025 ] } },
{ "type": "Feature", "properties": { "addr": "上海市 浦东新区 东陆路1182弄  " }, "geometry": { "type": "Point", "coordinates": [ 121.602356004281958, 31.275368269875603 ] } },
{ "type": "Feature", "properties": { "addr": "上海市 浦东新区 东陆路1268弄  " }, "geometry": { "type": "Point", "coordinates": [ 121.601560554752865, 31.272878863483545 ] } },
{ "type": "Feature", "properties": { "addr": "上海市 浦东新区 东陆路1350弄  " }, "geometry": { "type": "Point", "coordinates": [ 121.58962611690005, 31.28158489894264 ] } },
{ "type": "Feature", "properties": { "addr": "上海市 浦东新区 东三里桥路170弄  " }, "geometry": { "type": "Point", "coordinates": [ 121.517567192958907, 31.206359166517448 ] } },
{ "type": "Feature", "properties": { "addr": "上海市 浦东新区 东书房路390弄  " }, "geometry": { "type": "Point", "coordinates": [ 121.5416177958692, 31.169666487058681 ] } },
{ "type": "Feature", "properties": { "addr": "上海市 浦东新区 峨山路280弄  " }, "geometry": { "type": "Point", "coordinates": [ 121.53440970262659, 31.220273408639333 ] } },
{ "type": "Feature", "properties": { "addr": "上海市 浦东新区 繁荣东路150弄  " }, "geometry": { "type": "Point", "coordinates": [ 121.593214488090211, 31.112016970902442 ] } },
{ "type": "Feature", "properties": { "addr": "上海市 浦东新区 芳草路352弄  " }, "geometry": { "type": "Point", "coordinates": [ 121.561626023984601, 31.199214895930286 ] } },
{ "type": "Feature", "properties": { "addr": "上海市 浦东新区 芳华路329弄  " }, "geometry": { "type": "Point", "coordinates": [ 121.563650175790229, 31.202246644364951 ] } },
{ "type": "Feature", "properties": { "addr": "上海市 浦东新区 芳华路411弄  " }, "geometry": { "type": "Point", "coordinates": [ 121.565570303817807, 31.202399460853744 ] } },
{ "type": "Feature", "properties": { "addr": "上海市 浦东新区 芳华路630弄  " }, "geometry": { "type": "Point", "coordinates": [ 121.556559041925013, 31.200205103357757 ] } },
{ "type": "Feature", "properties": { "addr": "上海市 浦东新区 芳华路916弄  " }, "geometry": { "type": "Point", "coordinates": [ 121.574598004701429, 31.202853893456744 ] } },
{ "type": "Feature", "properties": { "addr": "上海市 浦东新区 芳芯路312弄  " }, "geometry": { "type": "Point", "coordinates": [ 121.564077499721321, 31.19718263286784 ] } },
{ "type": "Feature", "properties": { "addr": "上海市 浦东新区 港辉路308弄  " }, "geometry": { "type": "Point", "coordinates": [ 121.865910845990442, 30.873694367599928 ] } },
{ "type": "Feature", "properties": { "addr": "上海市 浦东新区 高东二路118弄  " }, "geometry": { "type": "Point", "coordinates": [ 121.632030269176354, 31.329908670368081 ] } },
{ "type": "Feature", "properties": { "addr": "上海市 浦东新区 高东镇珊黄村苍头宅  " }, "geometry": { "type": "Point", "coordinates": [ 121.646532423498897, 31.336547689860097 ] } },
{ "type": "Feature", "properties": { "addr": "上海市 浦东新区 高东镇先锋村卢家宅  " }, "geometry": { "type": "Point", "coordinates": [ 121.591521541526092, 31.290378301115442 ] } },
{ "type": "Feature", "properties": { "addr": "上海市 浦东新区 高东镇先锋村杨树园  " }, "geometry": { "type": "Point", "coordinates": [ 121.63965598465056, 31.312084222824431 ] } },
{ "type": "Feature", "properties": { "addr": "上海市 浦东新区 高科西路2763弄  " }, "geometry": { "type": "Point", "coordinates": [ 121.55990100791378, 31.196831884065706 ] } },
{ "type": "Feature", "properties": { "addr": "上海市 浦东新区 高科西路3000弄  " }, "geometry": { "type": "Point", "coordinates": [ 121.570701963874114, 31.195867897271857 ] } },
{ "type": "Feature", "properties": { "addr": "上海市 浦东新区 高科西路3060弄  " }, "geometry": { "type": "Point", "coordinates": [ 121.570701963874114, 31.195867897271857 ] } },
{ "type": "Feature", "properties": { "addr": "上海市 浦东新区 高桥镇南塘村龚家宅  " }, "geometry": { "type": "Point", "coordinates": [ 121.574680918300004, 31.345394276906958 ] } },
{ "type": "Feature", "properties": { "addr": "上海市 浦东新区 高桥镇南塘村顾家宅  " }, "geometry": { "type": "Point", "coordinates": [ 121.574680918300004, 31.345394276906958 ] } },
{ "type": "Feature", "properties": { "addr": "上海市 浦东新区 高桥镇三岔港村三岔港  " }, "geometry": { "type": "Point", "coordinates": [ 121.51447127284932, 31.371531268842322 ] } },
{ "type": "Feature", "properties": { "addr": "上海市 浦东新区 高桥镇西新村尖角圩  " }, "geometry": { "type": "Point", "coordinates": [ 121.523275744813702, 31.361953760539233 ] } },
{ "type": "Feature", "properties": { "addr": "上海市 浦东新区 高桥镇新农村沈家宅  " }, "geometry": { "type": "Point", "coordinates": [ 121.558501268268131, 31.362552263234768 ] } },
{ "type": "Feature", "properties": { "addr": "上海市 浦东新区 高青路2878弄  " }, "geometry": { "type": "Point", "coordinates": [ 121.534383741597352, 31.16614786788632 ] } },
{ "type": "Feature", "properties": { "addr": "上海市 浦东新区 古棕路168弄  " }, "geometry": { "type": "Point", "coordinates": [ 121.923877781904906, 30.890266510779377 ] } },
{ "type": "Feature", "properties": { "addr": "上海市 浦东新区 崮山路95号  " }, "geometry": { "type": "Point", "coordinates": [ 121.557378206719562, 31.253687382281104 ] } },
{ "type": "Feature", "properties": { "addr": "上海市 浦东新区 海鸣路98弄  " }, "geometry": { "type": "Point", "coordinates": [ 121.677548217841903, 31.288627833747729 ] } },
{ "type": "Feature", "properties": { "addr": "上海市 浦东新区 海纳路129弄  " }, "geometry": { "type": "Point", "coordinates": [ 121.676724651350355, 31.298365076552425 ] } },
{ "type": "Feature", "properties": { "addr": "上海市 浦东新区 海鹏路301弄  " }, "geometry": { "type": "Point", "coordinates": [ 121.680730914263762, 31.295363983048894 ] } },
{ "type": "Feature", "properties": { "addr": "上海市 浦东新区 海松路52弄  " }, "geometry": { "type": "Point", "coordinates": [ 121.681814360539335, 31.281916196035649 ] } },
{ "type": "Feature", "properties": { "addr": "上海市 浦东新区 航头路1688弄  " }, "geometry": { "type": "Point", "coordinates": [ 121.59236999108029, 31.037555831479665 ] } },
{ "type": "Feature", "properties": { "addr": "上海市 浦东新区 航头路988弄  " }, "geometry": { "type": "Point", "coordinates": [ 121.60690466406227, 31.040624900894645 ] } },
{ "type": "Feature", "properties": { "addr": "上海市 浦东新区 航头镇鹤东村沿江  " }, "geometry": { "type": "Point", "coordinates": [ 121.608037966293665, 31.060273364197414 ] } },
{ "type": "Feature", "properties": { "addr": "上海市 浦东新区 航头镇梅园村  " }, "geometry": { "type": "Point", "coordinates": [ 121.591231748168582, 31.065555026770038 ] } },
{ "type": "Feature", "properties": { "addr": "上海市 浦东新区 航头镇牌楼村  " }, "geometry": { "type": "Point", "coordinates": [ 121.565577580092423, 31.05914827465531 ] } },
{ "type": "Feature", "properties": { "addr": "上海市 浦东新区 合庆镇东风村曹家宅  " }, "geometry": { "type": "Point", "coordinates": [ 121.705700034558006, 31.232450813592735 ] } },
{ "type": "Feature", "properties": { "addr": "上海市 浦东新区 合庆镇庆星村薛家宅  " }, "geometry": { "type": "Point", "coordinates": [ 121.720667690795793, 31.241418342393125 ] } },
{ "type": "Feature", "properties": { "addr": "上海市 浦东新区 合庆镇营房村高路二宅  " }, "geometry": { "type": "Point", "coordinates": [ 121.742081317881556, 31.216227432867615 ] } },
{ "type": "Feature", "properties": { "addr": "上海市 浦东新区 合庆镇营房村青晏二宅  " }, "geometry": { "type": "Point", "coordinates": [ 121.740505510355945, 31.214404312540196 ] } },
{ "type": "Feature", "properties": { "addr": "上海市 浦东新区 合庆镇永红村秦家宅  " }, "geometry": { "type": "Point", "coordinates": [ 121.716091812358513, 31.24084075180815 ] } },
{ "type": "Feature", "properties": { "addr": "上海市 浦东新区 和佳路105弄  " }, "geometry": { "type": "Point", "coordinates": [ 121.520302084084037, 31.133297374938646 ] } },
{ "type": "Feature", "properties": { "addr": "上海市 浦东新区 和炯路77弄  " }, "geometry": { "type": "Point", "coordinates": [ 121.525530311982649, 31.139159418419815 ] } },
{ "type": "Feature", "properties": { "addr": "上海市 浦东新区 和融路55弄  " }, "geometry": { "type": "Point", "coordinates": [ 121.506367658843814, 31.130799475794813 ] } },
{ "type": "Feature", "properties": { "addr": "上海市 浦东新区 虹盛东路39弄  " }, "geometry": { "type": "Point", "coordinates": [ 121.689195377592625, 31.245412751016584 ] } },
{ "type": "Feature", "properties": { "addr": "上海市 浦东新区 洪山路237弄  " }, "geometry": { "type": "Point", "coordinates": [ 121.50688247773158, 31.178985516539065 ] } },
{ "type": "Feature", "properties": { "addr": "上海市 浦东新区 沪南路1087号  " }, "geometry": { "type": "Point", "coordinates": [ 121.562292476842444, 31.187502039999586 ] } },
{ "type": "Feature", "properties": { "addr": "上海市 浦东新区 沪南路2727弄  " }, "geometry": { "type": "Point", "coordinates": [ 121.582921973048542, 31.148104818403709 ] } },
{ "type": "Feature", "properties": { "addr": "上海市 浦东新区 沪南路3158弄  " }, "geometry": { "type": "Point", "coordinates": [ 121.572008728899462, 31.127725540603151 ] } },
{ "type": "Feature", "properties": { "addr": "上海市 浦东新区 沪南路3468弄  " }, "geometry": { "type": "Point", "coordinates": [ 121.571596496500945, 31.122291020369307 ] } },
{ "type": "Feature", "properties": { "addr": "上海市 浦东新区 沪南路4855弄  " }, "geometry": { "type": "Point", "coordinates": [ 121.536884264814915, 31.189702255537771 ] } },
{ "type": "Feature", "properties": { "addr": "上海市 浦东新区 花木街道龙王庙村南杨家堂  " }, "geometry": { "type": "Point", "coordinates": [ 121.558963805775221, 31.202723239483021 ] } },
{ "type": "Feature", "properties": { "addr": "上海市 浦东新区 华绣路255弄  " }, "geometry": { "type": "Point", "coordinates": [ 121.535849327036885, 31.190837135387419 ] } },
{ "type": "Feature", "properties": { "addr": "上海市 浦东新区 环林西路777弄  " }, "geometry": { "type": "Point", "coordinates": [ 121.532913844291357, 31.146582247458515 ] } },
{ "type": "Feature", "properties": { "addr": "上海市 浦东新区 环桥路1136弄  " }, "geometry": { "type": "Point", "coordinates": [ 121.584859707864112, 31.120077939878794 ] } },
{ "type": "Feature", "properties": { "addr": "上海市 浦东新区 环桥路1137弄  " }, "geometry": { "type": "Point", "coordinates": [ 121.584859707864112, 31.120077939878794 ] } },
{ "type": "Feature", "properties": { "addr": "上海市 浦东新区 季景路333弄  " }, "geometry": { "type": "Point", "coordinates": [ 121.597617712208475, 31.340393689407513 ] } },
{ "type": "Feature", "properties": { "addr": "上海市 浦东新区 济阳路65弄  " }, "geometry": { "type": "Point", "coordinates": [ 121.488308933346161, 31.173016198002603 ] } },
{ "type": "Feature", "properties": { "addr": "上海市 浦东新区 佳林路959号  " }, "geometry": { "type": "Point", "coordinates": [ 121.619505464942392, 31.270787858994865 ] } },
{ "type": "Feature", "properties": { "addr": "上海市 浦东新区 江心沙路300号工地生活区  " }, "geometry": { "type": "Point", "coordinates": [ 121.545603397755869, 31.351088386754011 ] } },
{ "type": "Feature", "properties": { "addr": "上海市 浦东新区 金口路155弄  " }, "geometry": { "type": "Point", "coordinates": [ 121.58424499740363, 31.25593427683329 ] } },
{ "type": "Feature", "properties": { "addr": "上海市 浦东新区 金葵路1115弄  " }, "geometry": { "type": "Point", "coordinates": [ 121.602138614348533, 31.244250205910852 ] } },
{ "type": "Feature", "properties": { "addr": "上海市 浦东新区 金桥路835弄  " }, "geometry": { "type": "Point", "coordinates": [ 121.621784825343411, 31.260663815674061 ] } },
{ "type": "Feature", "properties": { "addr": "上海市 浦东新区 金台路115弄  " }, "geometry": { "type": "Point", "coordinates": [ 121.590903956487992, 31.255653437261628 ] } },
{ "type": "Feature", "properties": { "addr": "上海市 浦东新区 金晓路96弄  " }, "geometry": { "type": "Point", "coordinates": [ 121.681231989077219, 31.283805739728272 ] } },
{ "type": "Feature", "properties": { "addr": "上海市 浦东新区 金杨路785弄  " }, "geometry": { "type": "Point", "coordinates": [ 121.589437562573522, 31.259698788471169 ] } },
{ "type": "Feature", "properties": { "addr": "上海市 浦东新区 金钻路398弄  " }, "geometry": { "type": "Point", "coordinates": [ 121.677268934658855, 31.293179906356418 ] } },
{ "type": "Feature", "properties": { "addr": "上海市 浦东新区 锦和路289弄  " }, "geometry": { "type": "Point", "coordinates": [ 121.543645990049626, 31.210640834567769 ] } },
{ "type": "Feature", "properties": { "addr": "上海市 浦东新区 锦绣路3088弄  " }, "geometry": { "type": "Point", "coordinates": [ 121.546294823506898, 31.185731419409098 ] } },
{ "type": "Feature", "properties": { "addr": "上海市 浦东新区 锦绣路3338弄  " }, "geometry": { "type": "Point", "coordinates": [ 121.545288092521872, 31.185490375783257 ] } },
{ "type": "Feature", "properties": { "addr": "上海市 浦东新区 京浦路160弄  " }, "geometry": { "type": "Point", "coordinates": [ 121.574694572543748, 31.159912519644159 ] } },
{ "type": "Feature", "properties": { "addr": "上海市 浦东新区 京浦路82弄  " }, "geometry": { "type": "Point", "coordinates": [ 121.57334019732636, 31.159691572984912 ] } },
{ "type": "Feature", "properties": { "addr": "上海市 浦东新区 居家桥路737弄  " }, "geometry": { "type": "Point", "coordinates": [ 121.577058014340494, 31.252754851932117 ] } },
{ "type": "Feature", "properties": { "addr": "上海市 浦东新区 康弘路508弄  " }, "geometry": { "type": "Point", "coordinates": [ 121.606984613252664, 31.126934726165889 ] } },
{ "type": "Feature", "properties": { "addr": "上海市 浦东新区 康桥路90弄  " }, "geometry": { "type": "Point", "coordinates": [ 121.584859707864112, 31.120077939878794 ] } },
{ "type": "Feature", "properties": { "addr": "上海市 浦东新区 康桥镇花墙村  " }, "geometry": { "type": "Point", "coordinates": [ 121.552741692660348, 31.156328175262196 ] } },
{ "type": "Feature", "properties": { "addr": "上海市 浦东新区 康桥镇人南村  " }, "geometry": { "type": "Point", "coordinates": [ 121.633575534314616, 31.145293227288391 ] } },
{ "type": "Feature", "properties": { "addr": "上海市 浦东新区 康桥镇太平村  " }, "geometry": { "type": "Point", "coordinates": [ 121.560021740174335, 31.129383964974782 ] } },
{ "type": "Feature", "properties": { "addr": "上海市 浦东新区 康桥镇沿北村  " }, "geometry": { "type": "Point", "coordinates": [ 121.608678997105585, 31.145196644713096 ] } },
{ "type": "Feature", "properties": { "addr": "上海市 浦东新区 康桥镇营房村  " }, "geometry": { "type": "Point", "coordinates": [ 121.572398952813003, 31.142485338113978 ] } },
{ "type": "Feature", "properties": { "addr": "上海市 浦东新区 康沈路2262弄  " }, "geometry": { "type": "Point", "coordinates": [ 121.587312620889662, 31.107124171661162 ] } },
{ "type": "Feature", "properties": { "addr": "上海市 浦东新区 莱阳路3766弄  " }, "geometry": { "type": "Point", "coordinates": [ 121.589537813468425, 31.332463488478048 ] } },
{ "type": "Feature", "properties": { "addr": "上海市 浦东新区 莱阳路880弄  " }, "geometry": { "type": "Point", "coordinates": [ 121.590822300517132, 31.288336908907748 ] } },
{ "type": "Feature", "properties": { "addr": "上海市 浦东新区 蓝村路470弄  " }, "geometry": { "type": "Point", "coordinates": [ 121.531604025027278, 31.217482896900499 ] } },
{ "type": "Feature", "properties": { "addr": "上海市 浦东新区 蓝靛路1688弄  " }, "geometry": { "type": "Point", "coordinates": [ 121.646025869021813, 31.103753943832537 ] } },
{ "type": "Feature", "properties": { "addr": "上海市 浦东新区 崂山路600号  " }, "geometry": { "type": "Point", "coordinates": [ 121.530863102642641, 31.231583223991144 ] } },
{ "type": "Feature", "properties": { "addr": "上海市 浦东新区 崂山路645弄  " }, "geometry": { "type": "Point", "coordinates": [ 121.531348816431887, 31.227805460283697 ] } },
{ "type": "Feature", "properties": { "addr": "上海市 浦东新区 崂山三村  " }, "geometry": { "type": "Point", "coordinates": [ 121.52639681747759, 31.238932508563483 ] } },
{ "type": "Feature", "properties": { "addr": "上海市 浦东新区 崂山四村  " }, "geometry": { "type": "Point", "coordinates": [ 121.524541996260581, 31.24117281086977 ] } },
{ "type": "Feature", "properties": { "addr": "上海市 浦东新区 历城路100弄  " }, "geometry": { "type": "Point", "coordinates": [ 121.49791550230043, 31.179897773390458 ] } },
{ "type": "Feature", "properties": { "addr": "上海市 浦东新区 历城路25号  " }, "geometry": { "type": "Point", "coordinates": [ 121.499164955434253, 31.182855846708222 ] } },
{ "type": "Feature", "properties": { "addr": "上海市 浦东新区 利津路53弄  " }, "geometry": { "type": "Point", "coordinates": [ 121.584910282464321, 31.285692544924771 ] } },
{ "type": "Feature", "properties": { "addr": "上海市 浦东新区 莲溪路126弄  " }, "geometry": { "type": "Point", "coordinates": [ 121.565660403860448, 31.193483178521433 ] } },
{ "type": "Feature", "properties": { "addr": "上海市 浦东新区 莲溪路477弄  " }, "geometry": { "type": "Point", "coordinates": [ 121.568933829138814, 31.188689385868962 ] } },
{ "type": "Feature", "properties": { "addr": "上海市 浦东新区 莲溪路550弄  " }, "geometry": { "type": "Point", "coordinates": [ 121.566736484030855, 31.186506523771744 ] } },
{ "type": "Feature", "properties": { "addr": "上海市 浦东新区 莲溪路780弄  " }, "geometry": { "type": "Point", "coordinates": [ 121.568717157849804, 31.183478204983921 ] } },
{ "type": "Feature", "properties": { "addr": "上海市 浦东新区 莲园路100弄  " }, "geometry": { "type": "Point", "coordinates": [ 121.554990690335146, 31.18933340697378 ] } },
{ "type": "Feature", "properties": { "addr": "上海市 浦东新区 莲园路560弄  " }, "geometry": { "type": "Point", "coordinates": [ 121.536884264814915, 31.189702255537771 ] } },
{ "type": "Feature", "properties": { "addr": "上海市 浦东新区 莲振路269号  " }, "geometry": { "type": "Point", "coordinates": [ 121.574360941877359, 31.173909356804987 ] } },
{ "type": "Feature", "properties": { "addr": "上海市 浦东新区 莲中路318弄  " }, "geometry": { "type": "Point", "coordinates": [ 121.564485240592305, 31.186504438505555 ] } },
{ "type": "Feature", "properties": { "addr": "上海市 浦东新区 莲中路337弄  " }, "geometry": { "type": "Point", "coordinates": [ 121.564751767837109, 31.187770109319516 ] } },
{ "type": "Feature", "properties": { "addr": "上海市 浦东新区 林展路278弄  " }, "geometry": { "type": "Point", "coordinates": [ 121.512901034817872, 31.132805821704117 ] } },
{ "type": "Feature", "properties": { "addr": "上海市 浦东新区 临沂北路210弄  " }, "geometry": { "type": "Point", "coordinates": [ 121.525542798429242, 31.210624311158409 ] } },
{ "type": "Feature", "properties": { "addr": "上海市 浦东新区 临沂路181弄  " }, "geometry": { "type": "Point", "coordinates": [ 121.520668143579343, 31.197579250803219 ] } },
{ "type": "Feature", "properties": { "addr": "上海市 浦东新区 灵山路2011弄  " }, "geometry": { "type": "Point", "coordinates": [ 121.580017841165329, 31.249525074658717 ] } },
{ "type": "Feature", "properties": { "addr": "上海市 浦东新区 凌河路188弄  " }, "geometry": { "type": "Point", "coordinates": [ 121.602161970291789, 31.281903851498075 ] } },
{ "type": "Feature", "properties": { "addr": "上海市 浦东新区 凌兆路127弄  " }, "geometry": { "type": "Point", "coordinates": [ 121.500027777876596, 31.147796072125399 ] } },
{ "type": "Feature", "properties": { "addr": "上海市 浦东新区 柳埠路135弄  " }, "geometry": { "type": "Point", "coordinates": [ 121.58893424199627, 31.268891029980523 ] } },
{ "type": "Feature", "properties": { "addr": "上海市 浦东新区 龙东大道2895弄  " }, "geometry": { "type": "Point", "coordinates": [ 121.64040094940998, 31.230898116632318 ] } },
{ "type": "Feature", "properties": { "addr": "上海市 浦东新区 罗山路108弄  " }, "geometry": { "type": "Point", "coordinates": [ 121.558879454887844, 31.254641589752865 ] } },
{ "type": "Feature", "properties": { "addr": "上海市 浦东新区 罗山路1502弄  " }, "geometry": { "type": "Point", "coordinates": [ 121.575171482938998, 31.234888265801676 ] } },
{ "type": "Feature", "properties": { "addr": "上海市 浦东新区 马樱丹路127弄  " }, "geometry": { "type": "Point", "coordinates": [ 121.925623459002452, 30.889125527348181 ] } },
{ "type": "Feature", "properties": { "addr": "上海市 浦东新区 苗圃路112弄  " }, "geometry": { "type": "Point", "coordinates": [ 121.552485226437256, 31.25072498606167 ] } },
{ "type": "Feature", "properties": { "addr": "上海市 浦东新区 苗桥路935弄  " }, "geometry": { "type": "Point", "coordinates": [ 121.602516621307132, 31.104273708865044 ] } },
{ "type": "Feature", "properties": { "addr": "上海市 浦东新区 妙川路1111弄  " }, "geometry": { "type": "Point", "coordinates": [ 121.720690956908498, 31.188408576144649 ] } },
{ "type": "Feature", "properties": { "addr": "上海市 浦东新区 妙栏路353弄  " }, "geometry": { "type": "Point", "coordinates": [ 121.696058341858304, 31.192565030175434 ] } },
{ "type": "Feature", "properties": { "addr": "上海市 浦东新区 民雷路388弄  " }, "geometry": { "type": "Point", "coordinates": [ 121.652778790862527, 31.290487771739045 ] } },
{ "type": "Feature", "properties": { "addr": "上海市 浦东新区 民唐路秦家港路交界口工地生活区  " }, "geometry": { "type": "Point", "coordinates": [ 121.697451164551509, 31.27622735160854 ] } },
{ "type": "Feature", "properties": { "addr": "上海市 浦东新区 牡丹路259弄  " }, "geometry": { "type": "Point", "coordinates": [ 121.555825036492806, 31.214654701261765 ] } },
{ "type": "Feature", "properties": { "addr": "上海市 浦东新区 南汇新城镇庙港村  " }, "geometry": { "type": "Point", "coordinates": [ 121.869102794959048, 30.879784163204182 ] } },
{ "type": "Feature", "properties": { "addr": "上海市 浦东新区 南码头路1136弄  " }, "geometry": { "type": "Point", "coordinates": [ 121.519727887202052, 31.18987494042182 ] } },
{ "type": "Feature", "properties": { "addr": "上海市 浦东新区 南码头路450弄  " }, "geometry": { "type": "Point", "coordinates": [ 121.5163195364361, 31.200368116304254 ] } },
{ "type": "Feature", "properties": { "addr": "上海市 浦东新区 南码头路451弄  " }, "geometry": { "type": "Point", "coordinates": [ 121.516514289070656, 31.200820319373893 ] } },
{ "type": "Feature", "properties": { "addr": "上海市 浦东新区 南桥路237弄  " }, "geometry": { "type": "Point", "coordinates": [ 121.715159461069717, 31.197580409147527 ] } },
{ "type": "Feature", "properties": { "addr": "上海市 浦东新区 南泉北路101弄  " }, "geometry": { "type": "Point", "coordinates": [ 121.522040215415288, 31.244123854864959 ] } },
{ "type": "Feature", "properties": { "addr": "上海市 浦东新区 南泉路1300弄  " }, "geometry": { "type": "Point", "coordinates": [ 121.52893030850737, 31.217418043380952 ] } },
{ "type": "Feature", "properties": { "addr": "上海市 浦东新区 年家浜路333弄  " }, "geometry": { "type": "Point", "coordinates": [ 121.583704037825513, 31.120535630993817 ] } },
{ "type": "Feature", "properties": { "addr": "上海市 浦东新区 欧高路138弄  " }, "geometry": { "type": "Point", "coordinates": [ 121.584067851557052, 31.355366970307948 ] } },
{ "type": "Feature", "properties": { "addr": "上海市 浦东新区 浦电路149弄  " }, "geometry": { "type": "Point", "coordinates": [ 121.527706996063884, 31.224477857258311 ] } },
{ "type": "Feature", "properties": { "addr": "上海市 浦东新区 浦电路221号  " }, "geometry": { "type": "Point", "coordinates": [ 121.530044566661957, 31.224988307387651 ] } },
{ "type": "Feature", "properties": { "addr": "上海市 浦东新区 浦电路29弄  " }, "geometry": { "type": "Point", "coordinates": [ 121.521798301741455, 31.221982772166619 ] } },
{ "type": "Feature", "properties": { "addr": "上海市 浦东新区 浦电路330弄  " }, "geometry": { "type": "Point", "coordinates": [ 121.534528817937215, 31.22662717934152 ] } },
{ "type": "Feature", "properties": { "addr": "上海市 浦东新区 浦电路48弄  " }, "geometry": { "type": "Point", "coordinates": [ 121.523018290454559, 31.224774384963634 ] } },
{ "type": "Feature", "properties": { "addr": "上海市 浦东新区 浦东大道136弄  " }, "geometry": { "type": "Point", "coordinates": [ 121.520173536565551, 31.24402420953977 ] } },
{ "type": "Feature", "properties": { "addr": "上海市 浦东新区 浦东大道140弄  " }, "geometry": { "type": "Point", "coordinates": [ 121.521669035578569, 31.244048831438676 ] } },
{ "type": "Feature", "properties": { "addr": "上海市 浦东新区 浦东大道1585弄  " }, "geometry": { "type": "Point", "coordinates": [ 121.547254752774862, 31.250760642806057 ] } },
{ "type": "Feature", "properties": { "addr": "上海市 浦东新区 浦东大道2639弄  " }, "geometry": { "type": "Point", "coordinates": [ 121.573829414507088, 31.270096402842292 ] } },
{ "type": "Feature", "properties": { "addr": "上海市 浦东新区 浦东大道2641弄  " }, "geometry": { "type": "Point", "coordinates": [ 121.57542031356526, 31.271472442613302 ] } },
{ "type": "Feature", "properties": { "addr": "上海市 浦东新区 浦东大道290弄  " }, "geometry": { "type": "Point", "coordinates": [ 121.52343779912772, 31.24488774737473 ] } },
{ "type": "Feature", "properties": { "addr": "上海市 浦东新区 浦东大道2970弄  " }, "geometry": { "type": "Point", "coordinates": [ 121.585274365687511, 31.282935231984698 ] } },
{ "type": "Feature", "properties": { "addr": "上海市 浦东新区 浦东南路1288号  " }, "geometry": { "type": "Point", "coordinates": [ 121.523559878846527, 31.230896186745355 ] } },
{ "type": "Feature", "properties": { "addr": "上海市 浦东新区 浦东南路1299号  " }, "geometry": { "type": "Point", "coordinates": [ 121.524214204579991, 31.230766807032126 ] } },
{ "type": "Feature", "properties": { "addr": "上海市 浦东新区 浦东南路1475弄  " }, "geometry": { "type": "Point", "coordinates": [ 121.525751744290872, 31.228549414736456 ] } },
{ "type": "Feature", "properties": { "addr": "上海市 浦东新区 浦东南路1533号  " }, "geometry": { "type": "Point", "coordinates": [ 121.527644653661497, 31.227372301137734 ] } },
{ "type": "Feature", "properties": { "addr": "上海市 浦东新区 浦东南路1700弄  " }, "geometry": { "type": "Point", "coordinates": [ 121.525060767692594, 31.223784977741762 ] } },
{ "type": "Feature", "properties": { "addr": "上海市 浦东新区 浦东南路1862弄  " }, "geometry": { "type": "Point", "coordinates": [ 121.524135153695099, 31.221747612042826 ] } },
{ "type": "Feature", "properties": { "addr": "上海市 浦东新区 浦东南路2169号  " }, "geometry": { "type": "Point", "coordinates": [ 121.523236399032385, 31.213030444036114 ] } },
{ "type": "Feature", "properties": { "addr": "上海市 浦东新区 浦东南路2178弄  " }, "geometry": { "type": "Point", "coordinates": [ 121.520482104508247, 31.213021101599512 ] } },
{ "type": "Feature", "properties": { "addr": "上海市 浦东新区 浦东南路2351弄  " }, "geometry": { "type": "Point", "coordinates": [ 121.519461719279448, 31.205598665834319 ] } },
{ "type": "Feature", "properties": { "addr": "上海市 浦东新区 浦东南路2370弄  " }, "geometry": { "type": "Point", "coordinates": [ 121.517338484376069, 31.204274164522463 ] } },
{ "type": "Feature", "properties": { "addr": "上海市 浦东新区 浦东南路2380弄  " }, "geometry": { "type": "Point", "coordinates": [ 121.517424003060611, 31.205794563493857 ] } },
{ "type": "Feature", "properties": { "addr": "上海市 浦东新区 浦建路1578弄  " }, "geometry": { "type": "Point", "coordinates": [ 121.529696185109415, 31.207201251711854 ] } },
{ "type": "Feature", "properties": { "addr": "上海市 浦东新区 浦明路688弄  " }, "geometry": { "type": "Point", "coordinates": [ 121.518068267772378, 31.228462799195931 ] } },
{ "type": "Feature", "properties": { "addr": "上海市 浦东新区 浦三路741弄  " }, "geometry": { "type": "Point", "coordinates": [ 121.526881722791856, 31.19210877143124 ] } },
{ "type": "Feature", "properties": { "addr": "上海市 浦东新区 栖山路1088弄  " }, "geometry": { "type": "Point", "coordinates": [ 121.566094375252334, 31.260140055245142 ] } },
{ "type": "Feature", "properties": { "addr": "上海市 浦东新区 栖山路400弄  " }, "geometry": { "type": "Point", "coordinates": [ 121.557578978001033, 31.252017881658489 ] } },
{ "type": "Feature", "properties": { "addr": "上海市 浦东新区 栖霞路190弄  " }, "geometry": { "type": "Point", "coordinates": [ 121.526081152921378, 31.244186142787363 ] } },
{ "type": "Feature", "properties": { "addr": "上海市 浦东新区 齐河路10弄  " }, "geometry": { "type": "Point", "coordinates": [ 121.508225444469005, 31.18342313671538 ] } },
{ "type": "Feature", "properties": { "addr": "上海市 浦东新区 齐河路259弄  " }, "geometry": { "type": "Point", "coordinates": [ 121.510827925361951, 31.186754515653451 ] } },
{ "type": "Feature", "properties": { "addr": "上海市 浦东新区 清溪路400弄  " }, "geometry": { "type": "Point", "coordinates": [ 121.577475636572089, 31.347650837499692 ] } },
{ "type": "Feature", "properties": { "addr": "上海市 浦东新区 瑞浦路77弄  " }, "geometry": { "type": "Point", "coordinates": [ 121.592640920022092, 31.103960025909874 ] } },
{ "type": "Feature", "properties": { "addr": "上海市 浦东新区 瑞浦路8弄  " }, "geometry": { "type": "Point", "coordinates": [ 121.550454606831948, 31.227348292436346 ] } },
{ "type": "Feature", "properties": { "addr": "上海市 浦东新区 瑞意路399弄  " }, "geometry": { "type": "Point", "coordinates": [ 121.592686284450338, 31.102791860761887 ] } },
{ "type": "Feature", "properties": { "addr": "上海市 浦东新区 三彩路166弄  " }, "geometry": { "type": "Point", "coordinates": [ 121.525530311982649, 31.139159418419815 ] } },
{ "type": "Feature", "properties": { "addr": "上海市 浦东新区 三彩路52弄  " }, "geometry": { "type": "Point", "coordinates": [ 121.525530311982649, 31.139159418419815 ] } },
{ "type": "Feature", "properties": { "addr": "上海市 浦东新区 三航路2号工地生活区  " }, "geometry": { "type": "Point", "coordinates": [ 121.49437545994671, 31.138072208193165 ] } },
{ "type": "Feature", "properties": { "addr": "上海市 浦东新区 三林路88弄  " }, "geometry": { "type": "Point", "coordinates": [ 121.536884264814915, 31.189702255537771 ] } },
{ "type": "Feature", "properties": { "addr": "上海市 浦东新区 三林镇红旗村东桥队毛家塘  " }, "geometry": { "type": "Point", "coordinates": [ 121.507890556174871, 31.133660107274697 ] } },
{ "type": "Feature", "properties": { "addr": "上海市 浦东新区 三林镇胡巷村张家宅  " }, "geometry": { "type": "Point", "coordinates": [ 121.529586520682415, 31.167835971840162 ] } },
{ "type": "Feature", "properties": { "addr": "上海市 浦东新区 三林镇临江村泰保队泰保堂  " }, "geometry": { "type": "Point", "coordinates": [ 121.484921243606948, 31.123965847508071 ] } },
{ "type": "Feature", "properties": { "addr": "上海市 浦东新区 三林镇临江村王家宅队王家宅  " }, "geometry": { "type": "Point", "coordinates": [ 121.484029855049386, 31.126877924520862 ] } },
{ "type": "Feature", "properties": { "addr": "上海市 浦东新区 三林镇三林村镇前队金家宅  " }, "geometry": { "type": "Point", "coordinates": [ 121.593249522005109, 31.131094754366096 ] } },
{ "type": "Feature", "properties": { "addr": "上海市 浦东新区 三林镇天花庵村北陈队大陈家宅  " }, "geometry": { "type": "Point", "coordinates": [ 121.531939542135248, 31.128535900177152 ] } },
{ "type": "Feature", "properties": { "addr": "上海市 浦东新区 三林镇天花庵村闵北队闵家宅  " }, "geometry": { "type": "Point", "coordinates": [ 121.539890174712411, 31.126238497918969 ] } },
{ "type": "Feature", "properties": { "addr": "上海市 浦东新区 三林镇天花庵村闵西队闵家宅  " }, "geometry": { "type": "Point", "coordinates": [ 121.539890174712411, 31.126238497918969 ] } },
{ "type": "Feature", "properties": { "addr": "上海市 浦东新区 三林镇西林村圈门队西林街  " }, "geometry": { "type": "Point", "coordinates": [ 121.505050473474526, 31.142465402882358 ] } },
{ "type": "Feature", "properties": { "addr": "上海市 浦东新区 三林镇西林村万家队西林街  " }, "geometry": { "type": "Point", "coordinates": [ 121.505050473474526, 31.142465402882358 ] } },
{ "type": "Feature", "properties": { "addr": "上海市 浦东新区 三林镇西林村西林队西林街  " }, "geometry": { "type": "Point", "coordinates": [ 121.505296429523156, 31.142377935071885 ] } },
{ "type": "Feature", "properties": { "addr": "上海市 浦东新区 三林镇新任村  " }, "geometry": { "type": "Point", "coordinates": [ 121.50281306394082, 31.161867720395563 ] } },
{ "type": "Feature", "properties": { "addr": "上海市 浦东新区 三林镇中林村三林桥队天打桥  " }, "geometry": { "type": "Point", "coordinates": [ 121.505046161608064, 31.142497469241221 ] } },
{ "type": "Feature", "properties": { "addr": "上海市 浦东新区 三舒路192弄  " }, "geometry": { "type": "Point", "coordinates": [ 121.510630657471964, 31.127855294432397 ] } },
{ "type": "Feature", "properties": { "addr": "上海市 浦东新区 三舒路288弄  " }, "geometry": { "type": "Point", "coordinates": [ 121.525530311982649, 31.139159418419815 ] } },
{ "type": "Feature", "properties": { "addr": "上海市 浦东新区 三舒路62弄  " }, "geometry": { "type": "Point", "coordinates": [ 121.509892699495524, 31.130409298630166 ] } },
{ "type": "Feature", "properties": { "addr": "上海市 浦东新区 商城路1178弄  " }, "geometry": { "type": "Point", "coordinates": [ 121.534434855180862, 31.240368827626646 ] } },
{ "type": "Feature", "properties": { "addr": "上海市 浦东新区 上南路1251弄  " }, "geometry": { "type": "Point", "coordinates": [ 121.502606274012422, 31.178521236106434 ] } },
{ "type": "Feature", "properties": { "addr": "上海市 浦东新区 上南路1551弄  " }, "geometry": { "type": "Point", "coordinates": [ 121.504524605428983, 31.17454150695551 ] } },
{ "type": "Feature", "properties": { "addr": "上海市 浦东新区 上南路3651弄  " }, "geometry": { "type": "Point", "coordinates": [ 121.513459421522867, 31.160585322193327 ] } },
{ "type": "Feature", "properties": { "addr": "上海市 浦东新区 上南路5588号  " }, "geometry": { "type": "Point", "coordinates": [ 121.534100685531158, 31.12914416758575 ] } },
{ "type": "Feature", "properties": { "addr": "上海市 浦东新区 上南路6333弄  " }, "geometry": { "type": "Point", "coordinates": [ 121.584859707864112, 31.120077939878794 ] } },
{ "type": "Feature", "properties": { "addr": "上海市 浦东新区 上南路929弄  " }, "geometry": { "type": "Point", "coordinates": [ 121.50767882556616, 31.186093717393579 ] } },
{ "type": "Feature", "properties": { "addr": "上海市 浦东新区 上浦路410弄  " }, "geometry": { "type": "Point", "coordinates": [ 121.504128901851843, 31.151419913709955 ] } },
{ "type": "Feature", "properties": { "addr": "上海市 浦东新区 申波路83弄  " }, "geometry": { "type": "Point", "coordinates": [ 121.568313010200868, 31.201574449623596 ] } },
{ "type": "Feature", "properties": { "addr": "上海市 浦东新区 申江路2885号  " }, "geometry": { "type": "Point", "coordinates": [ 121.63235213204058, 31.256726858817323 ] } },
{ "type": "Feature", "properties": { "addr": "上海市 浦东新区 施湾三路1106弄  " }, "geometry": { "type": "Point", "coordinates": [ 121.758679578281061, 31.14561635323 ] } },
{ "type": "Feature", "properties": { "addr": "上海市 浦东新区 世博家园大道站路94弄  " }, "geometry": { "type": "Point", "coordinates": [ 121.545610314708298, 31.165459346349106 ] } },
{ "type": "Feature", "properties": { "addr": "上海市 浦东新区 书院镇塘北村  " }, "geometry": { "type": "Point", "coordinates": [ 121.886683532094821, 30.915368157845567 ] } },
{ "type": "Feature", "properties": { "addr": "上海市 浦东新区 思浦路13弄  " }, "geometry": { "type": "Point", "coordinates": [ 121.50015946946435, 31.164910255877725 ] } },
{ "type": "Feature", "properties": { "addr": "上海市 浦东新区 松林路333弄  " }, "geometry": { "type": "Point", "coordinates": [ 121.540645649646308, 31.232864650767048 ] } },
{ "type": "Feature", "properties": { "addr": "上海市 浦东新区 孙农路397弄  " }, "geometry": { "type": "Point", "coordinates": [ 121.63572841329983, 31.175210419751828 ] } },
{ "type": "Feature", "properties": { "addr": "上海市 浦东新区 孙桥路788号工地生活区  " }, "geometry": { "type": "Point", "coordinates": [ 121.637555117554371, 31.176727814519445 ] } },
{ "type": "Feature", "properties": { "addr": "上海市 浦东新区 唐镇虹二村龚家宅  " }, "geometry": { "type": "Point", "coordinates": [ 121.661875481609314, 31.246618581064769 ] } },
{ "type": "Feature", "properties": { "addr": "上海市 浦东新区 唐镇虹二村盛家宅  " }, "geometry": { "type": "Point", "coordinates": [ 121.664209009832589, 31.253451761612126 ] } },
{ "type": "Feature", "properties": { "addr": "上海市 浦东新区 唐镇虹三村唐家宅  " }, "geometry": { "type": "Point", "coordinates": [ 121.679576681513979, 31.259966342393376 ] } },
{ "type": "Feature", "properties": { "addr": "上海市 浦东新区 唐镇虹四村吴张家宅  " }, "geometry": { "type": "Point", "coordinates": [ 121.658368227406712, 31.246790543527457 ] } },
{ "type": "Feature", "properties": { "addr": "上海市 浦东新区 唐镇小湾村东张家宅  " }, "geometry": { "type": "Point", "coordinates": [ 121.691947606014082, 31.236233793114234 ] } },
{ "type": "Feature", "properties": { "addr": "上海市 浦东新区 唐镇新虹村东包家宅  " }, "geometry": { "type": "Point", "coordinates": [ 121.654887203724982, 31.245149014624616 ] } },
{ "type": "Feature", "properties": { "addr": "上海市 浦东新区 唐镇新虹村刘家宅  " }, "geometry": { "type": "Point", "coordinates": [ 121.655033627523125, 31.248713367963926 ] } },
{ "type": "Feature", "properties": { "addr": "上海市 浦东新区 唐镇新虹村陆家宅  " }, "geometry": { "type": "Point", "coordinates": [ 121.655033627523125, 31.248713367963926 ] } },
{ "type": "Feature", "properties": { "addr": "上海市 浦东新区 唐镇一心村西宋家宅  " }, "geometry": { "type": "Point", "coordinates": [ 121.709470851597231, 31.208492303617756 ] } },
{ "type": "Feature", "properties": { "addr": "上海市 浦东新区 塘南路123号  " }, "geometry": { "type": "Point", "coordinates": [ 121.515400839391049, 31.207814053753751 ] } },
{ "type": "Feature", "properties": { "addr": "上海市 浦东新区 潍坊路282号  " }, "geometry": { "type": "Point", "coordinates": [ 121.540762429362601, 31.234285006925273 ] } },
{ "type": "Feature", "properties": { "addr": "上海市 浦东新区 潍坊路333弄  " }, "geometry": { "type": "Point", "coordinates": [ 121.526092202079155, 31.229300465379932 ] } },
{ "type": "Feature", "properties": { "addr": "上海市 浦东新区 潍坊路335弄1支弄  " }, "geometry": { "type": "Point", "coordinates": [ 121.537886953425158, 31.235615027407125 ] } },
{ "type": "Feature", "properties": { "addr": "上海市 浦东新区 潍坊路335弄2支弄  " }, "geometry": { "type": "Point", "coordinates": [ 121.537886953425158, 31.235615027407125 ] } },
{ "type": "Feature", "properties": { "addr": "上海市 浦东新区 潍坊路375弄  " }, "geometry": { "type": "Point", "coordinates": [ 121.541472090715487, 31.234748161879693 ] } },
{ "type": "Feature", "properties": { "addr": "上海市 浦东新区 潍坊路606号  " }, "geometry": { "type": "Point", "coordinates": [ 121.528018797906384, 31.229204895697556 ] } },
{ "type": "Feature", "properties": { "addr": "上海市 浦东新区 潍坊路89弄  " }, "geometry": { "type": "Point", "coordinates": [ 121.526387025947528, 31.229708372361436 ] } },
{ "type": "Feature", "properties": { "addr": "上海市 浦东新区 五莲路1047弄  " }, "geometry": { "type": "Point", "coordinates": [ 121.601390415689281, 31.277745809783077 ] } },
{ "type": "Feature", "properties": { "addr": "上海市 浦东新区 五莲路108弄  " }, "geometry": { "type": "Point", "coordinates": [ 121.588773624971083, 31.277157873113886 ] } },
{ "type": "Feature", "properties": { "addr": "上海市 浦东新区 五莲路201弄  " }, "geometry": { "type": "Point", "coordinates": [ 121.587086158070576, 31.282666663701544 ] } },
{ "type": "Feature", "properties": { "addr": "上海市 浦东新区 五莲路759弄  " }, "geometry": { "type": "Point", "coordinates": [ 121.597702871570817, 31.276387222961237 ] } },
{ "type": "Feature", "properties": { "addr": "上海市 浦东新区 下南路161弄  " }, "geometry": { "type": "Point", "coordinates": [ 121.549904215045984, 31.172731479156155 ] } },
{ "type": "Feature", "properties": { "addr": "上海市 浦东新区 下南路225弄  " }, "geometry": { "type": "Point", "coordinates": [ 121.552785889291457, 31.17539958371751 ] } },
{ "type": "Feature", "properties": { "addr": "上海市 浦东新区 下南路309弄  " }, "geometry": { "type": "Point", "coordinates": [ 121.529696185109415, 31.207201251711854 ] } },
{ "type": "Feature", "properties": { "addr": "上海市 浦东新区 下南路320弄  " }, "geometry": { "type": "Point", "coordinates": [ 121.547891741211998, 31.175548813657176 ] } },
{ "type": "Feature", "properties": { "addr": "上海市 浦东新区 下南路339弄  " }, "geometry": { "type": "Point", "coordinates": [ 121.550641274716938, 31.176791074170239 ] } },
{ "type": "Feature", "properties": { "addr": "上海市 浦东新区 下南路500弄  " }, "geometry": { "type": "Point", "coordinates": [ 121.543720818898606, 31.177967587760506 ] } },
{ "type": "Feature", "properties": { "addr": "上海市 浦东新区 下南路501弄  " }, "geometry": { "type": "Point", "coordinates": [ 121.536884264814915, 31.189702255537771 ] } },
{ "type": "Feature", "properties": { "addr": "上海市 浦东新区 下南路526弄  " }, "geometry": { "type": "Point", "coordinates": [ 121.544402003966823, 31.17804189176027 ] } },
{ "type": "Feature", "properties": { "addr": "上海市 浦东新区 下南路551弄  " }, "geometry": { "type": "Point", "coordinates": [ 121.546799042389651, 31.179016875274282 ] } },
{ "type": "Feature", "properties": { "addr": "上海市 浦东新区 新场镇蒋桥村新桥  " }, "geometry": { "type": "Point", "coordinates": [ 121.668326752459777, 31.048501252466266 ] } },
{ "type": "Feature", "properties": { "addr": "上海市 浦东新区 新村路59弄  " }, "geometry": { "type": "Point", "coordinates": [ 121.503186399710771, 31.170014556678424 ] } },
{ "type": "Feature", "properties": { "addr": "上海市 浦东新区 新德西路508弄  " }, "geometry": { "type": "Point", "coordinates": [ 121.676387607123019, 31.198096102613977 ] } },
{ "type": "Feature", "properties": { "addr": "上海市 浦东新区 新龙路203弄  " }, "geometry": { "type": "Point", "coordinates": [ 121.636621867960059, 31.320350942990618 ] } },
{ "type": "Feature", "properties": { "addr": "上海市 浦东新区 新龙路489弄  " }, "geometry": { "type": "Point", "coordinates": [ 121.652778790862527, 31.290487771739045 ] } },
{ "type": "Feature", "properties": { "addr": "上海市 浦东新区 新浦路380弄  " }, "geometry": { "type": "Point", "coordinates": [ 121.536884264814915, 31.189702255537771 ] } },
{ "type": "Feature", "properties": { "addr": "上海市 浦东新区 新元南路正茂路交界口工地生活区  " }, "geometry": { "type": "Point", "coordinates": [ 121.827883417819848, 30.883671131631182 ] } },
{ "type": "Feature", "properties": { "addr": "上海市 浦东新区 秀康路958弄  " }, "geometry": { "type": "Point", "coordinates": [ 121.584859707864112, 31.120077939878794 ] } },
{ "type": "Feature", "properties": { "addr": "上海市 浦东新区 秀沿路2875弄  " }, "geometry": { "type": "Point", "coordinates": [ 121.616066481958541, 31.144930230822322 ] } },
{ "type": "Feature", "properties": { "addr": "上海市 浦东新区 秀沿路3668号  " }, "geometry": { "type": "Point", "coordinates": [ 121.623371502365671, 31.143296806623685 ] } },
{ "type": "Feature", "properties": { "addr": "上海市 浦东新区 秀沿路867弄  " }, "geometry": { "type": "Point", "coordinates": [ 121.584859707864112, 31.120077939878794 ] } },
{ "type": "Feature", "properties": { "addr": "上海市 浦东新区 雪野路34弄  " }, "geometry": { "type": "Point", "coordinates": [ 121.503822310181292, 31.186552940240503 ] } },
{ "type": "Feature", "properties": { "addr": "上海市 浦东新区 严桥路150弄  " }, "geometry": { "type": "Point", "coordinates": [ 121.534482016220139, 31.195514826808072 ] } },
{ "type": "Feature", "properties": { "addr": "上海市 浦东新区 严桥路58弄  " }, "geometry": { "type": "Point", "coordinates": [ 121.53246496102804, 31.196799836278341 ] } },
{ "type": "Feature", "properties": { "addr": "上海市 浦东新区 严杨路60弄  " }, "geometry": { "type": "Point", "coordinates": [ 121.536194994997118, 31.20036688077375 ] } },
{ "type": "Feature", "properties": { "addr": "上海市 浦东新区 杨高南路2140弄  " }, "geometry": { "type": "Point", "coordinates": [ 121.530000280200298, 31.194284938858367 ] } },
{ "type": "Feature", "properties": { "addr": "上海市 浦东新区 杨高南路3288弄  " }, "geometry": { "type": "Point", "coordinates": [ 121.525582413702239, 31.17462515993693 ] } },
{ "type": "Feature", "properties": { "addr": "上海市 浦东新区 杨思路1121弄  " }, "geometry": { "type": "Point", "coordinates": [ 121.512446312568727, 31.170793653236089 ] } },
{ "type": "Feature", "properties": { "addr": "上海市 浦东新区 杨思路860弄  " }, "geometry": { "type": "Point", "coordinates": [ 121.536884264814915, 31.189702255537771 ] } },
{ "type": "Feature", "properties": { "addr": "上海市 浦东新区 杨思新村  " }, "geometry": { "type": "Point", "coordinates": [ 121.600645630590961, 31.224417177429832 ] } },
{ "type": "Feature", "properties": { "addr": "上海市 浦东新区 耀华路331弄  " }, "geometry": { "type": "Point", "coordinates": [ 121.493188888198574, 31.18096820214458 ] } },
{ "type": "Feature", "properties": { "addr": "上海市 浦东新区 耀龙路16号工地生活区  " }, "geometry": { "type": "Point", "coordinates": [ 121.475898483403626, 31.181236135678194 ] } },
{ "type": "Feature", "properties": { "addr": "上海市 浦东新区 益江路126弄  " }, "geometry": { "type": "Point", "coordinates": [ 121.641426005827412, 31.206110068283561 ] } },
{ "type": "Feature", "properties": { "addr": "上海市 浦东新区 益江路396弄  " }, "geometry": { "type": "Point", "coordinates": [ 121.633194383286735, 31.204802330294491 ] } },
{ "type": "Feature", "properties": { "addr": "上海市 浦东新区 永泰路630弄  " }, "geometry": { "type": "Point", "coordinates": [ 121.524113055379559, 31.145365857319558 ] } },
{ "type": "Feature", "properties": { "addr": "上海市 浦东新区 御青路56弄  " }, "geometry": { "type": "Point", "coordinates": [ 121.578469072635571, 31.165031924344618 ] } },
{ "type": "Feature", "properties": { "addr": "上海市 浦东新区 源深路600弄2支弄  " }, "geometry": { "type": "Point", "coordinates": [ 121.541346866927398, 31.236006465120855 ] } },
{ "type": "Feature", "properties": { "addr": "上海市 浦东新区 云山路839弄  " }, "geometry": { "type": "Point", "coordinates": [ 121.581552236806928, 31.260050767960063 ] } },
{ "type": "Feature", "properties": { "addr": "上海市 浦东新区 枣庄路552弄  " }, "geometry": { "type": "Point", "coordinates": [ 121.585578981085945, 31.25736686193547 ] } },
{ "type": "Feature", "properties": { "addr": "上海市 浦东新区 张江镇韩荡村西丁家宅  " }, "geometry": { "type": "Point", "coordinates": [ 121.669724605663845, 31.2288207632593 ] } },
{ "type": "Feature", "properties": { "addr": "上海市 浦东新区 张江镇环东中心村严家宅  " }, "geometry": { "type": "Point", "coordinates": [ 121.666665965232923, 31.187172957023183 ] } },
{ "type": "Feature", "properties": { "addr": "上海市 浦东新区 张江镇沔北村诸家宅南  " }, "geometry": { "type": "Point", "coordinates": [ 121.62881011341473, 31.167725971391313 ] } },
{ "type": "Feature", "properties": { "addr": "上海市 浦东新区 张杨北路555弄  " }, "geometry": { "type": "Point", "coordinates": [ 121.593490267881762, 31.272064273145428 ] } },
{ "type": "Feature", "properties": { "addr": "上海市 浦东新区 张杨路310弄  " }, "geometry": { "type": "Point", "coordinates": [ 121.51973938551258, 31.230805867990643 ] } },
{ "type": "Feature", "properties": { "addr": "上海市 浦东新区 张杨路98号  " }, "geometry": { "type": "Point", "coordinates": [ 121.58962611690005, 31.28158489894264 ] } },
{ "type": "Feature", "properties": { "addr": "上海市 浦东新区 招远路19弄  " }, "geometry": { "type": "Point", "coordinates": [ 121.521229943845299, 31.241645116927586 ] } },
{ "type": "Feature", "properties": { "addr": "上海市 浦东新区 赵高公路587号  " }, "geometry": { "type": "Point", "coordinates": [ 121.633098983241581, 31.322174079331059 ] } },
{ "type": "Feature", "properties": { "addr": "上海市 浦东新区 赵高公路958号  " }, "geometry": { "type": "Point", "coordinates": [ 121.637129320742659, 31.316872849079196 ] } },
{ "type": "Feature", "properties": { "addr": "上海市 浦东新区 赵高路610号  " }, "geometry": { "type": "Point", "coordinates": [ 121.633474115622548, 31.321740894877177 ] } },
{ "type": "Feature", "properties": { "addr": "上海市 浦东新区 振桥路申轮路交界口工地生活区  " }, "geometry": { "type": "Point", "coordinates": [ 121.638268821282054, 31.291005961807091 ] } },
{ "type": "Feature", "properties": { "addr": "上海市 浦东新区 正茂路1881号生活区  " }, "geometry": { "type": "Point", "coordinates": [ 121.830030547649798, 30.891761304584438 ] } },
{ "type": "Feature", "properties": { "addr": "上海市 浦东新区 周浦镇沈西村  " }, "geometry": { "type": "Point", "coordinates": [ 121.572071969607379, 31.096648242037833 ] } },
{ "type": "Feature", "properties": { "addr": "上海市 浦东新区 周浦镇瓦南村陆弄  " }, "geometry": { "type": "Point", "coordinates": [ 121.652206210930458, 31.103491895827599 ] } },
{ "type": "Feature", "properties": { "addr": "上海市 浦东新区 周浦镇姚桥村  " }, "geometry": { "type": "Point", "coordinates": [ 121.604918420749172, 31.120351998352223 ] } },
{ "type": "Feature", "properties": { "addr": "上海市 浦东新区 周祝公路申江南路交界口工地生活区  " }, "geometry": { "type": "Point", "coordinates": [ 121.652970309597251, 31.091725651807941 ] } },
{ "type": "Feature", "properties": { "addr": "上海市 浦东新区 祝桥镇立新村  " }, "geometry": { "type": "Point", "coordinates": [ 121.76391813669305, 31.177471711327076 ] } },
{ "type": "Feature", "properties": { "addr": "上海市 浦东新区 紫薇路750弄  " }, "geometry": { "type": "Point", "coordinates": [ 121.63626380338377, 31.194416454082223 ] } },
{ "type": "Feature", "properties": { "addr": "上海市 浦东新区 紫叶路51弄  " }, "geometry": { "type": "Point", "coordinates": [ 121.557614011915931, 31.190270894229712 ] } },
{ "type": "Feature", "properties": { "addr": "上海市 黄浦区 安澜路29号  " }, "geometry": { "type": "Point", "coordinates": [ 121.493175683107566, 31.221589268501205 ] } },
{ "type": "Feature", "properties": { "addr": "上海市 黄浦区 保屯路135号  " }, "geometry": { "type": "Point", "coordinates": [ 121.497128047690381, 31.21049189214154 ] } },
{ "type": "Feature", "properties": { "addr": "上海市 黄浦区 保屯路211弄  " }, "geometry": { "type": "Point", "coordinates": [ 121.498305816044507, 31.209535149529046 ] } },
{ "type": "Feature", "properties": { "addr": "上海市 黄浦区 保屯路288弄  " }, "geometry": { "type": "Point", "coordinates": [ 121.499779845555821, 31.206782616551425 ] } },
{ "type": "Feature", "properties": { "addr": "上海市 黄浦区 保屯路50弄  " }, "geometry": { "type": "Point", "coordinates": [ 121.496314991373296, 31.211889115666636 ] } },
{ "type": "Feature", "properties": { "addr": "上海市 黄浦区 北京东路157号  " }, "geometry": { "type": "Point", "coordinates": [ 121.493693196911877, 31.246516700102852 ] } },
{ "type": "Feature", "properties": { "addr": "上海市 黄浦区 北京东路288弄  " }, "geometry": { "type": "Point", "coordinates": [ 121.490646324283119, 31.246480269913778 ] } },
{ "type": "Feature", "properties": { "addr": "上海市 黄浦区 北京东路316弄  " }, "geometry": { "type": "Point", "coordinates": [ 121.477099248378821, 31.205400451269838 ] } },
{ "type": "Feature", "properties": { "addr": "上海市 黄浦区 北京东路345号  " }, "geometry": { "type": "Point", "coordinates": [ 121.489809552700592, 31.245917375379019 ] } },
{ "type": "Feature", "properties": { "addr": "上海市 黄浦区 北京东路395号  " }, "geometry": { "type": "Point", "coordinates": [ 121.489062791330142, 31.245771499237151 ] } },
{ "type": "Feature", "properties": { "addr": "上海市 黄浦区 北京东路460号  " }, "geometry": { "type": "Point", "coordinates": [ 121.487887178909247, 31.245762623168268 ] } },
{ "type": "Feature", "properties": { "addr": "上海市 黄浦区 北京东路492号  " }, "geometry": { "type": "Point", "coordinates": [ 121.487254681999659, 31.245565728588751 ] } },
{ "type": "Feature", "properties": { "addr": "上海市 黄浦区 北京西路256号  " }, "geometry": { "type": "Point", "coordinates": [ 121.475433161149454, 31.241795244763107 ] } },
{ "type": "Feature", "properties": { "addr": "上海市 黄浦区 长乐路272弄  " }, "geometry": { "type": "Point", "coordinates": [ 121.471520411839634, 31.227696147810111 ] } },
{ "type": "Feature", "properties": { "addr": "上海市 黄浦区 长乐路59号  " }, "geometry": { "type": "Point", "coordinates": [ 121.475364081455737, 31.228131312598801 ] } },
{ "type": "Feature", "properties": { "addr": "上海市 黄浦区 长乐路75号  " }, "geometry": { "type": "Point", "coordinates": [ 121.475077701659146, 31.228085765908926 ] } },
{ "type": "Feature", "properties": { "addr": "上海市 黄浦区 长乐路77号  " }, "geometry": { "type": "Point", "coordinates": [ 121.47504149994711, 31.228077428546346 ] } },
{ "type": "Feature", "properties": { "addr": "上海市 黄浦区 长乐路79号  " }, "geometry": { "type": "Point", "coordinates": [ 121.475005298235047, 31.228070094754575 ] } },
{ "type": "Feature", "properties": { "addr": "上海市 黄浦区 重庆北路106号  " }, "geometry": { "type": "Point", "coordinates": [ 121.476989116123292, 31.231536752642139 ] } },
{ "type": "Feature", "properties": { "addr": "上海市 黄浦区 重庆北路205号  " }, "geometry": { "type": "Point", "coordinates": [ 121.476400097200397, 31.232611840548902 ] } },
{ "type": "Feature", "properties": { "addr": "上海市 黄浦区 重庆南路169弄  " }, "geometry": { "type": "Point", "coordinates": [ 121.478156104811291, 31.223155630252226 ] } },
{ "type": "Feature", "properties": { "addr": "上海市 黄浦区 重庆南路18号  " }, "geometry": { "type": "Point", "coordinates": [ 121.477852747040572, 31.226858853258328 ] } },
{ "type": "Feature", "properties": { "addr": "上海市 黄浦区 重庆南路205弄  " }, "geometry": { "type": "Point", "coordinates": [ 121.477585501151353, 31.220500929265803 ] } },
{ "type": "Feature", "properties": { "addr": "上海市 黄浦区 重庆南路283号  " }, "geometry": { "type": "Point", "coordinates": [ 121.479915436152595, 31.215368262979844 ] } },
{ "type": "Feature", "properties": { "addr": "上海市 黄浦区 曹家街45号  " }, "geometry": { "type": "Point", "coordinates": [ 121.492972037248464, 31.224656345278898 ] } },
{ "type": "Feature", "properties": { "addr": "上海市 黄浦区 曹家街55弄  " }, "geometry": { "type": "Point", "coordinates": [ 121.492035823245971, 31.239252069850071 ] } },
{ "type": "Feature", "properties": { "addr": "上海市 黄浦区 曹市弄42弄  " }, "geometry": { "type": "Point", "coordinates": [ 121.495654826654018, 31.224911724605651 ] } },
{ "type": "Feature", "properties": { "addr": "上海市 黄浦区 车站支路38号  " }, "geometry": { "type": "Point", "coordinates": [ 121.500372906853528, 31.213714832889671 ] } },
{ "type": "Feature", "properties": { "addr": "上海市 黄浦区 成都北路262弄  " }, "geometry": { "type": "Point", "coordinates": [ 121.474451223396485, 31.234991008544441 ] } },
{ "type": "Feature", "properties": { "addr": "上海市 黄浦区 成都北路274弄  " }, "geometry": { "type": "Point", "coordinates": [ 121.47402731302634, 31.234586057906469 ] } },
{ "type": "Feature", "properties": { "addr": "上海市 黄浦区 成都南路108弄  " }, "geometry": { "type": "Point", "coordinates": [ 121.473771655278185, 31.227700316508475 ] } },
{ "type": "Feature", "properties": { "addr": "上海市 黄浦区 成都南路132弄  " }, "geometry": { "type": "Point", "coordinates": [ 121.474190714798596, 31.227598106146772 ] } },
{ "type": "Feature", "properties": { "addr": "上海市 黄浦区 打浦路25号  " }, "geometry": { "type": "Point", "coordinates": [ 121.47709745176779, 31.209731965509583 ] } },
{ "type": "Feature", "properties": { "addr": "上海市 黄浦区 打浦路318号  " }, "geometry": { "type": "Point", "coordinates": [ 121.478605616888487, 31.204856613830049 ] } },
{ "type": "Feature", "properties": { "addr": "上海市 黄浦区 打浦路339弄  " }, "geometry": { "type": "Point", "coordinates": [ 121.478552257541196, 31.205296749443139 ] } },
{ "type": "Feature", "properties": { "addr": "上海市 黄浦区 打浦路398弄  " }, "geometry": { "type": "Point", "coordinates": [ 121.478787972907028, 31.203810858761482 ] } },
{ "type": "Feature", "properties": { "addr": "上海市 黄浦区 打浦路457弄  " }, "geometry": { "type": "Point", "coordinates": [ 121.480652855145735, 31.20307504728536 ] } },
{ "type": "Feature", "properties": { "addr": "上海市 黄浦区 打浦路480弄  " }, "geometry": { "type": "Point", "coordinates": [ 121.479416966425106, 31.202757833460705 ] } },
{ "type": "Feature", "properties": { "addr": "上海市 黄浦区 大夫坊25号  " }, "geometry": { "type": "Point", "coordinates": [ 121.491585592524359, 31.23724715206362 ] } },
{ "type": "Feature", "properties": { "addr": "上海市 黄浦区 大沽路183弄  " }, "geometry": { "type": "Point", "coordinates": [ 121.477665540172296, 31.231942951592927 ] } },
{ "type": "Feature", "properties": { "addr": "上海市 黄浦区 大沽路191号  " }, "geometry": { "type": "Point", "coordinates": [ 121.477197253509956, 31.23195283250325 ] } },
{ "type": "Feature", "properties": { "addr": "上海市 黄浦区 大沽路193号  " }, "geometry": { "type": "Point", "coordinates": [ 121.477124939916393, 31.231969197758669 ] } },
{ "type": "Feature", "properties": { "addr": "上海市 黄浦区 大沽路252号  " }, "geometry": { "type": "Point", "coordinates": [ 121.476074820775224, 31.232000152785847 ] } },
{ "type": "Feature", "properties": { "addr": "上海市 黄浦区 大吉路135弄  " }, "geometry": { "type": "Point", "coordinates": [ 121.491322658501602, 31.22025503402778 ] } },
{ "type": "Feature", "properties": { "addr": "上海市 黄浦区 大吉路186号  " }, "geometry": { "type": "Point", "coordinates": [ 121.491544270470911, 31.219980109262103 ] } },
{ "type": "Feature", "properties": { "addr": "上海市 黄浦区 大林路10弄  " }, "geometry": { "type": "Point", "coordinates": [ 121.494348331120307, 31.219386404893243 ] } },
{ "type": "Feature", "properties": { "addr": "上海市 黄浦区 大林路43弄  " }, "geometry": { "type": "Point", "coordinates": [ 121.493319501819713, 31.219241105018995 ] } },
{ "type": "Feature", "properties": { "addr": "上海市 黄浦区 淡水路214弄  " }, "geometry": { "type": "Point", "coordinates": [ 121.479010483181838, 31.223387544368109 ] } },
{ "type": "Feature", "properties": { "addr": "上海市 黄浦区 淡水路216号  " }, "geometry": { "type": "Point", "coordinates": [ 121.479799015758488, 31.223348094304406 ] } },
{ "type": "Feature", "properties": { "addr": "上海市 黄浦区 淡水路227弄  " }, "geometry": { "type": "Point", "coordinates": [ 121.479884264951394, 31.222721059943833 ] } },
{ "type": "Feature", "properties": { "addr": "上海市 黄浦区 淡水路238号  " }, "geometry": { "type": "Point", "coordinates": [ 121.479695620794303, 31.222859792237028 ] } },
{ "type": "Feature", "properties": { "addr": "上海市 黄浦区 淡水路322弄  " }, "geometry": { "type": "Point", "coordinates": [ 121.479598424138118, 31.220545012770799 ] } },
{ "type": "Feature", "properties": { "addr": "上海市 黄浦区 淡水路460弄  " }, "geometry": { "type": "Point", "coordinates": [ 121.480455677086283, 31.217062274703011 ] } },
{ "type": "Feature", "properties": { "addr": "上海市 黄浦区 方浜西路63弄  " }, "geometry": { "type": "Point", "coordinates": [ 121.488941789577936, 31.22685144217224 ] } },
{ "type": "Feature", "properties": { "addr": "上海市 黄浦区 方斜路413号  " }, "geometry": { "type": "Point", "coordinates": [ 121.489873422222345, 31.22027950777429 ] } },
{ "type": "Feature", "properties": { "addr": "上海市 黄浦区 方斜路524弄  " }, "geometry": { "type": "Point", "coordinates": [ 121.489101238805958, 31.218637590853284 ] } },
{ "type": "Feature", "properties": { "addr": "上海市 黄浦区 方斜支路19号  " }, "geometry": { "type": "Point", "coordinates": [ 121.492477070912472, 31.222412173337052 ] } },
{ "type": "Feature", "properties": { "addr": "上海市 黄浦区 凤阳路228弄  " }, "geometry": { "type": "Point", "coordinates": [ 121.478205960767099, 31.240573683460127 ] } },
{ "type": "Feature", "properties": { "addr": "上海市 黄浦区 福建中路195弄  " }, "geometry": { "type": "Point", "coordinates": [ 121.488057048481181, 31.239509570614192 ] } },
{ "type": "Feature", "properties": { "addr": "上海市 黄浦区 福州路384弄  " }, "geometry": { "type": "Point", "coordinates": [ 121.489639054314793, 31.240033446629219 ] } },
{ "type": "Feature", "properties": { "addr": "上海市 黄浦区 福州路614弄  " }, "geometry": { "type": "Point", "coordinates": [ 121.48585503218456, 31.238969867958666 ] } },
{ "type": "Feature", "properties": { "addr": "上海市 黄浦区 抚安街38弄  " }, "geometry": { "type": "Point", "coordinates": [ 121.503838749172118, 31.22632363237522 ] } },
{ "type": "Feature", "properties": { "addr": "上海市 黄浦区 复兴东路404弄  " }, "geometry": { "type": "Point", "coordinates": [ 121.503635193143552, 31.226892511933613 ] } },
{ "type": "Feature", "properties": { "addr": "上海市 黄浦区 复兴东路663弄  " }, "geometry": { "type": "Point", "coordinates": [ 121.498122382059364, 31.227977302939546 ] } },
{ "type": "Feature", "properties": { "addr": "上海市 黄浦区 复兴中路455号  " }, "geometry": { "type": "Point", "coordinates": [ 121.479438166435131, 31.221327163415282 ] } },
{ "type": "Feature", "properties": { "addr": "上海市 黄浦区 复兴中路586号  " }, "geometry": { "type": "Point", "coordinates": [ 121.471218940510482, 31.220881004056693 ] } },
{ "type": "Feature", "properties": { "addr": "上海市 黄浦区 复兴中路598弄  " }, "geometry": { "type": "Point", "coordinates": [ 121.47063585040398, 31.221046837546464 ] } },
{ "type": "Feature", "properties": { "addr": "上海市 黄浦区 复兴中路616弄  " }, "geometry": { "type": "Point", "coordinates": [ 121.470347673996372, 31.220995419931619 ] } },
{ "type": "Feature", "properties": { "addr": "上海市 黄浦区 高家弄66弄  " }, "geometry": { "type": "Point", "coordinates": [ 121.484578540054883, 31.235498236464565 ] } },
{ "type": "Feature", "properties": { "addr": "上海市 黄浦区 牯岭路145弄  " }, "geometry": { "type": "Point", "coordinates": [ 121.477555497747318, 31.241767920743111 ] } },
{ "type": "Feature", "properties": { "addr": "上海市 黄浦区 光启路135号  " }, "geometry": { "type": "Point", "coordinates": [ 121.500859698609375, 31.229043476892791 ] } },
{ "type": "Feature", "properties": { "addr": "上海市 黄浦区 广东路138号  " }, "geometry": { "type": "Point", "coordinates": [ 121.494688699078026, 31.239072374652263 ] } },
{ "type": "Feature", "properties": { "addr": "上海市 黄浦区 广东路572号  " }, "geometry": { "type": "Point", "coordinates": [ 121.487035136133017, 31.23768891075953 ] } },
{ "type": "Feature", "properties": { "addr": "上海市 黄浦区 广西北路437号  " }, "geometry": { "type": "Point", "coordinates": [ 121.48314340717215, 31.242285609222328 ] } },
{ "type": "Feature", "properties": { "addr": "上海市 黄浦区 贵州路175号  " }, "geometry": { "type": "Point", "coordinates": [ 121.482364216972798, 31.242932194789123 ] } },
{ "type": "Feature", "properties": { "addr": "上海市 黄浦区 海潮路222弄  " }, "geometry": { "type": "Point", "coordinates": [ 121.50365558467864, 31.213898746099275 ] } },
{ "type": "Feature", "properties": { "addr": "上海市 黄浦区 海口路11号  " }, "geometry": { "type": "Point", "coordinates": [ 121.487545283832134, 31.237178761486668 ] } },
{ "type": "Feature", "properties": { "addr": "上海市 黄浦区 汉口路618号  " }, "geometry": { "type": "Point", "coordinates": [ 121.484771046925673, 31.239765526906201 ] } },
{ "type": "Feature", "properties": { "addr": "上海市 黄浦区 合肥路376号  " }, "geometry": { "type": "Point", "coordinates": [ 121.482768005299519, 31.220998894095672 ] } },
{ "type": "Feature", "properties": { "addr": "上海市 黄浦区 和顺街25号  " }, "geometry": { "type": "Point", "coordinates": [ 121.50369214571289, 31.226215553360092 ] } },
{ "type": "Feature", "properties": { "addr": "上海市 黄浦区 河南南路1001弄  " }, "geometry": { "type": "Point", "coordinates": [ 121.499793589630144, 31.219506535756029 ] } },
{ "type": "Feature", "properties": { "addr": "上海市 黄浦区 河南南路1009弄  " }, "geometry": { "type": "Point", "coordinates": [ 121.499914321890671, 31.21898161833823 ] } },
{ "type": "Feature", "properties": { "addr": "上海市 黄浦区 河南中路130号  " }, "geometry": { "type": "Point", "coordinates": [ 121.492885799919506, 31.238891675653761 ] } },
{ "type": "Feature", "properties": { "addr": "上海市 黄浦区 河南中路575弄  " }, "geometry": { "type": "Point", "coordinates": [ 121.490140847772665, 31.245905566366485 ] } },
{ "type": "Feature", "properties": { "addr": "上海市 黄浦区 湖北路20号  " }, "geometry": { "type": "Point", "coordinates": [ 121.4884643401994, 31.237066372348682 ] } },
{ "type": "Feature", "properties": { "addr": "上海市 黄浦区 淮海中路494弄  " }, "geometry": { "type": "Point", "coordinates": [ 121.476002866503876, 31.227380098174471 ] } },
{ "type": "Feature", "properties": { "addr": "上海市 黄浦区 淮海中路526弄  " }, "geometry": { "type": "Point", "coordinates": [ 121.475825002012897, 31.227307454470328 ] } },
{ "type": "Feature", "properties": { "addr": "上海市 黄浦区 淮海中路613弄  " }, "geometry": { "type": "Point", "coordinates": [ 121.473823038353359, 31.225783544850167 ] } },
{ "type": "Feature", "properties": { "addr": "上海市 黄浦区 淮海中路899弄  " }, "geometry": { "type": "Point", "coordinates": [ 121.466966002904044, 31.223149994515893 ] } },
{ "type": "Feature", "properties": { "addr": "上海市 黄浦区 淮海中路927弄  " }, "geometry": { "type": "Point", "coordinates": [ 121.467196957250678, 31.222619693369211 ] } },
{ "type": "Feature", "properties": { "addr": "上海市 黄浦区 黄陂南路596弄  " }, "geometry": { "type": "Point", "coordinates": [ 121.482998420662838, 31.221857703494099 ] } },
{ "type": "Feature", "properties": { "addr": "上海市 黄浦区 黄陂南路863弄  " }, "geometry": { "type": "Point", "coordinates": [ 121.485455555724272, 31.216713762148075 ] } },
{ "type": "Feature", "properties": { "addr": "上海市 黄浦区 黄河路110号  " }, "geometry": { "type": "Point", "coordinates": [ 121.477251331501648, 31.24079876192188 ] } },
{ "type": "Feature", "properties": { "addr": "上海市 黄浦区 黄河路215弄  " }, "geometry": { "type": "Point", "coordinates": [ 121.434456955311802, 31.253372886823801 ] } },
{ "type": "Feature", "properties": { "addr": "上海市 黄浦区 黄河路281弄  " }, "geometry": { "type": "Point", "coordinates": [ 121.475632764633772, 31.243446480678184 ] } },
{ "type": "Feature", "properties": { "addr": "上海市 黄浦区 黄河路288号  " }, "geometry": { "type": "Point", "coordinates": [ 121.475909263069738, 31.243495416033404 ] } },
{ "type": "Feature", "properties": { "addr": "上海市 黄浦区 黄河路92号  " }, "geometry": { "type": "Point", "coordinates": [ 121.47740314513284, 31.24055191658428 ] } },
{ "type": "Feature", "properties": { "addr": "上海市 黄浦区 黄家路88弄  " }, "geometry": { "type": "Point", "coordinates": [ 121.503590637190257, 31.221234519321271 ] } },
{ "type": "Feature", "properties": { "addr": "上海市 黄浦区 黄家路99弄  " }, "geometry": { "type": "Point", "coordinates": [ 121.5020006364376, 31.222165742701261 ] } },
{ "type": "Feature", "properties": { "addr": "上海市 黄浦区 黄家阙路76弄  " }, "geometry": { "type": "Point", "coordinates": [ 121.49405377674357, 31.220340576306299 ] } },
{ "type": "Feature", "properties": { "addr": "上海市 黄浦区 徽宁路428弄  " }, "geometry": { "type": "Point", "coordinates": [ 121.495864850482249, 31.215583828272084 ] } },
{ "type": "Feature", "properties": { "addr": "上海市 黄浦区 徽宁路4号  " }, "geometry": { "type": "Point", "coordinates": [ 121.502298155222519, 31.217236221666944 ] } },
{ "type": "Feature", "properties": { "addr": "上海市 黄浦区 徽宁路6弄  " }, "geometry": { "type": "Point", "coordinates": [ 121.491585592524359, 31.23724715206362 ] } },
{ "type": "Feature", "properties": { "addr": "上海市 黄浦区 徽宁路706号  " }, "geometry": { "type": "Point", "coordinates": [ 121.491687370538642, 31.213508991732102 ] } },
{ "type": "Feature", "properties": { "addr": "上海市 黄浦区 建国东路143弄  " }, "geometry": { "type": "Point", "coordinates": [ 121.48532709803635, 31.21823318708983 ] } },
{ "type": "Feature", "properties": { "addr": "上海市 黄浦区 建国东路147号  " }, "geometry": { "type": "Point", "coordinates": [ 121.4849842148232, 31.218745447002917 ] } },
{ "type": "Feature", "properties": { "addr": "上海市 黄浦区 建国西路120弄  " }, "geometry": { "type": "Point", "coordinates": [ 121.471453488079149, 31.214046756593756 ] } },
{ "type": "Feature", "properties": { "addr": "上海市 黄浦区 建国西路190号  " }, "geometry": { "type": "Point", "coordinates": [ 121.46875533764937, 31.212830083311143 ] } },
{ "type": "Feature", "properties": { "addr": "上海市 黄浦区 建国中路135号  " }, "geometry": { "type": "Point", "coordinates": [ 121.475006466032212, 31.215216471362346 ] } },
{ "type": "Feature", "properties": { "addr": "上海市 黄浦区 建国中路167号  " }, "geometry": { "type": "Point", "coordinates": [ 121.473990302839326, 31.214806725416317 ] } },
{ "type": "Feature", "properties": { "addr": "上海市 黄浦区 建国中路26号  " }, "geometry": { "type": "Point", "coordinates": [ 121.474417986092632, 31.215156866448304 ] } },
{ "type": "Feature", "properties": { "addr": "上海市 黄浦区 建国中路49号  " }, "geometry": { "type": "Point", "coordinates": [ 121.476522356580304, 31.21585529159449 ] } },
{ "type": "Feature", "properties": { "addr": "上海市 黄浦区 建国中路61弄  " }, "geometry": { "type": "Point", "coordinates": [ 121.476353924297186, 31.215726045503331 ] } },
{ "type": "Feature", "properties": { "addr": "上海市 黄浦区 江滨路258号  " }, "geometry": { "type": "Point", "coordinates": [ 121.478139575989914, 31.197386424886638 ] } },
{ "type": "Feature", "properties": { "addr": "上海市 黄浦区 江滨路288号  " }, "geometry": { "type": "Point", "coordinates": [ 121.477718809689037, 31.197379860921743 ] } },
{ "type": "Feature", "properties": { "addr": "上海市 黄浦区 江滨路99号  " }, "geometry": { "type": "Point", "coordinates": [ 121.479935019212704, 31.197853855228029 ] } },
{ "type": "Feature", "properties": { "addr": "上海市 黄浦区 江西中路10号  " }, "geometry": { "type": "Point", "coordinates": [ 121.494936990720987, 31.23788721133738 ] } },
{ "type": "Feature", "properties": { "addr": "上海市 黄浦区 江西中路128号  " }, "geometry": { "type": "Point", "coordinates": [ 121.494365129433334, 31.239559511477676 ] } },
{ "type": "Feature", "properties": { "addr": "上海市 黄浦区 江西中路130号  " }, "geometry": { "type": "Point", "coordinates": [ 121.494356056547687, 31.239589614921922 ] } },
{ "type": "Feature", "properties": { "addr": "上海市 黄浦区 江西中路135弄  " }, "geometry": { "type": "Point", "coordinates": [ 121.494035091988962, 31.239906240817817 ] } },
{ "type": "Feature", "properties": { "addr": "上海市 黄浦区 江西中路14弄  " }, "geometry": { "type": "Point", "coordinates": [ 121.495133539966574, 31.237933062014484 ] } },
{ "type": "Feature", "properties": { "addr": "上海市 黄浦区 江西中路170号  " }, "geometry": { "type": "Point", "coordinates": [ 121.494544970196429, 31.240514866571189 ] } },
{ "type": "Feature", "properties": { "addr": "上海市 黄浦区 江西中路261号  " }, "geometry": { "type": "Point", "coordinates": [ 121.493232994999119, 31.243067886883228 ] } },
{ "type": "Feature", "properties": { "addr": "上海市 黄浦区 江西中路34弄  " }, "geometry": { "type": "Point", "coordinates": [ 121.494850663561479, 31.238477093249102 ] } },
{ "type": "Feature", "properties": { "addr": "上海市 黄浦区 江西中路38号  " }, "geometry": { "type": "Point", "coordinates": [ 121.494728404181586, 31.238386936191723 ] } },
{ "type": "Feature", "properties": { "addr": "上海市 黄浦区 江西中路412弄  " }, "geometry": { "type": "Point", "coordinates": [ 121.492185570774481, 31.246727331150872 ] } },
{ "type": "Feature", "properties": { "addr": "上海市 黄浦区 江西中路44弄  " }, "geometry": { "type": "Point", "coordinates": [ 121.494733344861871, 31.238583382750505 ] } },
{ "type": "Feature", "properties": { "addr": "上海市 黄浦区 江西中路452号  " }, "geometry": { "type": "Point", "coordinates": [ 121.491936021503804, 31.247525857007712 ] } },
{ "type": "Feature", "properties": { "addr": "上海市 黄浦区 江西中路481号  " }, "geometry": { "type": "Point", "coordinates": [ 121.491411051763777, 31.248127178134823 ] } },
{ "type": "Feature", "properties": { "addr": "上海市 黄浦区 江西中路52号  " }, "geometry": { "type": "Point", "coordinates": [ 121.494730380453689, 31.238498397472569 ] } },
{ "type": "Feature", "properties": { "addr": "上海市 黄浦区 江西中路58号  " }, "geometry": { "type": "Point", "coordinates": [ 121.494675134664831, 31.238664045363397 ] } },
{ "type": "Feature", "properties": { "addr": "上海市 黄浦区 江阴路120号  " }, "geometry": { "type": "Point", "coordinates": [ 121.47482312187762, 31.235609006463218 ] } },
{ "type": "Feature", "properties": { "addr": "上海市 黄浦区 江阴路130弄  " }, "geometry": { "type": "Point", "coordinates": [ 121.474520662412417, 31.235710744924816 ] } },
{ "type": "Feature", "properties": { "addr": "上海市 黄浦区 江阴路88弄  " }, "geometry": { "type": "Point", "coordinates": [ 121.475551737476763, 31.235860033180316 ] } },
{ "type": "Feature", "properties": { "addr": "上海市 黄浦区 金陵东路57号  " }, "geometry": { "type": "Point", "coordinates": [ 121.497950536215313, 31.237093157409618 ] } },
{ "type": "Feature", "properties": { "addr": "上海市 黄浦区 金陵东路63号  " }, "geometry": { "type": "Point", "coordinates": [ 121.497718773393743, 31.237022914149922 ] } },
{ "type": "Feature", "properties": { "addr": "上海市 黄浦区 金坛路35弄  " }, "geometry": { "type": "Point", "coordinates": [ 121.504583354609338, 31.224726597823398 ] } },
{ "type": "Feature", "properties": { "addr": "上海市 黄浦区 静修路114弄  " }, "geometry": { "type": "Point", "coordinates": [ 121.493029798292753, 31.225741779804501 ] } },
{ "type": "Feature", "properties": { "addr": "上海市 黄浦区 九江路619号  " }, "geometry": { "type": "Point", "coordinates": [ 121.485146628459404, 31.240162350399974 ] } },
{ "type": "Feature", "properties": { "addr": "上海市 黄浦区 九江路700号  " }, "geometry": { "type": "Point", "coordinates": [ 121.483544859904555, 31.240332163479479 ] } },
{ "type": "Feature", "properties": { "addr": "上海市 黄浦区 局门后路15号  " }, "geometry": { "type": "Point", "coordinates": [ 121.487110953118062, 31.214735230085406 ] } },
{ "type": "Feature", "properties": { "addr": "上海市 黄浦区 局门后路31号  " }, "geometry": { "type": "Point", "coordinates": [ 121.487159461615605, 31.214472102090589 ] } },
{ "type": "Feature", "properties": { "addr": "上海市 黄浦区 局门后路5号  " }, "geometry": { "type": "Point", "coordinates": [ 121.487081219205677, 31.215253685810151 ] } },
{ "type": "Feature", "properties": { "addr": "上海市 黄浦区 局门后路77号  " }, "geometry": { "type": "Point", "coordinates": [ 121.487152544663175, 31.214357678242408 ] } },
{ "type": "Feature", "properties": { "addr": "上海市 黄浦区 局门路1弄  " }, "geometry": { "type": "Point", "coordinates": [ 121.491585592524359, 31.23724715206362 ] } },
{ "type": "Feature", "properties": { "addr": "上海市 黄浦区 局门路241弄  " }, "geometry": { "type": "Point", "coordinates": [ 121.487610410981617, 31.212027091902875 ] } },
{ "type": "Feature", "properties": { "addr": "上海市 黄浦区 局门路295弄  " }, "geometry": { "type": "Point", "coordinates": [ 121.489189093084846, 31.210922426988578 ] } },
{ "type": "Feature", "properties": { "addr": "上海市 黄浦区 局门路434弄  " }, "geometry": { "type": "Point", "coordinates": [ 121.487727639850675, 31.208410534000432 ] } },
{ "type": "Feature", "properties": { "addr": "上海市 黄浦区 局门路573弄  " }, "geometry": { "type": "Point", "coordinates": [ 121.489437564388908, 31.206887629392675 ] } },
{ "type": "Feature", "properties": { "addr": "上海市 黄浦区 局门路599弄  " }, "geometry": { "type": "Point", "coordinates": [ 121.489657828899951, 31.206398855387498 ] } },
{ "type": "Feature", "properties": { "addr": "上海市 黄浦区 巨鹿路383弄  " }, "geometry": { "type": "Point", "coordinates": [ 121.465186639349881, 31.228627306896506 ] } },
{ "type": "Feature", "properties": { "addr": "上海市 黄浦区 老重庆中路64弄  " }, "geometry": { "type": "Point", "coordinates": [ 121.476510409117012, 31.227798898450967 ] } },
{ "type": "Feature", "properties": { "addr": "上海市 黄浦区 丽水路88号  " }, "geometry": { "type": "Point", "coordinates": [ 121.496903022160126, 31.233913863766865 ] } },
{ "type": "Feature", "properties": { "addr": "上海市 黄浦区 丽园路333弄  " }, "geometry": { "type": "Point", "coordinates": [ 121.490709205668821, 31.215059429317979 ] } },
{ "type": "Feature", "properties": { "addr": "上海市 黄浦区 丽园路574弄  " }, "geometry": { "type": "Point", "coordinates": [ 121.487358256624958, 31.212948369540506 ] } },
{ "type": "Feature", "properties": { "addr": "上海市 黄浦区 丽园路63号  " }, "geometry": { "type": "Point", "coordinates": [ 121.495759389415383, 31.216575097952834 ] } },
{ "type": "Feature", "properties": { "addr": "上海市 黄浦区 丽园路68弄  " }, "geometry": { "type": "Point", "coordinates": [ 121.495323980734682, 31.216222568789991 ] } },
{ "type": "Feature", "properties": { "addr": "上海市 黄浦区 丽园路842弄  " }, "geometry": { "type": "Point", "coordinates": [ 121.483621395534001, 31.211378208045655 ] } },
{ "type": "Feature", "properties": { "addr": "上海市 黄浦区 丽园路888弄  " }, "geometry": { "type": "Point", "coordinates": [ 121.481329818178054, 31.212081988938653 ] } },
{ "type": "Feature", "properties": { "addr": "上海市 黄浦区 柳江街15弄  " }, "geometry": { "type": "Point", "coordinates": [ 121.496366104956806, 31.225215739352667 ] } },
{ "type": "Feature", "properties": { "addr": "上海市 黄浦区 柳江街21号  " }, "geometry": { "type": "Point", "coordinates": [ 121.496780762780219, 31.224558686434371 ] } },
{ "type": "Feature", "properties": { "addr": "上海市 黄浦区 龙华东路888弄  " }, "geometry": { "type": "Point", "coordinates": [ 121.477730128338465, 31.199060607033338 ] } },
{ "type": "Feature", "properties": { "addr": "上海市 黄浦区 鲁班路168弄  " }, "geometry": { "type": "Point", "coordinates": [ 121.480692470418731, 31.210777731674401 ] } },
{ "type": "Feature", "properties": { "addr": "上海市 黄浦区 鲁班路400弄  " }, "geometry": { "type": "Point", "coordinates": [ 121.482126615165399, 31.206488657185101 ] } },
{ "type": "Feature", "properties": { "addr": "上海市 黄浦区 陆家浜路1034弄  " }, "geometry": { "type": "Point", "coordinates": [ 121.4960365166652, 31.217136161668591 ] } },
{ "type": "Feature", "properties": { "addr": "上海市 黄浦区 陆家浜路1060弄  " }, "geometry": { "type": "Point", "coordinates": [ 121.494868000857821, 31.217355119982727 ] } },
{ "type": "Feature", "properties": { "addr": "上海市 黄浦区 陆家浜路1100号  " }, "geometry": { "type": "Point", "coordinates": [ 121.494116927620937, 31.217302001792785 ] } },
{ "type": "Feature", "properties": { "addr": "上海市 黄浦区 陆家浜路1300号  " }, "geometry": { "type": "Point", "coordinates": [ 121.490574010689585, 31.217165886293468 ] } },
{ "type": "Feature", "properties": { "addr": "上海市 黄浦区 陆家浜路305弄  " }, "geometry": { "type": "Point", "coordinates": [ 121.507385528817167, 31.217162025953112 ] } },
{ "type": "Feature", "properties": { "addr": "上海市 黄浦区 陆家浜路521弄  " }, "geometry": { "type": "Point", "coordinates": [ 121.505512112676101, 31.219207211976581 ] } },
{ "type": "Feature", "properties": { "addr": "上海市 黄浦区 陆家浜路812号  " }, "geometry": { "type": "Point", "coordinates": [ 121.499546375953798, 31.218148878181378 ] } },
{ "type": "Feature", "properties": { "addr": "上海市 黄浦区 陆家宅路91弄  " }, "geometry": { "type": "Point", "coordinates": [ 121.502350619857523, 31.230108005227802 ] } },
{ "type": "Feature", "properties": { "addr": "上海市 黄浦区 马当路278弄  " }, "geometry": { "type": "Point", "coordinates": [ 121.480389561800749, 31.223680369859316 ] } },
{ "type": "Feature", "properties": { "addr": "上海市 黄浦区 马当路316号  " }, "geometry": { "type": "Point", "coordinates": [ 121.48125705543174, 31.223082597259207 ] } },
{ "type": "Feature", "properties": { "addr": "上海市 黄浦区 马当路328弄  " }, "geometry": { "type": "Point", "coordinates": [ 121.481281040188861, 31.222870137319102 ] } },
{ "type": "Feature", "properties": { "addr": "上海市 黄浦区 马当路357弄  " }, "geometry": { "type": "Point", "coordinates": [ 121.482270074555345, 31.219236318303054 ] } },
{ "type": "Feature", "properties": { "addr": "上海市 黄浦区 毛家园路88弄  " }, "geometry": { "type": "Point", "coordinates": [ 121.507601750953413, 31.259874894138658 ] } },
{ "type": "Feature", "properties": { "addr": "上海市 黄浦区 茂名南路169弄  " }, "geometry": { "type": "Point", "coordinates": [ 121.469133524269083, 31.221248493144664 ] } },
{ "type": "Feature", "properties": { "addr": "上海市 黄浦区 茂名南路22弄  " }, "geometry": { "type": "Point", "coordinates": [ 121.491585592524359, 31.23724715206362 ] } },
{ "type": "Feature", "properties": { "addr": "上海市 黄浦区 蒙自路345弄  " }, "geometry": { "type": "Point", "coordinates": [ 121.485623179532439, 31.210186208109956 ] } },
{ "type": "Feature", "properties": { "addr": "上海市 黄浦区 蒙自路395弄  " }, "geometry": { "type": "Point", "coordinates": [ 121.486172313690687, 31.208556854464472 ] } },
{ "type": "Feature", "properties": { "addr": "上海市 黄浦区 蒙自路490弄  " }, "geometry": { "type": "Point", "coordinates": [ 121.485480618448008, 31.20723285827842 ] } },
{ "type": "Feature", "properties": { "addr": "上海市 黄浦区 蒙自路601弄  " }, "geometry": { "type": "Point", "coordinates": [ 121.487528126196892, 31.205122548647797 ] } },
{ "type": "Feature", "properties": { "addr": "上海市 黄浦区 蒙自西路72弄  " }, "geometry": { "type": "Point", "coordinates": [ 121.48209804905018, 31.213215980001401 ] } },
{ "type": "Feature", "properties": { "addr": "上海市 黄浦区 梦花街115号  " }, "geometry": { "type": "Point", "coordinates": [ 121.494169747984913, 31.224576983000347 ] } },
{ "type": "Feature", "properties": { "addr": "上海市 黄浦区 梦花街163弄  " }, "geometry": { "type": "Point", "coordinates": [ 121.493390198463359, 31.224326157613344 ] } },
{ "type": "Feature", "properties": { "addr": "上海市 黄浦区 梦花街210号  " }, "geometry": { "type": "Point", "coordinates": [ 121.492930894856102, 31.223930502166052 ] } },
{ "type": "Feature", "properties": { "addr": "上海市 黄浦区 面筋弄48号  " }, "geometry": { "type": "Point", "coordinates": [ 121.5047955343708, 31.226327415138474 ] } },
{ "type": "Feature", "properties": { "addr": "上海市 黄浦区 南昌路212弄  " }, "geometry": { "type": "Point", "coordinates": [ 121.471855030642104, 31.224156855887177 ] } },
{ "type": "Feature", "properties": { "addr": "上海市 黄浦区 南昌路340号  " }, "geometry": { "type": "Point", "coordinates": [ 121.467565172679215, 31.221948339696908 ] } },
{ "type": "Feature", "properties": { "addr": "上海市 黄浦区 南车站路30弄  " }, "geometry": { "type": "Point", "coordinates": [ 121.496219681158692, 31.217235681219709 ] } },
{ "type": "Feature", "properties": { "addr": "上海市 黄浦区 南车站路450弄  " }, "geometry": { "type": "Point", "coordinates": [ 121.500153810139636, 31.210620682184938 ] } },
{ "type": "Feature", "properties": { "addr": "上海市 黄浦区 南塘浜路93弄  " }, "geometry": { "type": "Point", "coordinates": [ 121.480673067019708, 31.209789334703416 ] } },
{ "type": "Feature", "properties": { "addr": "上海市 黄浦区 宁安路123弄  " }, "geometry": { "type": "Point", "coordinates": [ 121.492682962535355, 31.2217788792634 ] } },
{ "type": "Feature", "properties": { "addr": "上海市 黄浦区 宁波路120弄  " }, "geometry": { "type": "Point", "coordinates": [ 121.491211897432208, 31.245492713088552 ] } },
{ "type": "Feature", "properties": { "addr": "上海市 黄浦区 宁波路201号  " }, "geometry": { "type": "Point", "coordinates": [ 121.489942322254961, 31.24475228947335 ] } },
{ "type": "Feature", "properties": { "addr": "上海市 黄浦区 宁波路219号  " }, "geometry": { "type": "Point", "coordinates": [ 121.489700767903329, 31.244703123223573 ] } },
{ "type": "Feature", "properties": { "addr": "上海市 黄浦区 宁波路266号  " }, "geometry": { "type": "Point", "coordinates": [ 121.488618579255458, 31.244628408998597 ] } },
{ "type": "Feature", "properties": { "addr": "上海市 黄浦区 宁波路284弄  " }, "geometry": { "type": "Point", "coordinates": [ 121.48841178932706, 31.244555624319137 ] } },
{ "type": "Feature", "properties": { "addr": "上海市 黄浦区 宁波路51号  " }, "geometry": { "type": "Point", "coordinates": [ 121.492500786177928, 31.24520960382349 ] } },
{ "type": "Feature", "properties": { "addr": "上海市 黄浦区 宁波路561号  " }, "geometry": { "type": "Point", "coordinates": [ 121.483345975064637, 31.242371903221272 ] } },
{ "type": "Feature", "properties": { "addr": "上海市 黄浦区 宁波路620弄  " }, "geometry": { "type": "Point", "coordinates": [ 121.482230728774013, 31.242562629657368 ] } },
{ "type": "Feature", "properties": { "addr": "上海市 黄浦区 宁波路622号  " }, "geometry": { "type": "Point", "coordinates": [ 121.482387483085503, 31.242482819451791 ] } },
{ "type": "Feature", "properties": { "addr": "上海市 黄浦区 宁波路636号  " }, "geometry": { "type": "Point", "coordinates": [ 121.482125986351548, 31.242470855633673 ] } },
{ "type": "Feature", "properties": { "addr": "上海市 黄浦区 牛庄路731弄  " }, "geometry": { "type": "Point", "coordinates": [ 121.482808159555816, 31.243060168339358 ] } },
{ "type": "Feature", "properties": { "addr": "上海市 黄浦区 牌楼路29号  " }, "geometry": { "type": "Point", "coordinates": [ 121.492932691467132, 31.219766947437606 ] } },
{ "type": "Feature", "properties": { "addr": "上海市 黄浦区 蓬莱路199弄  " }, "geometry": { "type": "Point", "coordinates": [ 121.497361068139654, 31.224282461893914 ] } },
{ "type": "Feature", "properties": { "addr": "上海市 黄浦区 蓬莱路212弄  " }, "geometry": { "type": "Point", "coordinates": [ 121.497783271729347, 31.223701445847997 ] } },
{ "type": "Feature", "properties": { "addr": "上海市 黄浦区 蓬莱路221号  " }, "geometry": { "type": "Point", "coordinates": [ 121.497126340909915, 31.223627950072032 ] } },
{ "type": "Feature", "properties": { "addr": "上海市 黄浦区 蓬莱路303弄  " }, "geometry": { "type": "Point", "coordinates": [ 121.495558797794999, 31.223221483420122 ] } },
{ "type": "Feature", "properties": { "addr": "上海市 黄浦区 普育东路101弄  " }, "geometry": { "type": "Point", "coordinates": [ 121.502876214818187, 31.215217475071711 ] } },
{ "type": "Feature", "properties": { "addr": "上海市 黄浦区 普育东路200弄  " }, "geometry": { "type": "Point", "coordinates": [ 121.502308755227531, 31.213623648246671 ] } },
{ "type": "Feature", "properties": { "addr": "上海市 黄浦区 普育东路32号  " }, "geometry": { "type": "Point", "coordinates": [ 121.502553273987331, 31.216093014375112 ] } },
{ "type": "Feature", "properties": { "addr": "上海市 黄浦区 普育东路71弄  " }, "geometry": { "type": "Point", "coordinates": [ 121.503539343945647, 31.215349192530727 ] } },
{ "type": "Feature", "properties": { "addr": "上海市 黄浦区 普育西支路73号  " }, "geometry": { "type": "Point", "coordinates": [ 121.499258648698941, 31.217819362415252 ] } },
{ "type": "Feature", "properties": { "addr": "上海市 黄浦区 瞿溪路1072弄  " }, "geometry": { "type": "Point", "coordinates": [ 121.481430608056272, 31.204755922865751 ] } },
{ "type": "Feature", "properties": { "addr": "上海市 黄浦区 瞿溪路1079号  " }, "geometry": { "type": "Point", "coordinates": [ 121.4815101080939, 31.205324701845559 ] } },
{ "type": "Feature", "properties": { "addr": "上海市 黄浦区 瞿溪路117号  " }, "geometry": { "type": "Point", "coordinates": [ 121.501438117527258, 31.212579380867592 ] } },
{ "type": "Feature", "properties": { "addr": "上海市 黄浦区 瞿溪路1200弄  " }, "geometry": { "type": "Point", "coordinates": [ 121.477917514867855, 31.202302396543868 ] } },
{ "type": "Feature", "properties": { "addr": "上海市 黄浦区 瞿溪路120弄  " }, "geometry": { "type": "Point", "coordinates": [ 121.501722161729504, 31.212085926699476 ] } },
{ "type": "Feature", "properties": { "addr": "上海市 黄浦区 瞿溪路122号  " }, "geometry": { "type": "Point", "coordinates": [ 121.500942971530151, 31.211909499409913 ] } },
{ "type": "Feature", "properties": { "addr": "上海市 黄浦区 瞿溪路1254弄  " }, "geometry": { "type": "Point", "coordinates": [ 121.476834158422818, 31.20249351352583 ] } },
{ "type": "Feature", "properties": { "addr": "上海市 黄浦区 瞿溪路126号  " }, "geometry": { "type": "Point", "coordinates": [ 121.500942971530151, 31.211909499409913 ] } },
{ "type": "Feature", "properties": { "addr": "上海市 黄浦区 瞿溪路247弄  " }, "geometry": { "type": "Point", "coordinates": [ 121.492873762625678, 31.206893497753864 ] } },
{ "type": "Feature", "properties": { "addr": "上海市 黄浦区 瞿溪路566号  " }, "geometry": { "type": "Point", "coordinates": [ 121.492495306514314, 31.207253551895199 ] } },
{ "type": "Feature", "properties": { "addr": "上海市 黄浦区 瞿溪路601号  " }, "geometry": { "type": "Point", "coordinates": [ 121.491644072213063, 31.208042994517765 ] } },
{ "type": "Feature", "properties": { "addr": "上海市 黄浦区 瞿溪路800弄  " }, "geometry": { "type": "Point", "coordinates": [ 121.487528036366342, 31.205985827782268 ] } },
{ "type": "Feature", "properties": { "addr": "上海市 黄浦区 瞿溪路883弄  " }, "geometry": { "type": "Point", "coordinates": [ 121.485768974516702, 31.206342719568301 ] } },
{ "type": "Feature", "properties": { "addr": "上海市 黄浦区 瞿溪路937弄  " }, "geometry": { "type": "Point", "coordinates": [ 121.484684090952314, 31.206350981651095 ] } },
{ "type": "Feature", "properties": { "addr": "上海市 黄浦区 汝南街70弄  " }, "geometry": { "type": "Point", "coordinates": [ 121.491384012767924, 31.208191323125448 ] } },
{ "type": "Feature", "properties": { "addr": "上海市 黄浦区 瑞金二路410弄  " }, "geometry": { "type": "Point", "coordinates": [ 121.473398499169349, 31.213301683132133 ] } },
{ "type": "Feature", "properties": { "addr": "上海市 黄浦区 瑞金二路48弄  " }, "geometry": { "type": "Point", "coordinates": [ 121.470007845021954, 31.221921087082976 ] } },
{ "type": "Feature", "properties": { "addr": "上海市 黄浦区 瑞金二路52弄  " }, "geometry": { "type": "Point", "coordinates": [ 121.470646001256227, 31.221863184902386 ] } },
{ "type": "Feature", "properties": { "addr": "上海市 黄浦区 瑞金二路70弄  " }, "geometry": { "type": "Point", "coordinates": [ 121.470872104753084, 31.221357118319393 ] } },
{ "type": "Feature", "properties": { "addr": "上海市 黄浦区 桑园街6弄  " }, "geometry": { "type": "Point", "coordinates": [ 121.491585592524359, 31.23724715206362 ] } },
{ "type": "Feature", "properties": { "addr": "上海市 黄浦区 山东中路300号  " }, "geometry": { "type": "Point", "coordinates": [ 121.491059544817716, 31.241779267159163 ] } },
{ "type": "Feature", "properties": { "addr": "上海市 黄浦区 陕西南路271弄  " }, "geometry": { "type": "Point", "coordinates": [ 121.46934498538613, 31.214239857048831 ] } },
{ "type": "Feature", "properties": { "addr": "上海市 黄浦区 陕西南路39弄  " }, "geometry": { "type": "Point", "coordinates": [ 121.464726257776022, 31.225395075166176 ] } },
{ "type": "Feature", "properties": { "addr": "上海市 黄浦区 尚文路133弄  " }, "geometry": { "type": "Point", "coordinates": [ 121.497992576913177, 31.221508436760633 ] } },
{ "type": "Feature", "properties": { "addr": "上海市 黄浦区 绍兴路58号  " }, "geometry": { "type": "Point", "coordinates": [ 121.470556440196873, 31.215476354520806 ] } },
{ "type": "Feature", "properties": { "addr": "上海市 黄浦区 顺昌路497号  " }, "geometry": { "type": "Point", "coordinates": [ 121.486016727176363, 31.218837784738792 ] } },
{ "type": "Feature", "properties": { "addr": "上海市 黄浦区 顺昌路501号  " }, "geometry": { "type": "Point", "coordinates": [ 121.486043766172202, 31.21876829982897 ] } },
{ "type": "Feature", "properties": { "addr": "上海市 黄浦区 顺昌路520弄  " }, "geometry": { "type": "Point", "coordinates": [ 121.485772208416535, 31.217681471921448 ] } },
{ "type": "Feature", "properties": { "addr": "上海市 黄浦区 顺昌路529号  " }, "geometry": { "type": "Point", "coordinates": [ 121.486111767899317, 31.218356098842289 ] } },
{ "type": "Feature", "properties": { "addr": "上海市 黄浦区 四川中路126弄  " }, "geometry": { "type": "Point", "coordinates": [ 121.49640239649942, 31.240246948227217 ] } },
{ "type": "Feature", "properties": { "addr": "上海市 黄浦区 四川中路480号  " }, "geometry": { "type": "Point", "coordinates": [ 121.493721044382681, 31.245838880150011 ] } },
{ "type": "Feature", "properties": { "addr": "上海市 黄浦区 四川中路530号  " }, "geometry": { "type": "Point", "coordinates": [ 121.493404032368204, 31.246665893928274 ] } },
{ "type": "Feature", "properties": { "addr": "上海市 黄浦区 四川中路585号  " }, "geometry": { "type": "Point", "coordinates": [ 121.492925594853588, 31.247460792764805 ] } },
{ "type": "Feature", "properties": { "addr": "上海市 黄浦区 四川中路627号  " }, "geometry": { "type": "Point", "coordinates": [ 121.492684399824171, 31.248086735146039 ] } },
{ "type": "Feature", "properties": { "addr": "上海市 黄浦区 四川中路630号  " }, "geometry": { "type": "Point", "coordinates": [ 121.492907538912846, 31.248274902949003 ] } },
{ "type": "Feature", "properties": { "addr": "上海市 黄浦区 四牌楼路113号  " }, "geometry": { "type": "Point", "coordinates": [ 121.502116428017843, 31.229316136328226 ] } },
{ "type": "Feature", "properties": { "addr": "上海市 黄浦区 四牌楼路81弄  " }, "geometry": { "type": "Point", "coordinates": [ 121.502118583951059, 31.229726127545458 ] } },
{ "type": "Feature", "properties": { "addr": "上海市 黄浦区 四牌楼路93号  " }, "geometry": { "type": "Point", "coordinates": [ 121.502099539874251, 31.229652250518491 ] } },
{ "type": "Feature", "properties": { "addr": "上海市 黄浦区 泗泾路36号  " }, "geometry": { "type": "Point", "coordinates": [ 121.492942033844429, 31.239219264695816 ] } },
{ "type": "Feature", "properties": { "addr": "上海市 黄浦区 台湾路18号  " }, "geometry": { "type": "Point", "coordinates": [ 121.487204287060536, 31.243687761061619 ] } },
{ "type": "Feature", "properties": { "addr": "上海市 黄浦区 天津路170弄  " }, "geometry": { "type": "Point", "coordinates": [ 121.489594408530948, 31.244511706494691 ] } },
{ "type": "Feature", "properties": { "addr": "上海市 黄浦区 天津路179弄  " }, "geometry": { "type": "Point", "coordinates": [ 121.48962099837405, 31.243313490616583 ] } },
{ "type": "Feature", "properties": { "addr": "上海市 黄浦区 铁道路140号  " }, "geometry": { "type": "Point", "coordinates": [ 121.493438437469237, 31.205859270632331 ] } },
{ "type": "Feature", "properties": { "addr": "上海市 黄浦区 威海路149号  " }, "geometry": { "type": "Point", "coordinates": [ 121.474753682861703, 31.233517708504824 ] } },
{ "type": "Feature", "properties": { "addr": "上海市 黄浦区 文庙路105号  " }, "geometry": { "type": "Point", "coordinates": [ 121.496301696451752, 31.224151220211123 ] } },
{ "type": "Feature", "properties": { "addr": "上海市 黄浦区 文庙路124号  " }, "geometry": { "type": "Point", "coordinates": [ 121.49583790131696, 31.223755718427011 ] } },
{ "type": "Feature", "properties": { "addr": "上海市 黄浦区 文庙路60弄  " }, "geometry": { "type": "Point", "coordinates": [ 121.535203625036303, 31.216555718920326 ] } },
{ "type": "Feature", "properties": { "addr": "上海市 黄浦区 五里桥路210弄  " }, "geometry": { "type": "Point", "coordinates": [ 121.487184254847676, 31.209619311768297 ] } },
{ "type": "Feature", "properties": { "addr": "上海市 黄浦区 五里桥路262号  " }, "geometry": { "type": "Point", "coordinates": [ 121.486198634042125, 31.209085304938323 ] } },
{ "type": "Feature", "properties": { "addr": "上海市 黄浦区 五里桥路39弄  " }, "geometry": { "type": "Point", "coordinates": [ 121.489821320502756, 31.210184818283842 ] } },
{ "type": "Feature", "properties": { "addr": "上海市 黄浦区 西藏南路1107号  " }, "geometry": { "type": "Point", "coordinates": [ 121.492999974549832, 31.216927780202184 ] } },
{ "type": "Feature", "properties": { "addr": "上海市 黄浦区 西藏南路1200弄  " }, "geometry": { "type": "Point", "coordinates": [ 121.49070103108869, 31.213950862497263 ] } },
{ "type": "Feature", "properties": { "addr": "上海市 黄浦区 西藏南路1341弄  " }, "geometry": { "type": "Point", "coordinates": [ 121.4946357888835, 31.211611849990653 ] } },
{ "type": "Feature", "properties": { "addr": "上海市 黄浦区 西藏南路1374弄  " }, "geometry": { "type": "Point", "coordinates": [ 121.493515512081999, 31.211693925657812 ] } },
{ "type": "Feature", "properties": { "addr": "上海市 黄浦区 西藏南路1421弄  " }, "geometry": { "type": "Point", "coordinates": [ 121.49516560947329, 31.210473206760817 ] } },
{ "type": "Feature", "properties": { "addr": "上海市 黄浦区 西藏南路1501弄  " }, "geometry": { "type": "Point", "coordinates": [ 121.495667852083898, 31.20879405527981 ] } },
{ "type": "Feature", "properties": { "addr": "上海市 黄浦区 西藏南路1528号  " }, "geometry": { "type": "Point", "coordinates": [ 121.495080360280383, 31.208871346170913 ] } },