{
"type": "FeatureCollection",
"crs": { "type": "name", "properties": { "name": "urn:ogc:def:crs:OGC:1.3:CRS84" } },
"features": [
{ "type": "Feature", "properties": { "addr": "上海市 浦东新区 丁香路1599弄  " }, "geometry": { "type": "Point", "coordinates": [ 121.572306876498232, 31.233862298835515 ] } },
{ "type": "Feature", "properties": { "addr": "上海市 浦东新区 丁香路910弄  " }, "geometry": { "type": "Point", "coordinates": [ 121.560392021705539, 31.231240477950827 ] } },
{ "type": "Feature", "properties": { "addr": "上海市 浦东新区 芳华路188弄  " }, "geometry": { "type": "Point", "coordinates": [ 121.536884264814915, 31.189702255537771 ] } },
{ "type": "Feature", "properties": { "addr": "上海市 浦东新区 锦绣东路蓝桉路交界口工地生活区  " }, "geometry": { "type": "Point", "coordinates": [ 121.609609731444479, 31.243712228679296 ] } },
{ "type": "Feature", "properties": { "addr": "上海市 浦东新区 崂山三村  " }, "geometry": { "type": "Point", "coordinates": [ 121.52639681747759, 31.238932508563483 ] } },
{ "type": "Feature", "properties": { "addr": "上海市 浦东新区 潍坊路335弄3支弄  " }, "geometry": { "type": "Point", "coordinates": [ 121.537886953425158, 31.235615027407125 ] } },
{ "type": "Feature", "properties": { "addr": "上海市 浦东新区 下南路501弄  " }, "geometry": { "type": "Point", "coordinates": [ 121.536884264814915, 31.189702255537771 ] } },
{ "type": "Feature", "properties": { "addr": "上海市 浦东新区 懿行路971弄  " }, "geometry": { "type": "Point", "coordinates": [ 121.519394975180049, 31.131133547765522 ] } },
{ "type": "Feature", "properties": { "addr": "上海市 浦东新区 张杨北路588弄  " }, "geometry": { "type": "Point", "coordinates": [ 121.595215283952584, 31.275260170384001 ] } },
{ "type": "Feature", "properties": { "addr": "上海市 黄浦区 海潮路93弄  " }, "geometry": { "type": "Point", "coordinates": [ 121.505912038289139, 31.214961528834515 ] } },
{ "type": "Feature", "properties": { "addr": "上海市 黄浦区 黄河路253弄  " }, "geometry": { "type": "Point", "coordinates": [ 121.475294193287056, 31.242852770826993 ] } },
{ "type": "Feature", "properties": { "addr": "上海市 黄浦区 建国新路1号  " }, "geometry": { "type": "Point", "coordinates": [ 121.491222497437235, 31.220528491109359 ] } },
{ "type": "Feature", "properties": { "addr": "上海市 黄浦区 马当路320号  " }, "geometry": { "type": "Point", "coordinates": [ 121.481295682568657, 31.223012189076673 ] } },
{ "type": "Feature", "properties": { "addr": "上海市 静安区 高平路860弄  " }, "geometry": { "type": "Point", "coordinates": [ 121.434458482431168, 31.298314935694535 ] } },
{ "type": "Feature", "properties": { "addr": "上海市 静安区 南山路71弄  " }, "geometry": { "type": "Point", "coordinates": [ 121.472567925894822, 31.262896883595729 ] } },
{ "type": "Feature", "properties": { "addr": "上海市 静安区 平型关路2199弄  " }, "geometry": { "type": "Point", "coordinates": [ 121.470227660380232, 31.30903073591594 ] } },
{ "type": "Feature", "properties": { "addr": "上海市 静安区 普善路铁路新村27号  " }, "geometry": { "type": "Point", "coordinates": [ 121.460030635214281, 31.262670623622483 ] } },
{ "type": "Feature", "properties": { "addr": "上海市 静安区 普善路铁路新村付3号  " }, "geometry": { "type": "Point", "coordinates": [ 121.45974452490934, 31.262741079123099 ] } },
{ "type": "Feature", "properties": { "addr": "上海市 静安区 虬江路1150号  " }, "geometry": { "type": "Point", "coordinates": [ 121.477824989400318, 31.254852897078184 ] } },
{ "type": "Feature", "properties": { "addr": "上海市 静安区 通阁路200弄  " }, "geometry": { "type": "Point", "coordinates": [ 121.47688104997043, 31.266835432511993 ] } },
{ "type": "Feature", "properties": { "addr": "上海市 静安区 中华新路288弄  " }, "geometry": { "type": "Point", "coordinates": [ 121.479036983194376, 31.262127736357019 ] } },
{ "type": "Feature", "properties": { "addr": "上海市 静安区 中兴路1279弄  " }, "geometry": { "type": "Point", "coordinates": [ 121.468457908695015, 31.258953075299733 ] } },
{ "type": "Feature", "properties": { "addr": "上海市 徐汇区 华石路88弄  " }, "geometry": { "type": "Point", "coordinates": [ 121.438276460509684, 31.185090231183114 ] } },
{ "type": "Feature", "properties": { "addr": "上海市 徐汇区 老沪闵路875弄  " }, "geometry": { "type": "Point", "coordinates": [ 121.441191551720109, 31.139805247788775 ] } },
{ "type": "Feature", "properties": { "addr": "上海市 徐汇区 龙华路3166弄  " }, "geometry": { "type": "Point", "coordinates": [ 121.453810049218774, 31.177396093802493 ] } },
{ "type": "Feature", "properties": { "addr": "上海市 徐汇区 梅陇十一村  " }, "geometry": { "type": "Point", "coordinates": [ 121.433632041361989, 31.138721831339719 ] } },
{ "type": "Feature", "properties": { "addr": "上海市 徐汇区 上中西路55弄  " }, "geometry": { "type": "Point", "coordinates": [ 121.436471585079033, 31.140734189589178 ] } },
{ "type": "Feature", "properties": { "addr": "上海市 徐汇区 天钥桥路325号  " }, "geometry": { "type": "Point", "coordinates": [ 121.449407813236576, 31.195136888577441 ] } },
{ "type": "Feature", "properties": { "addr": "上海市 徐汇区 斜土路2590弄  " }, "geometry": { "type": "Point", "coordinates": [ 121.45071772233122, 31.193440781256193 ] } },
{ "type": "Feature", "properties": { "addr": "上海市 长宁区 程家桥路80弄  " }, "geometry": { "type": "Point", "coordinates": [ 121.377088740019744, 31.193422787511224 ] } },
{ "type": "Feature", "properties": { "addr": "上海市 虹口区 丹徒路371弄  " }, "geometry": { "type": "Point", "coordinates": [ 121.508195171573306, 31.262000329094779 ] } },
{ "type": "Feature", "properties": { "addr": "上海市 虹口区 大连西路201弄  " }, "geometry": { "type": "Point", "coordinates": [ 121.500654974783657, 31.281813890631206 ] } },
{ "type": "Feature", "properties": { "addr": "上海市 虹口区 飞虹路237弄  " }, "geometry": { "type": "Point", "coordinates": [ 121.508857492225815, 31.268241228709755 ] } },
{ "type": "Feature", "properties": { "addr": "上海市 虹口区 广中路310弄  " }, "geometry": { "type": "Point", "coordinates": [ 121.4800789277554, 31.283772024388451 ] } },
{ "type": "Feature", "properties": { "addr": "上海市 虹口区 广中路510号  " }, "geometry": { "type": "Point", "coordinates": [ 121.475706605346687, 31.285633370676248 ] } },
{ "type": "Feature", "properties": { "addr": "上海市 虹口区 海宁路590弄  " }, "geometry": { "type": "Point", "coordinates": [ 121.488875404800766, 31.254134774363681 ] } },
{ "type": "Feature", "properties": { "addr": "上海市 虹口区 恒业路365弄  " }, "geometry": { "type": "Point", "coordinates": [ 121.480326051601196, 31.272490898070352 ] } },
{ "type": "Feature", "properties": { "addr": "上海市 虹口区 江西北路416号  " }, "geometry": { "type": "Point", "coordinates": [ 121.488765542036887, 31.255815041668928 ] } },
{ "type": "Feature", "properties": { "addr": "上海市 虹口区 奎照路11弄  " }, "geometry": { "type": "Point", "coordinates": [ 121.490410069934015, 31.306438097510956 ] } },
{ "type": "Feature", "properties": { "addr": "上海市 虹口区 同心路93弄  " }, "geometry": { "type": "Point", "coordinates": [ 121.485367791275948, 31.272135493177043 ] } },
{ "type": "Feature", "properties": { "addr": "上海市 杨浦区 凤城三村  " }, "geometry": { "type": "Point", "coordinates": [ 121.528297991258896, 31.287822870041119 ] } },
{ "type": "Feature", "properties": { "addr": "上海市 杨浦区 工农三村  " }, "geometry": { "type": "Point", "coordinates": [ 121.541521317857431, 31.329314122046643 ] } },
{ "type": "Feature", "properties": { "addr": "上海市 杨浦区 济宁路521弄  " }, "geometry": { "type": "Point", "coordinates": [ 121.534789685857305, 31.269514205293497 ] } },
{ "type": "Feature", "properties": { "addr": "上海市 杨浦区 开鲁路382弄  " }, "geometry": { "type": "Point", "coordinates": [ 121.539824508579628, 31.330881454286551 ] } },
{ "type": "Feature", "properties": { "addr": "上海市 杨浦区 临青路284号  " }, "geometry": { "type": "Point", "coordinates": [ 121.547283318890081, 31.272487271496633 ] } },
{ "type": "Feature", "properties": { "addr": "上海市 杨浦区 延吉东路555弄  " }, "geometry": { "type": "Point", "coordinates": [ 121.54730317144184, 31.293973483790058 ] } },
{ "type": "Feature", "properties": { "addr": "上海市 宝山区 爱辉路28弄  " }, "geometry": { "type": "Point", "coordinates": [ 121.459733206259912, 31.334766628089632 ] } },
{ "type": "Feature", "properties": { "addr": "上海市 宝山区 沪太路1800号  " }, "geometry": { "type": "Point", "coordinates": [ 121.425267289944728, 31.293488482032714 ] } },
{ "type": "Feature", "properties": { "addr": "上海市 宝山区 沪太路3651弄  " }, "geometry": { "type": "Point", "coordinates": [ 121.416220994137063, 31.333640897448817 ] } },
{ "type": "Feature", "properties": { "addr": "上海市 宝山区 南大路180弄  " }, "geometry": { "type": "Point", "coordinates": [ 121.405875568900839, 31.306003220156146 ] } },
{ "type": "Feature", "properties": { "addr": "上海市 宝山区 三泉路1858弄  " }, "geometry": { "type": "Point", "coordinates": [ 121.442929323729174, 31.338752726400713 ] } },
{ "type": "Feature", "properties": { "addr": "上海市 宝山区 镇泰路111弄  " }, "geometry": { "type": "Point", "coordinates": [ 121.450982003812257, 31.387958867802453 ] } },
{ "type": "Feature", "properties": { "addr": "上海市 宝山区 淞南八村  " }, "geometry": { "type": "Point", "coordinates": [ 121.487199076888587, 31.34001232730964 ] } },
{ "type": "Feature", "properties": { "addr": "上海市 闵行区 许浦村  " }, "geometry": { "type": "Point", "coordinates": [ 121.344134402386203, 31.230791664007622 ] } },
{ "type": "Feature", "properties": { "addr": "上海市 青浦区 华徐公路333号  " }, "geometry": { "type": "Point", "coordinates": [ 121.280598601123728, 31.187208637983773 ] } },
{ "type": "Feature", "properties": { "addr": "上海市 青浦区 二联家园  " }, "geometry": { "type": "Point", "coordinates": [ 121.294955768936958, 31.201876300793998 ] } }
]
}
