{
"type": "FeatureCollection",
"crs": { "type": "name", "properties": { "name": "urn:ogc:def:crs:OGC:1.3:CRS84" } },
"features": [
{ "type": "Feature", "properties": { "addr": "上海市 浦东新区 北蔡镇联勤村张家队张家宅  " }, "geometry": { "type": "Point", "coordinates": [ 121.557185969340424, 31.173231011079945 ] } },
{ "type": "Feature", "properties": { "addr": "上海市 浦东新区 北张家浜路58号  " }, "geometry": { "type": "Point", "coordinates": [ 121.527623453651458, 31.222173076955738 ] } },
{ "type": "Feature", "properties": { "addr": "上海市 浦东新区 繁荣东路159弄  " }, "geometry": { "type": "Point", "coordinates": [ 121.59187017389452, 31.112814326185486 ] } },
{ "type": "Feature", "properties": { "addr": "上海市 浦东新区 高东镇珊黄村苍头宅  " }, "geometry": { "type": "Point", "coordinates": [ 121.646532423498897, 31.336547689860097 ] } },
{ "type": "Feature", "properties": { "addr": "上海市 浦东新区 高桥镇陆凌村西凌家宅  " }, "geometry": { "type": "Point", "coordinates": [ 121.581738635200239, 31.353566840637729 ] } },
{ "type": "Feature", "properties": { "addr": "上海市 浦东新区 龚华路479弄  " }, "geometry": { "type": "Point", "coordinates": [ 121.693823986563331, 31.265518974474919 ] } },
{ "type": "Feature", "properties": { "addr": "上海市 浦东新区 拱乐路698弄  " }, "geometry": { "type": "Point", "coordinates": [ 121.777093853099558, 31.069641989071371 ] } },
{ "type": "Feature", "properties": { "addr": "上海市 浦东新区 海鹏路301弄  " }, "geometry": { "type": "Point", "coordinates": [ 121.680730914263762, 31.295363983048894 ] } },
{ "type": "Feature", "properties": { "addr": "上海市 浦东新区 海鹏路380弄  " }, "geometry": { "type": "Point", "coordinates": [ 121.676483635982024, 31.293987138169218 ] } },
{ "type": "Feature", "properties": { "addr": "上海市 浦东新区 海容路399弄  " }, "geometry": { "type": "Point", "coordinates": [ 121.68625863721941, 31.287655457702563 ] } },
{ "type": "Feature", "properties": { "addr": "上海市 浦东新区 航昌路489弄  " }, "geometry": { "type": "Point", "coordinates": [ 121.61637509481649, 31.080440873866234 ] } },
{ "type": "Feature", "properties": { "addr": "上海市 浦东新区 航定路568弄  " }, "geometry": { "type": "Point", "coordinates": [ 121.596691649058229, 31.032990409747207 ] } },
{ "type": "Feature", "properties": { "addr": "上海市 浦东新区 航头路1137弄  " }, "geometry": { "type": "Point", "coordinates": [ 121.600001276048644, 31.038725347760987 ] } },
{ "type": "Feature", "properties": { "addr": "上海市 浦东新区 洪山路121弄  " }, "geometry": { "type": "Point", "coordinates": [ 121.505002773451949, 31.18470970220126 ] } },
{ "type": "Feature", "properties": { "addr": "上海市 浦东新区 环龙路259弄  " }, "geometry": { "type": "Point", "coordinates": [ 121.533376830951212, 31.21079533602553 ] } },
{ "type": "Feature", "properties": { "addr": "上海市 浦东新区 金杨路660弄  " }, "geometry": { "type": "Point", "coordinates": [ 121.588399929878932, 31.25750168417267 ] } },
{ "type": "Feature", "properties": { "addr": "上海市 浦东新区 金钻路669弄  " }, "geometry": { "type": "Point", "coordinates": [ 121.681134073776633, 31.289769460040421 ] } },
{ "type": "Feature", "properties": { "addr": "上海市 浦东新区 康沈路1646弄  " }, "geometry": { "type": "Point", "coordinates": [ 121.583436702105743, 31.121875458295566 ] } },
{ "type": "Feature", "properties": { "addr": "上海市 浦东新区 莱阳路880弄  " }, "geometry": { "type": "Point", "coordinates": [ 121.590822300517132, 31.288336908907748 ] } },
{ "type": "Feature", "properties": { "addr": "上海市 浦东新区 灵岩南路156弄  " }, "geometry": { "type": "Point", "coordinates": [ 121.50071075955583, 31.164839185970084 ] } },
{ "type": "Feature", "properties": { "addr": "上海市 浦东新区 罗山路108弄  " }, "geometry": { "type": "Point", "coordinates": [ 121.558879454887844, 31.254641589752865 ] } },
{ "type": "Feature", "properties": { "addr": "上海市 浦东新区 南泉北路101弄  " }, "geometry": { "type": "Point", "coordinates": [ 121.522040215415288, 31.244123854864959 ] } },
{ "type": "Feature", "properties": { "addr": "上海市 浦东新区 牌楼西路303弄  " }, "geometry": { "type": "Point", "coordinates": [ 121.647564576529845, 31.029462959920391 ] } },
{ "type": "Feature", "properties": { "addr": "上海市 浦东新区 浦东大道1623弄  " }, "geometry": { "type": "Point", "coordinates": [ 121.549043907859087, 31.251767592914419 ] } },
{ "type": "Feature", "properties": { "addr": "上海市 浦东新区 浦东大道2748弄  " }, "geometry": { "type": "Point", "coordinates": [ 121.568688412073485, 31.265697229843504 ] } },
{ "type": "Feature", "properties": { "addr": "上海市 浦东新区 浦东南路1533号  " }, "geometry": { "type": "Point", "coordinates": [ 121.527644653661497, 31.227372301137734 ] } },
{ "type": "Feature", "properties": { "addr": "上海市 浦东新区 浦东南路2351弄  " }, "geometry": { "type": "Point", "coordinates": [ 121.519461719279448, 31.205598665834319 ] } },
{ "type": "Feature", "properties": { "addr": "上海市 浦东新区 三舒路62弄  " }, "geometry": { "type": "Point", "coordinates": [ 121.509892699495524, 31.130409298630166 ] } },
{ "type": "Feature", "properties": { "addr": "上海市 浦东新区 新场镇坦西村  " }, "geometry": { "type": "Point", "coordinates": [ 121.65331067755497, 31.091888312065223 ] } },
{ "type": "Feature", "properties": { "addr": "上海市 浦东新区 新元南路正茂路交界口工地生活区  " }, "geometry": { "type": "Point", "coordinates": [ 121.827883417819848, 30.883671131631182 ] } },
{ "type": "Feature", "properties": { "addr": "上海市 浦东新区 杨新路197弄  " }, "geometry": { "type": "Point", "coordinates": [ 121.4985201517392, 31.168845590720398 ] } },
{ "type": "Feature", "properties": { "addr": "上海市 浦东新区 耀华路222号  " }, "geometry": { "type": "Point", "coordinates": [ 121.495489987592933, 31.181497889549654 ] } },
{ "type": "Feature", "properties": { "addr": "上海市 浦东新区 耀华路260号  " }, "geometry": { "type": "Point", "coordinates": [ 121.495149439974099, 31.180989442219158 ] } },
{ "type": "Feature", "properties": { "addr": "上海市 浦东新区 耀龙路16号工地生活区  " }, "geometry": { "type": "Point", "coordinates": [ 121.475898483403626, 31.181236135678194 ] } },
{ "type": "Feature", "properties": { "addr": "上海市 浦东新区 张江镇劳动村吴家宅北  " }, "geometry": { "type": "Point", "coordinates": [ 121.639015941974705, 31.185271265739956 ] } },
{ "type": "Feature", "properties": { "addr": "上海市 浦东新区 张杨北路588弄  " }, "geometry": { "type": "Point", "coordinates": [ 121.595215283952584, 31.275260170384001 ] } },
{ "type": "Feature", "properties": { "addr": "上海市 浦东新区 张杨路1050弄  " }, "geometry": { "type": "Point", "coordinates": [ 121.537039761498704, 31.236817818967825 ] } },
{ "type": "Feature", "properties": { "addr": "上海市 浦东新区 中科路2635弄  " }, "geometry": { "type": "Point", "coordinates": [ 121.644202488497655, 31.196929185714421 ] } },
{ "type": "Feature", "properties": { "addr": "上海市 浦东新区 周东南路599弄  " }, "geometry": { "type": "Point", "coordinates": [ 121.598845965332259, 31.104414858123519 ] } },
{ "type": "Feature", "properties": { "addr": "上海市 黄浦区 重庆南路169弄  " }, "geometry": { "type": "Point", "coordinates": [ 121.478156104811291, 31.223155630252226 ] } },
{ "type": "Feature", "properties": { "addr": "上海市 黄浦区 打浦路457弄  " }, "geometry": { "type": "Point", "coordinates": [ 121.480652855145735, 31.20307504728536 ] } },
{ "type": "Feature", "properties": { "addr": "上海市 黄浦区 淡水路214弄  " }, "geometry": { "type": "Point", "coordinates": [ 121.479010483181838, 31.223387544368109 ] } },
{ "type": "Feature", "properties": { "addr": "上海市 黄浦区 方斜支路11号  " }, "geometry": { "type": "Point", "coordinates": [ 121.492588191304066, 31.222454017071048 ] } },
{ "type": "Feature", "properties": { "addr": "上海市 黄浦区 和顺街38号  " }, "geometry": { "type": "Point", "coordinates": [ 121.503338123511412, 31.226158580229011 ] } },
{ "type": "Feature", "properties": { "addr": "上海市 黄浦区 河南中路575弄  " }, "geometry": { "type": "Point", "coordinates": [ 121.490140847772665, 31.245905566366485 ] } },
{ "type": "Feature", "properties": { "addr": "上海市 黄浦区 黄家阙路68弄  " }, "geometry": { "type": "Point", "coordinates": [ 121.493950022457184, 31.220714861457605 ] } },
{ "type": "Feature", "properties": { "addr": "上海市 黄浦区 金陵东路531号  " }, "geometry": { "type": "Point", "coordinates": [ 121.488263838409566, 31.233254787699028 ] } },
{ "type": "Feature", "properties": { "addr": "上海市 黄浦区 九江路619号  " }, "geometry": { "type": "Point", "coordinates": [ 121.485146628459404, 31.240162350399974 ] } },
{ "type": "Feature", "properties": { "addr": "上海市 黄浦区 丽园路842弄  " }, "geometry": { "type": "Point", "coordinates": [ 121.483621395534001, 31.211378208045655 ] } },
{ "type": "Feature", "properties": { "addr": "上海市 黄浦区 灵济街61号  " }, "geometry": { "type": "Point", "coordinates": [ 121.502149305999509, 31.226673498730978 ] } },
{ "type": "Feature", "properties": { "addr": "上海市 黄浦区 陆家浜路1034弄  " }, "geometry": { "type": "Point", "coordinates": [ 121.4960365166652, 31.217136161668591 ] } },
{ "type": "Feature", "properties": { "addr": "上海市 黄浦区 陆家浜路413弄  " }, "geometry": { "type": "Point", "coordinates": [ 121.505863709452711, 31.217303468719948 ] } },
{ "type": "Feature", "properties": { "addr": "上海市 黄浦区 南车站路450弄  " }, "geometry": { "type": "Point", "coordinates": [ 121.500153810139636, 31.210620682184938 ] } },
{ "type": "Feature", "properties": { "addr": "上海市 黄浦区 蓬莱路303弄  " }, "geometry": { "type": "Point", "coordinates": [ 121.495558797794999, 31.223221483420122 ] } },
{ "type": "Feature", "properties": { "addr": "上海市 黄浦区 瞿溪路120弄  " }, "geometry": { "type": "Point", "coordinates": [ 121.501722161729504, 31.212085926699476 ] } },
{ "type": "Feature", "properties": { "addr": "上海市 黄浦区 瞿溪路121号  " }, "geometry": { "type": "Point", "coordinates": [ 121.501095863127944, 31.212313312803349 ] } },
{ "type": "Feature", "properties": { "addr": "上海市 黄浦区 瞿溪路937弄  " }, "geometry": { "type": "Point", "coordinates": [ 121.484684090952314, 31.206350981651095 ] } },
{ "type": "Feature", "properties": { "addr": "上海市 黄浦区 山西南路264号  " }, "geometry": { "type": "Point", "coordinates": [ 121.488444128325426, 31.244049140177182 ] } },
{ "type": "Feature", "properties": { "addr": "上海市 黄浦区 五里桥路260弄  " }, "geometry": { "type": "Point", "coordinates": [ 121.486546188443938, 31.209148542748196 ] } },
{ "type": "Feature", "properties": { "addr": "上海市 黄浦区 五里桥路39弄  " }, "geometry": { "type": "Point", "coordinates": [ 121.489821320502756, 31.210184818283842 ] } },
{ "type": "Feature", "properties": { "addr": "上海市 黄浦区 西藏南路1107号  " }, "geometry": { "type": "Point", "coordinates": [ 121.492999974549832, 31.216927780202184 ] } },
{ "type": "Feature", "properties": { "addr": "上海市 黄浦区 斜土东路68弄  " }, "geometry": { "type": "Point", "coordinates": [ 121.497270968097013, 31.214080033829731 ] } },
{ "type": "Feature", "properties": { "addr": "上海市 黄浦区 斜土路118弄  " }, "geometry": { "type": "Point", "coordinates": [ 121.489370999950623, 31.211599882225087 ] } },
{ "type": "Feature", "properties": { "addr": "上海市 黄浦区 斜土路262弄  " }, "geometry": { "type": "Point", "coordinates": [ 121.487484738040763, 31.210796339782299 ] } },
{ "type": "Feature", "properties": { "addr": "上海市 黄浦区 新昌路477弄  " }, "geometry": { "type": "Point", "coordinates": [ 121.473272736397959, 31.244551687924471 ] } },
{ "type": "Feature", "properties": { "addr": "上海市 黄浦区 延安东路158弄  " }, "geometry": { "type": "Point", "coordinates": [ 121.495577662210707, 31.23813329181246 ] } },
{ "type": "Feature", "properties": { "addr": "上海市 黄浦区 延安中路535弄  " }, "geometry": { "type": "Point", "coordinates": [ 121.466308173779083, 31.229614810205653 ] } },
{ "type": "Feature", "properties": { "addr": "上海市 黄浦区 浙江中路188弄  " }, "geometry": { "type": "Point", "coordinates": [ 121.486478635869588, 31.239383058786604 ] } },
{ "type": "Feature", "properties": { "addr": "上海市 黄浦区 制造局路521号  " }, "geometry": { "type": "Point", "coordinates": [ 121.491357512755386, 31.209750342186542 ] } },
{ "type": "Feature", "properties": { "addr": "上海市 黄浦区 制造局路567弄  " }, "geometry": { "type": "Point", "coordinates": [ 121.491828673995371, 31.209308606024834 ] } },
{ "type": "Feature", "properties": { "addr": "上海市 黄浦区 中山南路1893号  " }, "geometry": { "type": "Point", "coordinates": [ 121.497358283392586, 31.207285364461335 ] } },
{ "type": "Feature", "properties": { "addr": "上海市 静安区 宝昌路517号  " }, "geometry": { "type": "Point", "coordinates": [ 121.479450563051188, 31.265446128893071 ] } },
{ "type": "Feature", "properties": { "addr": "上海市 静安区 宝昌路731弄  " }, "geometry": { "type": "Point", "coordinates": [ 121.477102302617553, 31.270603131672043 ] } },
{ "type": "Feature", "properties": { "addr": "上海市 静安区 宝昌路743号  " }, "geometry": { "type": "Point", "coordinates": [ 121.477484172289834, 31.269639210242055 ] } },
{ "type": "Feature", "properties": { "addr": "上海市 静安区 宝昌路745号  " }, "geometry": { "type": "Point", "coordinates": [ 121.47743988582819, 31.269684968184496 ] } },
{ "type": "Feature", "properties": { "addr": "上海市 静安区 宝山路519号  " }, "geometry": { "type": "Point", "coordinates": [ 121.484502902730952, 31.264229198009435 ] } },
{ "type": "Feature", "properties": { "addr": "上海市 静安区 保德路545号  " }, "geometry": { "type": "Point", "coordinates": [ 121.463109577349726, 31.322882424506499 ] } },
{ "type": "Feature", "properties": { "addr": "上海市 静安区 长乐路764弄  " }, "geometry": { "type": "Point", "coordinates": [ 121.457610151017633, 31.223601469962141 ] } },
{ "type": "Feature", "properties": { "addr": "上海市 静安区 场中路3300弄  " }, "geometry": { "type": "Point", "coordinates": [ 121.441464726425693, 31.308721131798272 ] } },
{ "type": "Feature", "properties": { "addr": "上海市 静安区 大统路1080号  " }, "geometry": { "type": "Point", "coordinates": [ 121.465688342977202, 31.263451573190476 ] } },
{ "type": "Feature", "properties": { "addr": "上海市 静安区 富民路210弄  " }, "geometry": { "type": "Point", "coordinates": [ 121.458118861427934, 31.224093165008032 ] } },
{ "type": "Feature", "properties": { "addr": "上海市 静安区 高平路860弄  " }, "geometry": { "type": "Point", "coordinates": [ 121.434458482431168, 31.298314935694535 ] } },
{ "type": "Feature", "properties": { "addr": "上海市 静安区 共和新路885号  " }, "geometry": { "type": "Point", "coordinates": [ 121.469912894129536, 31.264668900039471 ] } },
{ "type": "Feature", "properties": { "addr": "上海市 静安区 广延路555弄  " }, "geometry": { "type": "Point", "coordinates": [ 121.461504934217245, 31.287671658909741 ] } },
{ "type": "Feature", "properties": { "addr": "上海市 静安区 广中西路99弄  " }, "geometry": { "type": "Point", "coordinates": [ 121.455460685593366, 31.288104461546311 ] } },
{ "type": "Feature", "properties": { "addr": "上海市 静安区 沪太路453弄  " }, "geometry": { "type": "Point", "coordinates": [ 121.463284567263059, 31.263406275207078 ] } },
{ "type": "Feature", "properties": { "addr": "上海市 静安区 临汾路1041号  " }, "geometry": { "type": "Point", "coordinates": [ 121.452630843575832, 31.316900613879731 ] } },
{ "type": "Feature", "properties": { "addr": "上海市 静安区 临汾路1071号  " }, "geometry": { "type": "Point", "coordinates": [ 121.451947682235485, 31.31677752320115 ] } },
{ "type": "Feature", "properties": { "addr": "上海市 静安区 柳营路1025弄  " }, "geometry": { "type": "Point", "coordinates": [ 121.456559762384813, 31.268273869351653 ] } },
{ "type": "Feature", "properties": { "addr": "上海市 静安区 柳营路319弄  " }, "geometry": { "type": "Point", "coordinates": [ 121.469876782248036, 31.273721070046967 ] } },
{ "type": "Feature", "properties": { "addr": "上海市 静安区 彭浦新村302号  " }, "geometry": { "type": "Point", "coordinates": [ 121.460817640671564, 31.314854711564955 ] } },
{ "type": "Feature", "properties": { "addr": "上海市 静安区 平顺路790弄  " }, "geometry": { "type": "Point", "coordinates": [ 121.459392299318878, 31.323759731658178 ] } },
{ "type": "Feature", "properties": { "addr": "上海市 静安区 平型关路300弄  " }, "geometry": { "type": "Point", "coordinates": [ 121.470353153659971, 31.276880723731139 ] } },
{ "type": "Feature", "properties": { "addr": "上海市 静安区 平型关路500弄  " }, "geometry": { "type": "Point", "coordinates": [ 121.466860182514978, 31.278397628157673 ] } },
{ "type": "Feature", "properties": { "addr": "上海市 静安区 普善路221号  " }, "geometry": { "type": "Point", "coordinates": [ 121.461639680043746, 31.263744813437665 ] } },
{ "type": "Feature", "properties": { "addr": "上海市 静安区 青云路483弄  " }, "geometry": { "type": "Point", "coordinates": [ 121.476371620915728, 31.268730528483804 ] } },
{ "type": "Feature", "properties": { "addr": "上海市 静安区 虬江路1150弄  " }, "geometry": { "type": "Point", "coordinates": [ 121.477866311453766, 31.254487083509979 ] } },
{ "type": "Feature", "properties": { "addr": "上海市 静安区 虬江路1368弄  " }, "geometry": { "type": "Point", "coordinates": [ 121.473200063482196, 31.255488977093258 ] } },
{ "type": "Feature", "properties": { "addr": "上海市 静安区 三泉路524号  " }, "geometry": { "type": "Point", "coordinates": [ 121.447731305663311, 31.316444113234994 ] } },
{ "type": "Feature", "properties": { "addr": "上海市 静安区 陕西北路900号  " }, "geometry": { "type": "Point", "coordinates": [ 121.454442007145047, 31.243143914506323 ] } },
{ "type": "Feature", "properties": { "addr": "上海市 静安区 泰兴路341弄  " }, "geometry": { "type": "Point", "coordinates": [ 121.463580828420248, 31.238360614637191 ] } },
{ "type": "Feature", "properties": { "addr": "上海市 静安区 天目中路749弄  " }, "geometry": { "type": "Point", "coordinates": [ 121.468220666209831, 31.252132799701027 ] } },
{ "type": "Feature", "properties": { "addr": "上海市 静安区 万航渡路623弄  " }, "geometry": { "type": "Point", "coordinates": [ 121.440392958121748, 31.232727940349175 ] } },
{ "type": "Feature", "properties": { "addr": "上海市 静安区 西藏北路987弄  " }, "geometry": { "type": "Point", "coordinates": [ 121.472264118971353, 31.265462796954949 ] } },
{ "type": "Feature", "properties": { "addr": "上海市 静安区 新疆路500号  " }, "geometry": { "type": "Point", "coordinates": [ 121.473021210855165, 31.24854912712895 ] } },
{ "type": "Feature", "properties": { "addr": "上海市 静安区 阳曲路650弄  " }, "geometry": { "type": "Point", "coordinates": [ 121.467093023303164, 31.32289090764964 ] } },
{ "type": "Feature", "properties": { "addr": "上海市 静安区 永兴路888弄  " }, "geometry": { "type": "Point", "coordinates": [ 121.466957648662813, 31.257517118875455 ] } },
{ "type": "Feature", "properties": { "addr": "上海市 静安区 芷江西路123弄  " }, "geometry": { "type": "Point", "coordinates": [ 121.471963905269916, 31.265192403584116 ] } },
{ "type": "Feature", "properties": { "addr": "上海市 静安区 芷江西路165弄  " }, "geometry": { "type": "Point", "coordinates": [ 121.470599019878051, 31.264956966253234 ] } },
{ "type": "Feature", "properties": { "addr": "上海市 静安区 芷江西路285弄  " }, "geometry": { "type": "Point", "coordinates": [ 121.466751846870466, 31.263678757293864 ] } },
{ "type": "Feature", "properties": { "addr": "上海市 静安区 中华新路455弄  " }, "geometry": { "type": "Point", "coordinates": [ 121.474427418300479, 31.261496408905408 ] } },
{ "type": "Feature", "properties": { "addr": "上海市 静安区 中华新路718号  " }, "geometry": { "type": "Point", "coordinates": [ 121.466609914599886, 31.259756821576165 ] } },
{ "type": "Feature", "properties": { "addr": "上海市 静安区 中华新路815弄  " }, "geometry": { "type": "Point", "coordinates": [ 121.481323080886725, 31.265346197626439 ] } },
{ "type": "Feature", "properties": { "addr": "上海市 静安区 中华新路939弄  " }, "geometry": { "type": "Point", "coordinates": [ 121.461998014111671, 31.261891982624878 ] } },
{ "type": "Feature", "properties": { "addr": "上海市 静安区 中山北路255弄  " }, "geometry": { "type": "Point", "coordinates": [ 121.475517961189595, 31.270384838136735 ] } },
{ "type": "Feature", "properties": { "addr": "上海市 静安区 中兴路1279弄  " }, "geometry": { "type": "Point", "coordinates": [ 121.468457908695015, 31.258953075299733 ] } },
{ "type": "Feature", "properties": { "addr": "上海市 静安区 中兴路1340弄  " }, "geometry": { "type": "Point", "coordinates": [ 121.467576670989743, 31.258286381233074 ] } },
{ "type": "Feature", "properties": { "addr": "上海市 静安区 中兴路1395弄  " }, "geometry": { "type": "Point", "coordinates": [ 121.466589163742626, 31.258563894470161 ] } },
{ "type": "Feature", "properties": { "addr": "上海市 徐汇区 漕溪路251弄  " }, "geometry": { "type": "Point", "coordinates": [ 121.442230352211851, 31.17638656697358 ] } },
{ "type": "Feature", "properties": { "addr": "上海市 徐汇区 丰谷路180弄  " }, "geometry": { "type": "Point", "coordinates": [ 121.459914933464589, 31.174541970407127 ] } },
{ "type": "Feature", "properties": { "addr": "上海市 徐汇区 丰谷路220弄  " }, "geometry": { "type": "Point", "coordinates": [ 121.459726379138033, 31.174384473964274 ] } },
{ "type": "Feature", "properties": { "addr": "上海市 徐汇区 冠生园路210号  " }, "geometry": { "type": "Point", "coordinates": [ 121.434776123259496, 31.16981533989259 ] } },
{ "type": "Feature", "properties": { "addr": "上海市 徐汇区 桂平路350弄  " }, "geometry": { "type": "Point", "coordinates": [ 121.413579257293321, 31.166860408583002 ] } },
{ "type": "Feature", "properties": { "addr": "上海市 徐汇区 乐山路30弄  " }, "geometry": { "type": "Point", "coordinates": [ 121.437513978792822, 31.201963172592951 ] } },
{ "type": "Feature", "properties": { "addr": "上海市 徐汇区 零陵北路9弄  " }, "geometry": { "type": "Point", "coordinates": [ 121.443396352763813, 31.194556772822725 ] } },
{ "type": "Feature", "properties": { "addr": "上海市 徐汇区 龙华西路21弄  " }, "geometry": { "type": "Point", "coordinates": [ 121.454790729344012, 31.17506088030758 ] } },
{ "type": "Feature", "properties": { "addr": "上海市 徐汇区 梅陇四村  " }, "geometry": { "type": "Point", "coordinates": [ 121.427773562317569, 31.142782434378194 ] } },
{ "type": "Feature", "properties": { "addr": "上海市 徐汇区 日晖二村  " }, "geometry": { "type": "Point", "coordinates": [ 121.472543312323864, 31.200582635040785 ] } },
{ "type": "Feature", "properties": { "addr": "上海市 徐汇区 日晖六村  " }, "geometry": { "type": "Point", "coordinates": [ 121.466221038144624, 31.201232983658134 ] } },
{ "type": "Feature", "properties": { "addr": "上海市 徐汇区 田东路377弄  " }, "geometry": { "type": "Point", "coordinates": [ 121.442866172851808, 31.180546102937299 ] } },
{ "type": "Feature", "properties": { "addr": "上海市 徐汇区 宛南三村  " }, "geometry": { "type": "Point", "coordinates": [ 121.45759919169042, 31.187911364783503 ] } },
{ "type": "Feature", "properties": { "addr": "上海市 徐汇区 医学院路110弄  " }, "geometry": { "type": "Point", "coordinates": [ 121.461591351207289, 31.205284085921058 ] } },
{ "type": "Feature", "properties": { "addr": "上海市 徐汇区 宜山路406弄  " }, "geometry": { "type": "Point", "coordinates": [ 121.434581640116605, 31.194559552938735 ] } },
{ "type": "Feature", "properties": { "addr": "上海市 徐汇区 肇嘉浜路417弄  " }, "geometry": { "type": "Point", "coordinates": [ 121.464144425297206, 31.207839071254021 ] } },
{ "type": "Feature", "properties": { "addr": "上海市 徐汇区 肇嘉浜路665号  " }, "geometry": { "type": "Point", "coordinates": [ 121.459480423089417, 31.206408816210228 ] } },
{ "type": "Feature", "properties": { "addr": "上海市 长宁区 安顺路181弄  " }, "geometry": { "type": "Point", "coordinates": [ 121.424260828451366, 31.207017505405535 ] } },
{ "type": "Feature", "properties": { "addr": "上海市 长宁区 法华镇路878弄  " }, "geometry": { "type": "Point", "coordinates": [ 121.425730007112918, 31.213419891555812 ] } },
{ "type": "Feature", "properties": { "addr": "上海市 长宁区 广顺路32弄  " }, "geometry": { "type": "Point", "coordinates": [ 121.35963394531646, 31.22091335241878 ] } },
{ "type": "Feature", "properties": { "addr": "上海市 长宁区 哈密路1680号  " }, "geometry": { "type": "Point", "coordinates": [ 121.374396248914678, 31.201711746081102 ] } },
{ "type": "Feature", "properties": { "addr": "上海市 长宁区 虹桥路2388号  " }, "geometry": { "type": "Point", "coordinates": [ 121.369648075480583, 31.193926302160186 ] } },
{ "type": "Feature", "properties": { "addr": "上海市 长宁区 水城路883弄  " }, "geometry": { "type": "Point", "coordinates": [ 121.397922870221009, 31.222989800498752 ] } },
{ "type": "Feature", "properties": { "addr": "上海市 普陀区 曹杨六村  " }, "geometry": { "type": "Point", "coordinates": [ 121.420601580956458, 31.244784938318805 ] } },
{ "type": "Feature", "properties": { "addr": "上海市 普陀区 长寿路28弄  " }, "geometry": { "type": "Point", "coordinates": [ 121.451453165052243, 31.251374137345373 ] } },
{ "type": "Feature", "properties": { "addr": "上海市 普陀区 礼泉路305弄  " }, "geometry": { "type": "Point", "coordinates": [ 121.418515805392843, 31.259850430750717 ] } },
{ "type": "Feature", "properties": { "addr": "上海市 普陀区 泰山一村  " }, "geometry": { "type": "Point", "coordinates": [ 121.453747616985822, 31.266473678482228 ] } },
{ "type": "Feature", "properties": { "addr": "上海市 普陀区 泰山三村  " }, "geometry": { "type": "Point", "coordinates": [ 121.454927990425944, 31.265067855689473 ] } },
{ "type": "Feature", "properties": { "addr": "上海市 普陀区 桃浦路1028弄  " }, "geometry": { "type": "Point", "coordinates": [ 121.389460472994813, 31.26651951514113 ] } },
{ "type": "Feature", "properties": { "addr": "上海市 普陀区 武宁四村  " }, "geometry": { "type": "Point", "coordinates": [ 121.432118371065812, 31.249938742346455 ] } },
{ "type": "Feature", "properties": { "addr": "上海市 普陀区 武威路1082弄  " }, "geometry": { "type": "Point", "coordinates": [ 121.359565853758809, 31.28904088220181 ] } },
{ "type": "Feature", "properties": { "addr": "上海市 普陀区 新村路50弄  " }, "geometry": { "type": "Point", "coordinates": [ 121.438774750576073, 31.271880860094644 ] } },
{ "type": "Feature", "properties": { "addr": "上海市 普陀区 延长西路16号  " }, "geometry": { "type": "Point", "coordinates": [ 121.449223391115382, 31.271175985805581 ] } },
{ "type": "Feature", "properties": { "addr": "上海市 普陀区 宜川三村  " }, "geometry": { "type": "Point", "coordinates": [ 121.447419503820782, 31.263551892325964 ] } },
{ "type": "Feature", "properties": { "addr": "上海市 普陀区 真光路1433弄  " }, "geometry": { "type": "Point", "coordinates": [ 121.389015452445165, 31.252271797090941 ] } },
{ "type": "Feature", "properties": { "addr": "上海市 虹口区 宝山路633号  " }, "geometry": { "type": "Point", "coordinates": [ 121.485699266009135, 31.265932356642892 ] } },
{ "type": "Feature", "properties": { "addr": "上海市 虹口区 北苏州路400号  " }, "geometry": { "type": "Point", "coordinates": [ 121.490087937578139, 31.248865877052367 ] } },
{ "type": "Feature", "properties": { "addr": "上海市 虹口区 长春路214弄  " }, "geometry": { "type": "Point", "coordinates": [ 121.492241984360504, 31.267331761700316 ] } },
{ "type": "Feature", "properties": { "addr": "上海市 虹口区 车站北路716弄  " }, "geometry": { "type": "Point", "coordinates": [ 121.472636017452473, 31.304400373379487 ] } },
{ "type": "Feature", "properties": { "addr": "上海市 虹口区 川公路167号  " }, "geometry": { "type": "Point", "coordinates": [ 121.487457429553274, 31.262039917196677 ] } },
{ "type": "Feature", "properties": { "addr": "上海市 虹口区 大连路975弄  " }, "geometry": { "type": "Point", "coordinates": [ 121.512150500564289, 31.273118833328333 ] } },
{ "type": "Feature", "properties": { "addr": "上海市 虹口区 大连西路201弄  " }, "geometry": { "type": "Point", "coordinates": [ 121.500654974783657, 31.281813890631206 ] } },
{ "type": "Feature", "properties": { "addr": "上海市 虹口区 大连西路205号  " }, "geometry": { "type": "Point", "coordinates": [ 121.498856656983222, 31.281988951620836 ] } },
{ "type": "Feature", "properties": { "addr": "上海市 虹口区 大连西路261号  " }, "geometry": { "type": "Point", "coordinates": [ 121.493808180017155, 31.281877927963851 ] } },
{ "type": "Feature", "properties": { "addr": "上海市 虹口区 东宝兴路835弄  " }, "geometry": { "type": "Point", "coordinates": [ 121.480857668802003, 31.269477243921731 ] } },
{ "type": "Feature", "properties": { "addr": "上海市 虹口区 东汉阳路309弄  " }, "geometry": { "type": "Point", "coordinates": [ 121.490924313861342, 31.281619478120088 ] } },
{ "type": "Feature", "properties": { "addr": "上海市 虹口区 东体育会路100弄  " }, "geometry": { "type": "Point", "coordinates": [ 121.491580831505161, 31.283720718413171 ] } },
{ "type": "Feature", "properties": { "addr": "上海市 虹口区 多伦路176号  " }, "geometry": { "type": "Point", "coordinates": [ 121.48838969101152, 31.269040882571346 ] } },
{ "type": "Feature", "properties": { "addr": "上海市 虹口区 多伦路201弄  " }, "geometry": { "type": "Point", "coordinates": [ 121.488095316295897, 31.269706651113975 ] } },
{ "type": "Feature", "properties": { "addr": "上海市 虹口区 多伦路257弄  " }, "geometry": { "type": "Point", "coordinates": [ 121.487586785546696, 31.270269556721395 ] } },
{ "type": "Feature", "properties": { "addr": "上海市 虹口区 飞虹路187弄  " }, "geometry": { "type": "Point", "coordinates": [ 121.508557009032714, 31.267445889261172 ] } },
{ "type": "Feature", "properties": { "addr": "上海市 虹口区 飞虹路237弄  " }, "geometry": { "type": "Point", "coordinates": [ 121.508857492225815, 31.268241228709755 ] } },
{ "type": "Feature", "properties": { "addr": "上海市 虹口区 沽源路110弄  " }, "geometry": { "type": "Point", "coordinates": [ 121.483359090325095, 31.307532995247175 ] } },
{ "type": "Feature", "properties": { "addr": "上海市 虹口区 广灵四路881弄  " }, "geometry": { "type": "Point", "coordinates": [ 121.469311209098947, 31.290973560547254 ] } },
{ "type": "Feature", "properties": { "addr": "上海市 虹口区 广中三村  " }, "geometry": { "type": "Point", "coordinates": [ 121.482966440986672, 31.284864410636352 ] } },
{ "type": "Feature", "properties": { "addr": "上海市 虹口区 恒业路388弄  " }, "geometry": { "type": "Point", "coordinates": [ 121.479535363091316, 31.271386947097412 ] } },
{ "type": "Feature", "properties": { "addr": "上海市 虹口区 横浜路321号  " }, "geometry": { "type": "Point", "coordinates": [ 121.483040012207951, 31.271728774367972 ] } },
{ "type": "Feature", "properties": { "addr": "上海市 虹口区 横浜路63弄  " }, "geometry": { "type": "Point", "coordinates": [ 121.518837069939863, 31.282811728205139 ] } },
{ "type": "Feature", "properties": { "addr": "上海市 虹口区 虹湾路313弄  " }, "geometry": { "type": "Point", "coordinates": [ 121.476694022763255, 31.319029840955491 ] } },
{ "type": "Feature", "properties": { "addr": "上海市 虹口区 虹镇老街269号  " }, "geometry": { "type": "Point", "coordinates": [ 121.510320742071031, 31.273208725410512 ] } },
{ "type": "Feature", "properties": { "addr": "上海市 虹口区 花园路168弄  " }, "geometry": { "type": "Point", "coordinates": [ 121.480377793998571, 31.277573672802884 ] } },
{ "type": "Feature", "properties": { "addr": "上海市 虹口区 黄山路12号  " }, "geometry": { "type": "Point", "coordinates": [ 121.47925904431645, 31.274035882827292 ] } },
{ "type": "Feature", "properties": { "addr": "上海市 虹口区 建机新村  " }, "geometry": { "type": "Point", "coordinates": [ 121.486823315693769, 31.29137595253847 ] } },
{ "type": "Feature", "properties": { "addr": "上海市 虹口区 九龙路515号  " }, "geometry": { "type": "Point", "coordinates": [ 121.498125166806446, 31.258115057299349 ] } },
{ "type": "Feature", "properties": { "addr": "上海市 虹口区 昆明路388弄  " }, "geometry": { "type": "Point", "coordinates": [ 121.517089875331848, 31.264595436453614 ] } },
{ "type": "Feature", "properties": { "addr": "上海市 虹口区 凉城路585弄  " }, "geometry": { "type": "Point", "coordinates": [ 121.477458840074448, 31.299088953258693 ] } },
{ "type": "Feature", "properties": { "addr": "上海市 虹口区 临平路133弄  " }, "geometry": { "type": "Point", "coordinates": [ 121.505062241276704, 31.267871995122576 ] } },
{ "type": "Feature", "properties": { "addr": "上海市 虹口区 临平路250弄  " }, "geometry": { "type": "Point", "coordinates": [ 121.502244795875214, 31.267832795316448 ] } },
{ "type": "Feature", "properties": { "addr": "上海市 虹口区 民和路89弄  " }, "geometry": { "type": "Point", "coordinates": [ 121.475678578214783, 31.275796808670453 ] } },
{ "type": "Feature", "properties": { "addr": "上海市 虹口区 闵行路201号  " }, "geometry": { "type": "Point", "coordinates": [ 121.497858280239441, 31.252654984272201 ] } },
{ "type": "Feature", "properties": { "addr": "上海市 虹口区 欧阳路289弄  " }, "geometry": { "type": "Point", "coordinates": [ 121.495083594180215, 31.274007642312377 ] } },
{ "type": "Feature", "properties": { "addr": "上海市 虹口区 欧阳路452弄  " }, "geometry": { "type": "Point", "coordinates": [ 121.493335850980003, 31.277424528313848 ] } },
{ "type": "Feature", "properties": { "addr": "上海市 虹口区 青云路263号  " }, "geometry": { "type": "Point", "coordinates": [ 121.480306468541087, 31.270211298656186 ] } },
{ "type": "Feature", "properties": { "addr": "上海市 虹口区 瑞虹路25弄  " }, "geometry": { "type": "Point", "coordinates": [ 121.511586454534566, 31.269746698931357 ] } },
{ "type": "Feature", "properties": { "addr": "上海市 虹口区 瑞虹路2弄  " }, "geometry": { "type": "Point", "coordinates": [ 121.511586454534566, 31.269746698931357 ] } },
{ "type": "Feature", "properties": { "addr": "上海市 虹口区 瑞虹路368弄  " }, "geometry": { "type": "Point", "coordinates": [ 121.506646223382447, 31.271610871107612 ] } },
{ "type": "Feature", "properties": { "addr": "上海市 虹口区 瑞虹路40弄  " }, "geometry": { "type": "Point", "coordinates": [ 121.504827244555301, 31.266321969784119 ] } },
{ "type": "Feature", "properties": { "addr": "上海市 虹口区 三门路719弄  " }, "geometry": { "type": "Point", "coordinates": [ 121.487302022700035, 31.318621398382895 ] } },
{ "type": "Feature", "properties": { "addr": "上海市 虹口区 三门路759弄  " }, "geometry": { "type": "Point", "coordinates": [ 121.485380547214191, 31.317284847020417 ] } },
{ "type": "Feature", "properties": { "addr": "上海市 虹口区 山阴路57弄  " }, "geometry": { "type": "Point", "coordinates": [ 121.492247733515768, 31.270318169383767 ] } },
{ "type": "Feature", "properties": { "addr": "上海市 虹口区 山阴路69弄  " }, "geometry": { "type": "Point", "coordinates": [ 121.49398083433617, 31.270746114047022 ] } },
{ "type": "Feature", "properties": { "addr": "上海市 虹口区 山阴路85弄  " }, "geometry": { "type": "Point", "coordinates": [ 121.492920564342754, 31.27096417525091 ] } },
{ "type": "Feature", "properties": { "addr": "上海市 虹口区 商业二村  " }, "geometry": { "type": "Point", "coordinates": [ 121.487104844640598, 31.290100496652226 ] } },
{ "type": "Feature", "properties": { "addr": "上海市 虹口区 水电路261弄  " }, "geometry": { "type": "Point", "coordinates": [ 121.481434380939419, 31.280670469660546 ] } },
{ "type": "Feature", "properties": { "addr": "上海市 虹口区 水电路62弄  " }, "geometry": { "type": "Point", "coordinates": [ 121.478775755952071, 31.279242331092032 ] } },
{ "type": "Feature", "properties": { "addr": "上海市 虹口区 四川北路1515弄  " }, "geometry": { "type": "Point", "coordinates": [ 121.488911786173915, 31.261482363923982 ] } },
{ "type": "Feature", "properties": { "addr": "上海市 虹口区 四川北路1774弄  " }, "geometry": { "type": "Point", "coordinates": [ 121.490027122295103, 31.265406773735187 ] } },
{ "type": "Feature", "properties": { "addr": "上海市 虹口区 四川北路1851号  " }, "geometry": { "type": "Point", "coordinates": [ 121.490126654545605, 31.267266788408666 ] } },
{ "type": "Feature", "properties": { "addr": "上海市 虹口区 四川北路1856弄  " }, "geometry": { "type": "Point", "coordinates": [ 121.490619824270581, 31.266843920750997 ] } },
{ "type": "Feature", "properties": { "addr": "上海市 虹口区 四川北路1953弄  " }, "geometry": { "type": "Point", "coordinates": [ 121.488481048681876, 31.268984398512814 ] } },
{ "type": "Feature", "properties": { "addr": "上海市 虹口区 四达路25弄  " }, "geometry": { "type": "Point", "coordinates": [ 121.497927629424808, 31.272427394429403 ] } },
{ "type": "Feature", "properties": { "addr": "上海市 虹口区 四平路288弄  " }, "geometry": { "type": "Point", "coordinates": [ 121.498354234711499, 31.271071353766473 ] } },
{ "type": "Feature", "properties": { "addr": "上海市 虹口区 四平路621弄  " }, "geometry": { "type": "Point", "coordinates": [ 121.500505496746797, 31.277798353549326 ] } },
{ "type": "Feature", "properties": { "addr": "上海市 虹口区 四平路758弄  " }, "geometry": { "type": "Point", "coordinates": [ 121.506231745220148, 31.276074810009646 ] } },
{ "type": "Feature", "properties": { "addr": "上海市 虹口区 唐山路509弄  " }, "geometry": { "type": "Point", "coordinates": [ 121.511972995395524, 31.260814684679922 ] } },
{ "type": "Feature", "properties": { "addr": "上海市 虹口区 唐山路708弄  " }, "geometry": { "type": "Point", "coordinates": [ 121.513964628541686, 31.262865861626342 ] } },
{ "type": "Feature", "properties": { "addr": "上海市 虹口区 天宝路466弄  " }, "geometry": { "type": "Point", "coordinates": [ 121.502415114599913, 31.272162345352548 ] } },
{ "type": "Feature", "properties": { "addr": "上海市 虹口区 天宝西路241弄  " }, "geometry": { "type": "Point", "coordinates": [ 121.500371649225812, 31.280015040868189 ] } },
{ "type": "Feature", "properties": { "addr": "上海市 虹口区 天宝西路248弄  " }, "geometry": { "type": "Point", "coordinates": [ 121.500003254136161, 31.279784424510989 ] } },
{ "type": "Feature", "properties": { "addr": "上海市 虹口区 天通庵路570号  " }, "geometry": { "type": "Point", "coordinates": [ 121.482444345824277, 31.268940415000962 ] } },
{ "type": "Feature", "properties": { "addr": "上海市 虹口区 同心路803弄  " }, "geometry": { "type": "Point", "coordinates": [ 121.477894518246785, 31.277457551532155 ] } },
{ "type": "Feature", "properties": { "addr": "上海市 虹口区 同心路93弄  " }, "geometry": { "type": "Point", "coordinates": [ 121.485367791275948, 31.272135493177043 ] } },
{ "type": "Feature", "properties": { "addr": "上海市 虹口区 万安路669弄  " }, "geometry": { "type": "Point", "coordinates": [ 121.484441009481301, 31.306700889566208 ] } },
{ "type": "Feature", "properties": { "addr": "上海市 虹口区 文迁路25弄  " }, "geometry": { "type": "Point", "coordinates": [ 121.511586454534566, 31.269746698931357 ] } },
{ "type": "Feature", "properties": { "addr": "上海市 虹口区 汶水东路650弄  " }, "geometry": { "type": "Point", "coordinates": [ 121.482089604978384, 31.293962066567538 ] } },
{ "type": "Feature", "properties": { "addr": "上海市 虹口区 梧州路97号  " }, "geometry": { "type": "Point", "coordinates": [ 121.500034245676247, 31.258161283923219 ] } },
{ "type": "Feature", "properties": { "addr": "上海市 虹口区 西宝兴路949弄  " }, "geometry": { "type": "Point", "coordinates": [ 121.475029552483818, 31.275593187403278 ] } },
{ "type": "Feature", "properties": { "addr": "上海市 虹口区 祥德路264弄  " }, "geometry": { "type": "Point", "coordinates": [ 121.495069311122606, 31.277244597863159 ] } },
{ "type": "Feature", "properties": { "addr": "上海市 虹口区 祥德路335号  " }, "geometry": { "type": "Point", "coordinates": [ 121.496542352497883, 31.276490228731266 ] } },
{ "type": "Feature", "properties": { "addr": "上海市 虹口区 新市南路579弄  " }, "geometry": { "type": "Point", "coordinates": [ 121.487862475507711, 31.299509283607158 ] } },
{ "type": "Feature", "properties": { "addr": "上海市 虹口区 玉田路311弄  " }, "geometry": { "type": "Point", "coordinates": [ 121.499214901220611, 31.284707562686933 ] } },
{ "type": "Feature", "properties": { "addr": "上海市 虹口区 岳州路371弄  " }, "geometry": { "type": "Point", "coordinates": [ 121.509700192624734, 31.268039597257733 ] } },
{ "type": "Feature", "properties": { "addr": "上海市 虹口区 乍浦路318号  " }, "geometry": { "type": "Point", "coordinates": [ 121.493608846024486, 31.255478867143857 ] } },
{ "type": "Feature", "properties": { "addr": "上海市 虹口区 乍浦路324号  " }, "geometry": { "type": "Point", "coordinates": [ 121.493588364658862, 31.25563067062021 ] } },
{ "type": "Feature", "properties": { "addr": "上海市 虹口区 周家嘴路338弄  " }, "geometry": { "type": "Point", "coordinates": [ 121.503569976163547, 31.259465883971842 ] } },
{ "type": "Feature", "properties": { "addr": "上海市 杨浦区 鞍山六村  " }, "geometry": { "type": "Point", "coordinates": [ 121.511773391911206, 31.279715447811729 ] } },
{ "type": "Feature", "properties": { "addr": "上海市 杨浦区 赤峰路95号  " }, "geometry": { "type": "Point", "coordinates": [ 121.503191699713284, 31.287189556070423 ] } },
{ "type": "Feature", "properties": { "addr": "上海市 杨浦区 阜新路169弄  " }, "geometry": { "type": "Point", "coordinates": [ 121.513533172405246, 31.28312610710616 ] } },
{ "type": "Feature", "properties": { "addr": "上海市 杨浦区 吉浦路355弄  " }, "geometry": { "type": "Point", "coordinates": [ 121.498208260066122, 31.31187852110768 ] } },
{ "type": "Feature", "properties": { "addr": "上海市 杨浦区 济宁路479弄  " }, "geometry": { "type": "Point", "coordinates": [ 121.534061249919262, 31.269698317461959 ] } },
{ "type": "Feature", "properties": { "addr": "上海市 杨浦区 江浦路2009弄  " }, "geometry": { "type": "Point", "coordinates": [ 121.523126895590721, 31.285912114233586 ] } },
{ "type": "Feature", "properties": { "addr": "上海市 杨浦区 靖宇中路8弄  " }, "geometry": { "type": "Point", "coordinates": [ 121.532519937325233, 31.265524144657057 ] } },
{ "type": "Feature", "properties": { "addr": "上海市 杨浦区 军工路1300号  " }, "geometry": { "type": "Point", "coordinates": [ 121.552326765345299, 31.311221151837529 ] } },
{ "type": "Feature", "properties": { "addr": "上海市 杨浦区 军工路2866号  " }, "geometry": { "type": "Point", "coordinates": [ 121.549025851918344, 31.341007751583398 ] } },
{ "type": "Feature", "properties": { "addr": "上海市 杨浦区 控江路121弄  " }, "geometry": { "type": "Point", "coordinates": [ 121.553303403095754, 31.293258053242909 ] } },
{ "type": "Feature", "properties": { "addr": "上海市 杨浦区 控江路740弄  " }, "geometry": { "type": "Point", "coordinates": [ 121.545714697808549, 31.290372360845378 ] } },
{ "type": "Feature", "properties": { "addr": "上海市 杨浦区 控江路888弄  " }, "geometry": { "type": "Point", "coordinates": [ 121.540224254531566, 31.289846452580182 ] } },
{ "type": "Feature", "properties": { "addr": "上海市 杨浦区 控江七村  " }, "geometry": { "type": "Point", "coordinates": [ 121.538589967317264, 31.289141868181961 ] } },
{ "type": "Feature", "properties": { "addr": "上海市 杨浦区 控江西三村  " }, "geometry": { "type": "Point", "coordinates": [ 121.538019453487891, 31.291062895422108 ] } },
{ "type": "Feature", "properties": { "addr": "上海市 杨浦区 辽源西路230弄  " }, "geometry": { "type": "Point", "coordinates": [ 121.515985366786396, 31.275367189652901 ] } },
{ "type": "Feature", "properties": { "addr": "上海市 杨浦区 隆昌路102号  " }, "geometry": { "type": "Point", "coordinates": [ 121.556341292669387, 31.275185866378248 ] } },
{ "type": "Feature", "properties": { "addr": "上海市 杨浦区 隆昌路362号  " }, "geometry": { "type": "Point", "coordinates": [ 121.552613863786291, 31.277566574363895 ] } },
{ "type": "Feature", "properties": { "addr": "上海市 杨浦区 三门路358弄  " }, "geometry": { "type": "Point", "coordinates": [ 121.499199540196386, 31.316978046779749 ] } },
{ "type": "Feature", "properties": { "addr": "上海市 杨浦区 双辽新村  " }, "geometry": { "type": "Point", "coordinates": [ 121.522975980265031, 31.277896419735892 ] } },
{ "type": "Feature", "properties": { "addr": "上海市 杨浦区 双阳路281号  " }, "geometry": { "type": "Point", "coordinates": [ 121.541471012748872, 31.282866874833363 ] } },
{ "type": "Feature", "properties": { "addr": "上海市 杨浦区 松花江路55弄  " }, "geometry": { "type": "Point", "coordinates": [ 121.549851304851444, 31.3051391672929 ] } },
{ "type": "Feature", "properties": { "addr": "上海市 杨浦区 延吉东路137弄  " }, "geometry": { "type": "Point", "coordinates": [ 121.551377615743448, 31.299151281680984 ] } },
{ "type": "Feature", "properties": { "addr": "上海市 杨浦区 延吉西路80弄  " }, "geometry": { "type": "Point", "coordinates": [ 121.52891620511086, 31.28660916235966 ] } },
{ "type": "Feature", "properties": { "addr": "上海市 杨浦区 永吉路158号  " }, "geometry": { "type": "Point", "coordinates": [ 121.539985574757566, 31.289369992717447 ] } },
{ "type": "Feature", "properties": { "addr": "上海市 杨浦区 闸殷路171号  " }, "geometry": { "type": "Point", "coordinates": [ 121.535249169125663, 31.337394488048396 ] } },
{ "type": "Feature", "properties": { "addr": "上海市 杨浦区 周家嘴路2200号  " }, "geometry": { "type": "Point", "coordinates": [ 121.524248160528259, 31.274115125975182 ] } },
{ "type": "Feature", "properties": { "addr": "上海市 宝山区 爱辉路28弄  " }, "geometry": { "type": "Point", "coordinates": [ 121.459733206259912, 31.334766628089632 ] } },
{ "type": "Feature", "properties": { "addr": "上海市 宝山区 宝荻路535弄  " }, "geometry": { "type": "Point", "coordinates": [ 121.401101344606957, 31.366305767930893 ] } },
{ "type": "Feature", "properties": { "addr": "上海市 宝山区 陈川路555弄  " }, "geometry": { "type": "Point", "coordinates": [ 121.338774932052559, 31.486513847260916 ] } },
{ "type": "Feature", "properties": { "addr": "上海市 宝山区 顾太路98号  " }, "geometry": { "type": "Point", "coordinates": [ 121.405602663686906, 31.35086326573882 ] } },
{ "type": "Feature", "properties": { "addr": "上海市 宝山区 金塘路1号  " }, "geometry": { "type": "Point", "coordinates": [ 121.38221887295667, 31.461861351698293 ] } },
{ "type": "Feature", "properties": { "addr": "上海市 宝山区 兰岗路679号  " }, "geometry": { "type": "Point", "coordinates": [ 121.462147941301282, 31.382041582421259 ] } },
{ "type": "Feature", "properties": { "addr": "上海市 宝山区 罗和路855弄  " }, "geometry": { "type": "Point", "coordinates": [ 121.340170988645625, 31.397916906109284 ] } },
{ "type": "Feature", "properties": { "addr": "上海市 宝山区 盘古路1848号  " }, "geometry": { "type": "Point", "coordinates": [ 121.454297020635721, 31.401951926709412 ] } },
{ "type": "Feature", "properties": { "addr": "上海市 宝山区 淞发路26号  " }, "geometry": { "type": "Point", "coordinates": [ 121.504981034458595, 31.349904336633482 ] } },
{ "type": "Feature", "properties": { "addr": "上海市 宝山区 苏家浜路435弄  " }, "geometry": { "type": "Point", "coordinates": [ 121.39753597003785, 31.365937924531664 ] } },
{ "type": "Feature", "properties": { "addr": "上海市 宝山区 通南路167弄  " }, "geometry": { "type": "Point", "coordinates": [ 121.479752573363626, 31.34624361609222 ] } },
{ "type": "Feature", "properties": { "addr": "上海市 宝山区 新二路183弄  " }, "geometry": { "type": "Point", "coordinates": [ 121.481739175998953, 31.331699849571358 ] } },
{ "type": "Feature", "properties": { "addr": "上海市 宝山区 新沪路1206弄  " }, "geometry": { "type": "Point", "coordinates": [ 121.426983592452103, 31.282546768274901 ] } },
{ "type": "Feature", "properties": { "addr": "上海市 宝山区 友谊路322号  " }, "geometry": { "type": "Point", "coordinates": [ 121.480256073601979, 31.407059542289549 ] } },
{ "type": "Feature", "properties": { "addr": "上海市 宝山区 共富一村  " }, "geometry": { "type": "Point", "coordinates": [ 121.436478591862013, 31.35861521045371 ] } },
{ "type": "Feature", "properties": { "addr": "上海市 宝山区 江杨新村  " }, "geometry": { "type": "Point", "coordinates": [ 121.472806964991037, 31.346536904621956 ] } },
{ "type": "Feature", "properties": { "addr": "上海市 宝山区 茂盛村  " }, "geometry": { "type": "Point", "coordinates": [ 121.405930185875846, 31.416320925452265 ] } },
{ "type": "Feature", "properties": { "addr": "上海市 宝山区 泗塘一村  " }, "geometry": { "type": "Point", "coordinates": [ 121.460399838778869, 31.344727429194499 ] } },
{ "type": "Feature", "properties": { "addr": "上海市 宝山区 淞南五村  " }, "geometry": { "type": "Point", "coordinates": [ 121.491637424752284, 31.344884793040421 ] } },
{ "type": "Feature", "properties": { "addr": "上海市 宝山区 通河三村  " }, "geometry": { "type": "Point", "coordinates": [ 121.450739012171809, 31.340732873673815 ] } },
{ "type": "Feature", "properties": { "addr": "上海市 宝山区 通河六村  " }, "geometry": { "type": "Point", "coordinates": [ 121.458292414052465, 31.337235877827968 ] } },
{ "type": "Feature", "properties": { "addr": "上海市 闵行区 宝铭路88弄  " }, "geometry": { "type": "Point", "coordinates": [ 121.373712728252144, 31.145016382728766 ] } },
{ "type": "Feature", "properties": { "addr": "上海市 闵行区 北翟路2900弄  " }, "geometry": { "type": "Point", "coordinates": [ 121.330342178908197, 31.228948833312963 ] } },
{ "type": "Feature", "properties": { "addr": "上海市 闵行区 莘南路110号  " }, "geometry": { "type": "Point", "coordinates": [ 121.384500524036753, 31.109699570410271 ] } },
{ "type": "Feature", "properties": { "addr": "上海市 闵行区 知新村  " }, "geometry": { "type": "Point", "coordinates": [ 121.524773399759951, 31.114400591694558 ] } },
{ "type": "Feature", "properties": { "addr": "上海市 闵行区 紫薇新村  " }, "geometry": { "type": "Point", "coordinates": [ 121.304189990257314, 31.208265139877536 ] } },
{ "type": "Feature", "properties": { "addr": "上海市 嘉定区 和静东路75弄  " }, "geometry": { "type": "Point", "coordinates": [ 121.200180764751138, 31.305927629348457 ] } },
{ "type": "Feature", "properties": { "addr": "上海市 金山区 天华路305号  " }, "geometry": { "type": "Point", "coordinates": [ 121.441778145218123, 30.811425898653255 ] } },
{ "type": "Feature", "properties": { "addr": "上海市 松江区 沪亭南路501弄  " }, "geometry": { "type": "Point", "coordinates": [ 121.339041728789041, 31.125506560096127 ] } },
{ "type": "Feature", "properties": { "addr": "上海市 松江区 涞寅路1200弄  " }, "geometry": { "type": "Point", "coordinates": [ 121.310462138989081, 31.151463411630228 ] } },
{ "type": "Feature", "properties": { "addr": "上海市 松江区 沪亭南路700弄  " }, "geometry": { "type": "Point", "coordinates": [ 121.340810312677064, 31.121484780353438 ] } },
{ "type": "Feature", "properties": { "addr": "上海市 青浦区 华南路577号  " }, "geometry": { "type": "Point", "coordinates": [ 121.209201099529565, 31.234834462832769 ] } },
{ "type": "Feature", "properties": { "addr": "上海市 青浦区 联民路88弄  " }, "geometry": { "type": "Point", "coordinates": [ 121.28564617978428, 31.163857643238746 ] } },
{ "type": "Feature", "properties": { "addr": "上海市 青浦区 龙联路蟠秀路  " }, "geometry": { "type": "Point", "coordinates": [ 121.303204279621212, 31.191102723862432 ] } },
{ "type": "Feature", "properties": { "addr": "上海市 青浦区 蟠龙路200号  " }, "geometry": { "type": "Point", "coordinates": [ 121.295187801250179, 31.181580377782609 ] } },
{ "type": "Feature", "properties": { "addr": "上海市 青浦区 崧泽大道333号  " }, "geometry": { "type": "Point", "coordinates": [ 121.308617558454898, 31.196205058244473 ] } },
{ "type": "Feature", "properties": { "addr": "上海市 青浦区 盈港东路蟠秀路  " }, "geometry": { "type": "Point", "coordinates": [ 121.225740071765429, 31.170191449088204 ] } },
{ "type": "Feature", "properties": { "addr": "上海市 青浦区 诸光路光联一路  " }, "geometry": { "type": "Point", "coordinates": [ 121.323569584176823, 31.173094445325805 ] } }
]
}
