{
"type": "FeatureCollection",
"crs": { "type": "name", "properties": { "name": "urn:ogc:def:crs:OGC:1.3:CRS84" } },
"features": [
{ "type": "Feature", "properties": { "addr": "上海市 浦东新区 北艾路1200弄  " }, "geometry": { "type": "Point", "coordinates": [ 121.538886767457754, 31.188481867872763 ] } },
{ "type": "Feature", "properties": { "addr": "上海市 浦东新区 北艾路155弄  " }, "geometry": { "type": "Point", "coordinates": [ 121.549882026899894, 31.192539931368604 ] } },
{ "type": "Feature", "properties": { "addr": "上海市 浦东新区 北艾路1765弄  " }, "geometry": { "type": "Point", "coordinates": [ 121.528398601476013, 31.184265453706548 ] } },
{ "type": "Feature", "properties": { "addr": "上海市 浦东新区 北艾路73弄  " }, "geometry": { "type": "Point", "coordinates": [ 121.550455145815263, 31.191186130381443 ] } },
{ "type": "Feature", "properties": { "addr": "上海市 浦东新区 北蔡镇杨桥村西计队金家宅  " }, "geometry": { "type": "Point", "coordinates": [ 121.570644651982562, 31.190980934765687 ] } },
{ "type": "Feature", "properties": { "addr": "上海市 浦东新区 北蔡镇一六村王家队西王家宅  " }, "geometry": { "type": "Point", "coordinates": [ 121.595057990657793, 31.1663735887578 ] } },
{ "type": "Feature", "properties": { "addr": "上海市 浦东新区 北蔡镇一六村赵家队南赵家宅  " }, "geometry": { "type": "Point", "coordinates": [ 121.602726734965927, 31.173188295681612 ] } },
{ "type": "Feature", "properties": { "addr": "上海市 浦东新区 北蔡镇中界村复兴队苏家宅  " }, "geometry": { "type": "Point", "coordinates": [ 121.577029627886375, 31.191610498511331 ] } },
{ "type": "Feature", "properties": { "addr": "上海市 浦东新区 北蔡镇中界村沈家队沈家宅  " }, "geometry": { "type": "Point", "coordinates": [ 121.574173735009055, 31.195446174063392 ] } },
{ "type": "Feature", "properties": { "addr": "上海市 浦东新区 博华路999弄  " }, "geometry": { "type": "Point", "coordinates": [ 121.557113925238525, 31.176806290465709 ] } },
{ "type": "Feature", "properties": { "addr": "上海市 浦东新区 博兴路1663弄  " }, "geometry": { "type": "Point", "coordinates": [ 121.607201015050023, 31.280776093952529 ] } },
{ "type": "Feature", "properties": { "addr": "上海市 浦东新区 博兴路465弄  " }, "geometry": { "type": "Point", "coordinates": [ 121.58987225260978, 31.272066665151705 ] } },
{ "type": "Feature", "properties": { "addr": "上海市 浦东新区 博兴路799弄  " }, "geometry": { "type": "Point", "coordinates": [ 121.59697731021042, 31.27188533546996 ] } },
{ "type": "Feature", "properties": { "addr": "上海市 浦东新区 博兴路916弄  " }, "geometry": { "type": "Point", "coordinates": [ 121.597995000522658, 31.270420178729555 ] } },
{ "type": "Feature", "properties": { "addr": "上海市 浦东新区 博兴路986弄  " }, "geometry": { "type": "Point", "coordinates": [ 121.597262971362582, 31.27067103482398 ] } },
{ "type": "Feature", "properties": { "addr": "上海市 浦东新区 彩云路568弄  " }, "geometry": { "type": "Point", "coordinates": [ 121.814337689373787, 30.905357779154976 ] } },
{ "type": "Feature", "properties": { "addr": "上海市 浦东新区 曹路镇光明村施家宅  " }, "geometry": { "type": "Point", "coordinates": [ 121.664900525414168, 31.296640292704971 ] } },
{ "type": "Feature", "properties": { "addr": "上海市 浦东新区 曹路镇光明村双盘宅  " }, "geometry": { "type": "Point", "coordinates": [ 121.659328605827412, 31.296363355434945 ] } },
{ "type": "Feature", "properties": { "addr": "上海市 浦东新区 曹路镇民建村徐家宅  " }, "geometry": { "type": "Point", "coordinates": [ 121.653580977682921, 31.273397305600508 ] } },
{ "type": "Feature", "properties": { "addr": "上海市 浦东新区 曹路镇星火村陆家宅  " }, "geometry": { "type": "Point", "coordinates": [ 121.708317606983513, 31.261823069883153 ] } },
{ "type": "Feature", "properties": { "addr": "上海市 浦东新区 曹路镇众三村南俞家圈  " }, "geometry": { "type": "Point", "coordinates": [ 121.672454286617011, 31.288550068724149 ] } },
{ "type": "Feature", "properties": { "addr": "上海市 浦东新区 昌里路167弄  " }, "geometry": { "type": "Point", "coordinates": [ 121.504545446116822, 31.181091626219736 ] } },
{ "type": "Feature", "properties": { "addr": "上海市 浦东新区 昌里路93弄  " }, "geometry": { "type": "Point", "coordinates": [ 121.510208364051707, 31.18174319142264 ] } },
{ "type": "Feature", "properties": { "addr": "上海市 浦东新区 昌里路98弄  " }, "geometry": { "type": "Point", "coordinates": [ 121.509564638323255, 31.180671999148611 ] } },
{ "type": "Feature", "properties": { "addr": "上海市 浦东新区 陈春路620弄  " }, "geometry": { "type": "Point", "coordinates": [ 121.552907609688049, 31.178078194108803 ] } },
{ "type": "Feature", "properties": { "addr": "上海市 浦东新区 成山路601弄  " }, "geometry": { "type": "Point", "coordinates": [ 121.515312086806659, 31.180125469338968 ] } },
{ "type": "Feature", "properties": { "addr": "上海市 浦东新区 川北公路2999弄  " }, "geometry": { "type": "Point", "coordinates": [ 121.618206245683311, 31.209523335924278 ] } },
{ "type": "Feature", "properties": { "addr": "上海市 浦东新区 川六公路1159弄  " }, "geometry": { "type": "Point", "coordinates": [ 121.7238182278804, 31.163163388294929 ] } },
{ "type": "Feature", "properties": { "addr": "上海市 浦东新区 川沙新镇果园村  " }, "geometry": { "type": "Point", "coordinates": [ 121.707774401641643, 31.20232857380201 ] } },
{ "type": "Feature", "properties": { "addr": "上海市 浦东新区 川沙新镇黄楼村南华家宅  " }, "geometry": { "type": "Point", "coordinates": [ 121.685748938673044, 31.165357454311206 ] } },
{ "type": "Feature", "properties": { "addr": "上海市 浦东新区 川沙新镇鹿溪村砖桥  " }, "geometry": { "type": "Point", "coordinates": [ 121.702793387419362, 31.124679790400943 ] } },
{ "type": "Feature", "properties": { "addr": "上海市 浦东新区 川周公路2828弄  " }, "geometry": { "type": "Point", "coordinates": [ 121.624521962232308, 31.149124848312649 ] } },
{ "type": "Feature", "properties": { "addr": "上海市 浦东新区 川周公路2928弄  " }, "geometry": { "type": "Point", "coordinates": [ 121.620997999547228, 31.147934683568153 ] } },
{ "type": "Feature", "properties": { "addr": "上海市 浦东新区 创新西路333弄  " }, "geometry": { "type": "Point", "coordinates": [ 121.658090112020815, 31.20731771752115 ] } },
{ "type": "Feature", "properties": { "addr": "上海市 浦东新区 创新中路399弄  " }, "geometry": { "type": "Point", "coordinates": [ 121.673244705635241, 31.215325489578447 ] } },
{ "type": "Feature", "properties": { "addr": "上海市 浦东新区 大同路1010弄  " }, "geometry": { "type": "Point", "coordinates": [ 121.578601123545553, 31.341412626376524 ] } },
{ "type": "Feature", "properties": { "addr": "上海市 浦东新区 德平路155弄  " }, "geometry": { "type": "Point", "coordinates": [ 121.567954047319077, 31.256601836594431 ] } },
{ "type": "Feature", "properties": { "addr": "上海市 浦东新区 东波路195弄  " }, "geometry": { "type": "Point", "coordinates": [ 121.586241571230104, 31.290794581956991 ] } },
{ "type": "Feature", "properties": { "addr": "上海市 浦东新区 东波路49弄  " }, "geometry": { "type": "Point", "coordinates": [ 121.583378042755953, 31.290723839031642 ] } },
{ "type": "Feature", "properties": { "addr": "上海市 浦东新区 东方路1800弄  " }, "geometry": { "type": "Point", "coordinates": [ 121.528473609986094, 31.209089242825165 ] } },
{ "type": "Feature", "properties": { "addr": "上海市 浦东新区 东高路152号  " }, "geometry": { "type": "Point", "coordinates": [ 121.58309031550111, 31.295919251250389 ] } },
{ "type": "Feature", "properties": { "addr": "上海市 浦东新区 东陆路1182弄  " }, "geometry": { "type": "Point", "coordinates": [ 121.602356004281958, 31.275368269875603 ] } },
{ "type": "Feature", "properties": { "addr": "上海市 浦东新区 东陆路1268弄  " }, "geometry": { "type": "Point", "coordinates": [ 121.601560554752865, 31.272878863483545 ] } },
{ "type": "Feature", "properties": { "addr": "上海市 浦东新区 东陆路1350弄  " }, "geometry": { "type": "Point", "coordinates": [ 121.58962611690005, 31.28158489894264 ] } },
{ "type": "Feature", "properties": { "addr": "上海市 浦东新区 东陆路898弄  " }, "geometry": { "type": "Point", "coordinates": [ 121.598981609464275, 31.280897766199242 ] } },
{ "type": "Feature", "properties": { "addr": "上海市 浦东新区 东三街102弄  " }, "geometry": { "type": "Point", "coordinates": [ 121.517106182571183, 31.20763978042601 ] } },
{ "type": "Feature", "properties": { "addr": "上海市 浦东新区 东三里桥路160弄  " }, "geometry": { "type": "Point", "coordinates": [ 121.516139875334105, 31.206028219370221 ] } },
{ "type": "Feature", "properties": { "addr": "上海市 浦东新区 东三里桥路190弄  " }, "geometry": { "type": "Point", "coordinates": [ 121.518021016902551, 31.20624372894958 ] } },
{ "type": "Feature", "properties": { "addr": "上海市 浦东新区 东书房路390弄  " }, "geometry": { "type": "Point", "coordinates": [ 121.5416177958692, 31.169666487058681 ] } },
{ "type": "Feature", "properties": { "addr": "上海市 浦东新区 东绣路1155弄  " }, "geometry": { "type": "Point", "coordinates": [ 121.541281200794614, 31.204941938527192 ] } },
{ "type": "Feature", "properties": { "addr": "上海市 浦东新区 繁荣东路150弄  " }, "geometry": { "type": "Point", "coordinates": [ 121.593214488090211, 31.112016970902442 ] } },
{ "type": "Feature", "properties": { "addr": "上海市 浦东新区 繁荣东路159弄  " }, "geometry": { "type": "Point", "coordinates": [ 121.59187017389452, 31.112814326185486 ] } },
{ "type": "Feature", "properties": { "addr": "上海市 浦东新区 芳草路352弄  " }, "geometry": { "type": "Point", "coordinates": [ 121.561626023984601, 31.199214895930286 ] } },
{ "type": "Feature", "properties": { "addr": "上海市 浦东新区 芳华路188弄  " }, "geometry": { "type": "Point", "coordinates": [ 121.536884264814915, 31.189702255537771 ] } },
{ "type": "Feature", "properties": { "addr": "上海市 浦东新区 芳华路310弄  " }, "geometry": { "type": "Point", "coordinates": [ 121.564018211557652, 31.201334527828102 ] } },
{ "type": "Feature", "properties": { "addr": "上海市 浦东新区 芳华路329弄  " }, "geometry": { "type": "Point", "coordinates": [ 121.563650175790229, 31.202246644364951 ] } },
{ "type": "Feature", "properties": { "addr": "上海市 浦东新区 芳华路371弄  " }, "geometry": { "type": "Point", "coordinates": [ 121.564425503275885, 31.203020685498792 ] } },
{ "type": "Feature", "properties": { "addr": "上海市 浦东新区 芳华路411弄  " }, "geometry": { "type": "Point", "coordinates": [ 121.565570303817807, 31.202399460853744 ] } },
{ "type": "Feature", "properties": { "addr": "上海市 浦东新区 芳华路455弄  " }, "geometry": { "type": "Point", "coordinates": [ 121.566150609177257, 31.20261752700328 ] } },
{ "type": "Feature", "properties": { "addr": "上海市 浦东新区 芳华路916弄  " }, "geometry": { "type": "Point", "coordinates": [ 121.574598004701429, 31.202853893456744 ] } },
{ "type": "Feature", "properties": { "addr": "上海市 浦东新区 芳芯路149弄  " }, "geometry": { "type": "Point", "coordinates": [ 121.5603708216955, 31.199031648878705 ] } },
{ "type": "Feature", "properties": { "addr": "上海市 浦东新区 芳芯路312弄  " }, "geometry": { "type": "Point", "coordinates": [ 121.564077499721321, 31.19718263286784 ] } },
{ "type": "Feature", "properties": { "addr": "上海市 浦东新区 福山路40弄  " }, "geometry": { "type": "Point", "coordinates": [ 121.53090649079877, 31.242456421863974 ] } },
{ "type": "Feature", "properties": { "addr": "上海市 浦东新区 高宝路528弄  " }, "geometry": { "type": "Point", "coordinates": [ 121.58962611690005, 31.28158489894264 ] } },
{ "type": "Feature", "properties": { "addr": "上海市 浦东新区 高城路200弄  " }, "geometry": { "type": "Point", "coordinates": [ 121.580680880462239, 31.340247189797189 ] } },
{ "type": "Feature", "properties": { "addr": "上海市 浦东新区 高东镇灯塔村王家宅  " }, "geometry": { "type": "Point", "coordinates": [ 121.667620055515087, 31.318000478952566 ] } },
{ "type": "Feature", "properties": { "addr": "上海市 浦东新区 高东镇珊黄村苍头宅  " }, "geometry": { "type": "Point", "coordinates": [ 121.646532423498897, 31.336547689860097 ] } },
{ "type": "Feature", "properties": { "addr": "上海市 浦东新区 高东镇先锋村卢家宅  " }, "geometry": { "type": "Point", "coordinates": [ 121.591521541526092, 31.290378301115442 ] } },
{ "type": "Feature", "properties": { "addr": "上海市 浦东新区 高科西路1655弄  " }, "geometry": { "type": "Point", "coordinates": [ 121.536884264814915, 31.189702255537771 ] } },
{ "type": "Feature", "properties": { "addr": "上海市 浦东新区 高科西路3060弄  " }, "geometry": { "type": "Point", "coordinates": [ 121.570701963874114, 31.195867897271857 ] } },
{ "type": "Feature", "properties": { "addr": "上海市 浦东新区 高桥镇凌桥村仓房浜  " }, "geometry": { "type": "Point", "coordinates": [ 121.539055648893637, 31.370296143290911 ] } },
{ "type": "Feature", "properties": { "addr": "上海市 浦东新区 高桥镇南塘村龚家宅  " }, "geometry": { "type": "Point", "coordinates": [ 121.574680918300004, 31.345394276906958 ] } },
{ "type": "Feature", "properties": { "addr": "上海市 浦东新区 高桥镇西新村尖角圩  " }, "geometry": { "type": "Point", "coordinates": [ 121.523275744813702, 31.361953760539233 ] } },
{ "type": "Feature", "properties": { "addr": "上海市 浦东新区 高桥镇新农村沈家宅  " }, "geometry": { "type": "Point", "coordinates": [ 121.558501268268131, 31.362552263234768 ] } },
{ "type": "Feature", "properties": { "addr": "上海市 浦东新区 古棕路555弄  " }, "geometry": { "type": "Point", "coordinates": [ 121.924901670525188, 30.887815475187587 ] } },
{ "type": "Feature", "properties": { "addr": "上海市 浦东新区 顾唐路138弄  " }, "geometry": { "type": "Point", "coordinates": [ 121.652778790862527, 31.290487771739045 ] } },
{ "type": "Feature", "properties": { "addr": "上海市 浦东新区 崮山路968号  " }, "geometry": { "type": "Point", "coordinates": [ 121.568139277915236, 31.241428762610123 ] } },
{ "type": "Feature", "properties": { "addr": "上海市 浦东新区 海松路421弄  " }, "geometry": { "type": "Point", "coordinates": [ 121.687246593619278, 31.286058313469407 ] } },
{ "type": "Feature", "properties": { "addr": "上海市 浦东新区 航三路航吉路交界口工地生活区  " }, "geometry": { "type": "Point", "coordinates": [ 121.614290352304209, 31.045793267667019 ] } },
{ "type": "Feature", "properties": { "addr": "上海市 浦东新区 航头镇梅园村  " }, "geometry": { "type": "Point", "coordinates": [ 121.591231748168582, 31.065555026770038 ] } },
{ "type": "Feature", "properties": { "addr": "上海市 浦东新区 合庆镇大星村顾家宅  " }, "geometry": { "type": "Point", "coordinates": [ 121.728211211315838, 31.227971358702003 ] } },
{ "type": "Feature", "properties": { "addr": "上海市 浦东新区 合庆镇勤奋村卫家宅  " }, "geometry": { "type": "Point", "coordinates": [ 121.732101682649002, 31.261476576156298 ] } },
{ "type": "Feature", "properties": { "addr": "上海市 浦东新区 合庆镇青四村南邬家宅  " }, "geometry": { "type": "Point", "coordinates": [ 121.743695932205185, 31.234053814552556 ] } },
{ "type": "Feature", "properties": { "addr": "上海市 浦东新区 合庆镇庆星村顾家宅  " }, "geometry": { "type": "Point", "coordinates": [ 121.725707094876228, 31.240436443995055 ] } },
{ "type": "Feature", "properties": { "addr": "上海市 浦东新区 合庆镇永红村丁家宅  " }, "geometry": { "type": "Point", "coordinates": [ 121.716091812358513, 31.24084075180815 ] } },
{ "type": "Feature", "properties": { "addr": "上海市 浦东新区 和炯路601弄  " }, "geometry": { "type": "Point", "coordinates": [ 121.515954914229596, 31.130611149249244 ] } },
{ "type": "Feature", "properties": { "addr": "上海市 浦东新区 鹤沙路201弄  " }, "geometry": { "type": "Point", "coordinates": [ 121.605880595780903, 31.087527234505693 ] } },
{ "type": "Feature", "properties": { "addr": "上海市 浦东新区 鹤永路751弄  " }, "geometry": { "type": "Point", "coordinates": [ 121.610426021661382, 31.077568725574618 ] } },
{ "type": "Feature", "properties": { "addr": "上海市 浦东新区 洪山路301弄  " }, "geometry": { "type": "Point", "coordinates": [ 121.510356225138665, 31.17560249621198 ] } },
{ "type": "Feature", "properties": { "addr": "上海市 浦东新区 沪东路67号  " }, "geometry": { "type": "Point", "coordinates": [ 121.586816756248155, 31.277393434011163 ] } },
{ "type": "Feature", "properties": { "addr": "上海市 浦东新区 沪南路3150弄  " }, "geometry": { "type": "Point", "coordinates": [ 121.572258906984004, 31.128503519931538 ] } },
{ "type": "Feature", "properties": { "addr": "上海市 浦东新区 花木街道龙王庙村南杨家堂  " }, "geometry": { "type": "Point", "coordinates": [ 121.558963805775221, 31.202723239483021 ] } },
{ "type": "Feature", "properties": { "addr": "上海市 浦东新区 华丰路50弄  " }, "geometry": { "type": "Point", "coordinates": [ 121.514504959305938, 31.197495463859788 ] } },
{ "type": "Feature", "properties": { "addr": "上海市 浦东新区 环林东路879弄  " }, "geometry": { "type": "Point", "coordinates": [ 121.536437537484815, 31.144278100822874 ] } },
{ "type": "Feature", "properties": { "addr": "上海市 浦东新区 环桥路1481弄  " }, "geometry": { "type": "Point", "coordinates": [ 121.584859707864112, 31.120077939878794 ] } },
{ "type": "Feature", "properties": { "addr": "上海市 浦东新区 惠南镇汇南村  " }, "geometry": { "type": "Point", "coordinates": [ 121.748981022842585, 31.041389909445435 ] } },
{ "type": "Feature", "properties": { "addr": "上海市 浦东新区 季景路19弄  " }, "geometry": { "type": "Point", "coordinates": [ 121.593380674609563, 31.346510613548009 ] } },
{ "type": "Feature", "properties": { "addr": "上海市 浦东新区 济阳路65弄  " }, "geometry": { "type": "Point", "coordinates": [ 121.488308933346161, 31.173016198002603 ] } },
{ "type": "Feature", "properties": { "addr": "上海市 浦东新区 金口路155弄  " }, "geometry": { "type": "Point", "coordinates": [ 121.58424499740363, 31.25593427683329 ] } },
{ "type": "Feature", "properties": { "addr": "上海市 浦东新区 金桥路226弄  " }, "geometry": { "type": "Point", "coordinates": [ 121.621784825343411, 31.260663815674061 ] } },
{ "type": "Feature", "properties": { "addr": "上海市 浦东新区 金杨路660弄  " }, "geometry": { "type": "Point", "coordinates": [ 121.588399929878932, 31.25750168417267 ] } },
{ "type": "Feature", "properties": { "addr": "上海市 浦东新区 锦绣路3841弄  " }, "geometry": { "type": "Point", "coordinates": [ 121.553378142114184, 31.174276257765616 ] } },
{ "type": "Feature", "properties": { "addr": "上海市 浦东新区 京浦路82弄  " }, "geometry": { "type": "Point", "coordinates": [ 121.57334019732636, 31.159691572984912 ] } },
{ "type": "Feature", "properties": { "addr": "上海市 浦东新区 居家桥路151弄  " }, "geometry": { "type": "Point", "coordinates": [ 121.568042171089616, 31.266784117232525 ] } },
{ "type": "Feature", "properties": { "addr": "上海市 浦东新区 康桥路1558弄  " }, "geometry": { "type": "Point", "coordinates": [ 121.58763637019544, 31.155405954675448 ] } },
{ "type": "Feature", "properties": { "addr": "上海市 浦东新区 康桥路90弄  " }, "geometry": { "type": "Point", "coordinates": [ 121.584859707864112, 31.120077939878794 ] } },
{ "type": "Feature", "properties": { "addr": "上海市 浦东新区 康桥镇花墙村  " }, "geometry": { "type": "Point", "coordinates": [ 121.552741692660348, 31.156328175262196 ] } },
{ "type": "Feature", "properties": { "addr": "上海市 浦东新区 康沈路2132弄  " }, "geometry": { "type": "Point", "coordinates": [ 121.584859707864112, 31.120077939878794 ] } },
{ "type": "Feature", "properties": { "addr": "上海市 浦东新区 康沈路2588弄  " }, "geometry": { "type": "Point", "coordinates": [ 121.587931553386028, 31.102745480162682 ] } },
{ "type": "Feature", "properties": { "addr": "上海市 浦东新区 康梧路189号工地生活区  " }, "geometry": { "type": "Point", "coordinates": [ 121.557148959153409, 31.142277176998409 ] } },
{ "type": "Feature", "properties": { "addr": "上海市 浦东新区 康悦路325弄  " }, "geometry": { "type": "Point", "coordinates": [ 121.538534631697857, 31.365243165209964 ] } },
{ "type": "Feature", "properties": { "addr": "上海市 浦东新区 蓝村路30弄  " }, "geometry": { "type": "Point", "coordinates": [ 121.538649794464234, 31.216749431857739 ] } },
{ "type": "Feature", "properties": { "addr": "上海市 浦东新区 崂山路150弄  " }, "geometry": { "type": "Point", "coordinates": [ 121.529405132543147, 31.233323181414921 ] } },
{ "type": "Feature", "properties": { "addr": "上海市 浦东新区 崂山四村  " }, "geometry": { "type": "Point", "coordinates": [ 121.524541996260581, 31.24117281086977 ] } },
{ "type": "Feature", "properties": { "addr": "上海市 浦东新区 利津路729弄  " }, "geometry": { "type": "Point", "coordinates": [ 121.596582954091531, 31.280678570870514 ] } },
{ "type": "Feature", "properties": { "addr": "上海市 浦东新区 莲安西路125弄  " }, "geometry": { "type": "Point", "coordinates": [ 121.559745780721656, 31.185327182486329 ] } },
{ "type": "Feature", "properties": { "addr": "上海市 浦东新区 莲溪路126弄  " }, "geometry": { "type": "Point", "coordinates": [ 121.565660403860448, 31.193483178521433 ] } },
{ "type": "Feature", "properties": { "addr": "上海市 浦东新区 莲中路337弄  " }, "geometry": { "type": "Point", "coordinates": [ 121.564751767837109, 31.187770109319516 ] } },
{ "type": "Feature", "properties": { "addr": "上海市 浦东新区 林展路278弄  " }, "geometry": { "type": "Point", "coordinates": [ 121.512901034817872, 31.132805821704117 ] } },
{ "type": "Feature", "properties": { "addr": "上海市 浦东新区 临沂路101弄  " }, "geometry": { "type": "Point", "coordinates": [ 121.521040491213228, 31.201323022068365 ] } },
{ "type": "Feature", "properties": { "addr": "上海市 浦东新区 临沂路181弄  " }, "geometry": { "type": "Point", "coordinates": [ 121.520668143579343, 31.197579250803219 ] } },
{ "type": "Feature", "properties": { "addr": "上海市 浦东新区 灵山路1724弄  " }, "geometry": { "type": "Point", "coordinates": [ 121.574529733482663, 31.246303135635344 ] } },
{ "type": "Feature", "properties": { "addr": "上海市 浦东新区 灵山路2011弄  " }, "geometry": { "type": "Point", "coordinates": [ 121.580017841165329, 31.249525074658717 ] } },
{ "type": "Feature", "properties": { "addr": "上海市 浦东新区 灵岩南路156弄  " }, "geometry": { "type": "Point", "coordinates": [ 121.50071075955583, 31.164839185970084 ] } },
{ "type": "Feature", "properties": { "addr": "上海市 浦东新区 凌河路188弄  " }, "geometry": { "type": "Point", "coordinates": [ 121.602161970291789, 31.281903851498075 ] } },
{ "type": "Feature", "properties": { "addr": "上海市 浦东新区 凌河路420弄  " }, "geometry": { "type": "Point", "coordinates": [ 121.605932248347727, 31.279917054061343 ] } },
{ "type": "Feature", "properties": { "addr": "上海市 浦东新区 凌空北路东靖路交界口工地生活区  " }, "geometry": { "type": "Point", "coordinates": [ 121.704172915191037, 31.256209327467289 ] } },
{ "type": "Feature", "properties": { "addr": "上海市 浦东新区 凌兆路334弄  " }, "geometry": { "type": "Point", "coordinates": [ 121.505458214345509, 31.148676181773208 ] } },
{ "type": "Feature", "properties": { "addr": "上海市 浦东新区 凌兆路379弄  " }, "geometry": { "type": "Point", "coordinates": [ 121.525530311982649, 31.139159418419815 ] } },
{ "type": "Feature", "properties": { "addr": "上海市 浦东新区 凌兆路396弄  " }, "geometry": { "type": "Point", "coordinates": [ 121.525530311982649, 31.139159418419815 ] } },
{ "type": "Feature", "properties": { "addr": "上海市 浦东新区 龙汇路55弄  " }, "geometry": { "type": "Point", "coordinates": [ 121.556693967412613, 31.205061933490096 ] } },
{ "type": "Feature", "properties": { "addr": "上海市 浦东新区 龙居路180弄  " }, "geometry": { "type": "Point", "coordinates": [ 121.56897173763133, 31.258551238155807 ] } },
{ "type": "Feature", "properties": { "addr": "上海市 浦东新区 龙阳路1188号  " }, "geometry": { "type": "Point", "coordinates": [ 121.537174956477955, 31.204222274391203 ] } },
{ "type": "Feature", "properties": { "addr": "上海市 浦东新区 马樱丹路127弄  " }, "geometry": { "type": "Point", "coordinates": [ 121.925623459002452, 30.889125527348181 ] } },
{ "type": "Feature", "properties": { "addr": "上海市 浦东新区 妙川路1000弄  " }, "geometry": { "type": "Point", "coordinates": [ 121.710073524763871, 31.184302294282435 ] } },
{ "type": "Feature", "properties": { "addr": "上海市 浦东新区 民生路260号  " }, "geometry": { "type": "Point", "coordinates": [ 121.546196818375762, 31.248510613846285 ] } },
{ "type": "Feature", "properties": { "addr": "上海市 浦东新区 南汇新城镇庙港村  " }, "geometry": { "type": "Point", "coordinates": [ 121.869102794959048, 30.879784163204182 ] } },
{ "type": "Feature", "properties": { "addr": "上海市 浦东新区 南码头路1621弄  " }, "geometry": { "type": "Point", "coordinates": [ 121.523180793921313, 31.181688431079078 ] } },
{ "type": "Feature", "properties": { "addr": "上海市 浦东新区 南泉北路101弄  " }, "geometry": { "type": "Point", "coordinates": [ 121.522040215415288, 31.244123854864959 ] } },
{ "type": "Feature", "properties": { "addr": "上海市 浦东新区 南泉北路170弄  " }, "geometry": { "type": "Point", "coordinates": [ 121.523003378583098, 31.242401697016358 ] } },
{ "type": "Feature", "properties": { "addr": "上海市 浦东新区 南泉北路301弄  " }, "geometry": { "type": "Point", "coordinates": [ 121.523199299014806, 31.239984741026475 ] } },
{ "type": "Feature", "properties": { "addr": "上海市 浦东新区 鹏岳路152弄  " }, "geometry": { "type": "Point", "coordinates": [ 121.560933340605843, 31.177214966797443 ] } },
{ "type": "Feature", "properties": { "addr": "上海市 浦东新区 浦城路580弄  " }, "geometry": { "type": "Point", "coordinates": [ 121.521080555638974, 31.230158967011022 ] } },
{ "type": "Feature", "properties": { "addr": "上海市 浦东新区 浦电路149弄  " }, "geometry": { "type": "Point", "coordinates": [ 121.527706996063884, 31.224477857258311 ] } },
{ "type": "Feature", "properties": { "addr": "上海市 浦东新区 浦电路218号  " }, "geometry": { "type": "Point", "coordinates": [ 121.53050378043865, 31.225407427168228 ] } },
{ "type": "Feature", "properties": { "addr": "上海市 浦东新区 浦电路221号  " }, "geometry": { "type": "Point", "coordinates": [ 121.530044566661957, 31.224988307387651 ] } },
{ "type": "Feature", "properties": { "addr": "上海市 浦东新区 浦电路29弄  " }, "geometry": { "type": "Point", "coordinates": [ 121.521798301741455, 31.221982772166619 ] } },
{ "type": "Feature", "properties": { "addr": "上海市 浦东新区 浦电路305弄  " }, "geometry": { "type": "Point", "coordinates": [ 121.531913940428211, 31.225381642362095 ] } },
{ "type": "Feature", "properties": { "addr": "上海市 浦东新区 浦电路62弄  " }, "geometry": { "type": "Point", "coordinates": [ 121.524943538823536, 31.224365530063924 ] } },
{ "type": "Feature", "properties": { "addr": "上海市 浦东新区 浦东大道1097弄  " }, "geometry": { "type": "Point", "coordinates": [ 121.538694260586979, 31.248738606074184 ] } },
{ "type": "Feature", "properties": { "addr": "上海市 浦东新区 浦东大道136弄  " }, "geometry": { "type": "Point", "coordinates": [ 121.520173536565551, 31.24402420953977 ] } },
{ "type": "Feature", "properties": { "addr": "上海市 浦东新区 浦东大道140弄  " }, "geometry": { "type": "Point", "coordinates": [ 121.521669035578569, 31.244048831438676 ] } },
{ "type": "Feature", "properties": { "addr": "上海市 浦东新区 浦东大道2515号  " }, "geometry": { "type": "Point", "coordinates": [ 121.567126438452732, 31.265071251049392 ] } },
{ "type": "Feature", "properties": { "addr": "上海市 浦东新区 浦东大道2639弄  " }, "geometry": { "type": "Point", "coordinates": [ 121.573829414507088, 31.270096402842292 ] } },
{ "type": "Feature", "properties": { "addr": "上海市 浦东新区 浦东大道2641弄  " }, "geometry": { "type": "Point", "coordinates": [ 121.57542031356526, 31.271472442613302 ] } },
{ "type": "Feature", "properties": { "addr": "上海市 浦东新区 浦东大道2742弄  " }, "geometry": { "type": "Point", "coordinates": [ 121.577979316471527, 31.272927088984172 ] } },
{ "type": "Feature", "properties": { "addr": "上海市 浦东新区 浦东大道290弄  " }, "geometry": { "type": "Point", "coordinates": [ 121.52343779912772, 31.24488774737473 ] } },
{ "type": "Feature", "properties": { "addr": "上海市 浦东新区 浦东大道2970弄  " }, "geometry": { "type": "Point", "coordinates": [ 121.585274365687511, 31.282935231984698 ] } },
{ "type": "Feature", "properties": { "addr": "上海市 浦东新区 浦东大道3036弄  " }, "geometry": { "type": "Point", "coordinates": [ 121.584040992222327, 31.28568683580724 ] } },
{ "type": "Feature", "properties": { "addr": "上海市 浦东新区 浦东南路1299号  " }, "geometry": { "type": "Point", "coordinates": [ 121.524214204579991, 31.230766807032126 ] } },
{ "type": "Feature", "properties": { "addr": "上海市 浦东新区 浦东南路1533号  " }, "geometry": { "type": "Point", "coordinates": [ 121.527644653661497, 31.227372301137734 ] } },
{ "type": "Feature", "properties": { "addr": "上海市 浦东新区 浦东南路1700弄  " }, "geometry": { "type": "Point", "coordinates": [ 121.525060767692594, 31.223784977741762 ] } },
{ "type": "Feature", "properties": { "addr": "上海市 浦东新区 浦东南路2108号  " }, "geometry": { "type": "Point", "coordinates": [ 121.52288614971404, 31.215786267718542 ] } },
{ "type": "Feature", "properties": { "addr": "上海市 浦东新区 浦东南路2351弄  " }, "geometry": { "type": "Point", "coordinates": [ 121.519461719279448, 31.205598665834319 ] } },
{ "type": "Feature", "properties": { "addr": "上海市 浦东新区 浦明路1199弄  " }, "geometry": { "type": "Point", "coordinates": [ 121.523175583749364, 31.219601652113855 ] } },
{ "type": "Feature", "properties": { "addr": "上海市 浦东新区 浦明路688弄  " }, "geometry": { "type": "Point", "coordinates": [ 121.518068267772378, 31.228462799195931 ] } },
{ "type": "Feature", "properties": { "addr": "上海市 浦东新区 浦三路277弄  " }, "geometry": { "type": "Point", "coordinates": [ 121.521689337283092, 31.199345245911452 ] } },
{ "type": "Feature", "properties": { "addr": "上海市 浦东新区 浦三路909号工地生活区  " }, "geometry": { "type": "Point", "coordinates": [ 121.527602831925591, 31.186008949946785 ] } },
{ "type": "Feature", "properties": { "addr": "上海市 浦东新区 栖山路1555弄  " }, "geometry": { "type": "Point", "coordinates": [ 121.572285586657642, 31.264422966568642 ] } },
{ "type": "Feature", "properties": { "addr": "上海市 浦东新区 栖霞路190弄  " }, "geometry": { "type": "Point", "coordinates": [ 121.526081152921378, 31.244186142787363 ] } },
{ "type": "Feature", "properties": { "addr": "上海市 浦东新区 清溪路365弄  " }, "geometry": { "type": "Point", "coordinates": [ 121.578081633469125, 31.347103664355974 ] } },
{ "type": "Feature", "properties": { "addr": "上海市 浦东新区 瑞安路699弄  " }, "geometry": { "type": "Point", "coordinates": [ 121.600951054464346, 31.096582454583743 ] } },
{ "type": "Feature", "properties": { "addr": "上海市 浦东新区 瑞安路80弄  " }, "geometry": { "type": "Point", "coordinates": [ 121.592960267630886, 31.09521536386751 ] } },
{ "type": "Feature", "properties": { "addr": "上海市 浦东新区 瑞福路52弄  " }, "geometry": { "type": "Point", "coordinates": [ 121.607602647443528, 31.101758418286778 ] } },
{ "type": "Feature", "properties": { "addr": "上海市 浦东新区 瑞浦路612弄  " }, "geometry": { "type": "Point", "coordinates": [ 121.592520906405952, 31.096345433832941 ] } },
{ "type": "Feature", "properties": { "addr": "上海市 浦东新区 瑞浦路77弄  " }, "geometry": { "type": "Point", "coordinates": [ 121.592640920022092, 31.103960025909874 ] } },
{ "type": "Feature", "properties": { "addr": "上海市 浦东新区 瑞意路399弄  " }, "geometry": { "type": "Point", "coordinates": [ 121.592686284450338, 31.102791860761887 ] } },
{ "type": "Feature", "properties": { "addr": "上海市 浦东新区 三林路184号  " }, "geometry": { "type": "Point", "coordinates": [ 121.502530996010705, 31.14241486936929 ] } },
{ "type": "Feature", "properties": { "addr": "上海市 浦东新区 三林路88弄  " }, "geometry": { "type": "Point", "coordinates": [ 121.536884264814915, 31.189702255537771 ] } },
{ "type": "Feature", "properties": { "addr": "上海市 浦东新区 三林镇天花庵村北陈队大陈家宅  " }, "geometry": { "type": "Point", "coordinates": [ 121.531939542135248, 31.128535900177152 ] } },
{ "type": "Feature", "properties": { "addr": "上海市 浦东新区 三林镇天花庵村东瞿队大瞿家宅  " }, "geometry": { "type": "Point", "coordinates": [ 121.532611205165054, 31.127077618859801 ] } },
{ "type": "Feature", "properties": { "addr": "上海市 浦东新区 三林镇天花庵村闵北队闵家宅  " }, "geometry": { "type": "Point", "coordinates": [ 121.539890174712411, 31.126238497918969 ] } },
{ "type": "Feature", "properties": { "addr": "上海市 浦东新区 三林镇天花庵村南陈队大陈家宅  " }, "geometry": { "type": "Point", "coordinates": [ 121.531939542135248, 31.128535900177152 ] } },
{ "type": "Feature", "properties": { "addr": "上海市 浦东新区 三林镇天花庵村南王家队南王家宅  " }, "geometry": { "type": "Point", "coordinates": [ 121.553801423670478, 31.162845112362536 ] } },
{ "type": "Feature", "properties": { "addr": "上海市 浦东新区 三舒路288弄  " }, "geometry": { "type": "Point", "coordinates": [ 121.525530311982649, 31.139159418419815 ] } },
{ "type": "Feature", "properties": { "addr": "上海市 浦东新区 上南路1551弄  " }, "geometry": { "type": "Point", "coordinates": [ 121.504524605428983, 31.17454150695551 ] } },
{ "type": "Feature", "properties": { "addr": "上海市 浦东新区 上南路6333弄  " }, "geometry": { "type": "Point", "coordinates": [ 121.584859707864112, 31.120077939878794 ] } },
{ "type": "Feature", "properties": { "addr": "上海市 浦东新区 上南路6555弄  " }, "geometry": { "type": "Point", "coordinates": [ 121.584859707864112, 31.120077939878794 ] } },
{ "type": "Feature", "properties": { "addr": "上海市 浦东新区 上南路6869弄  " }, "geometry": { "type": "Point", "coordinates": [ 121.571807867787442, 31.124545395200499 ] } },
{ "type": "Feature", "properties": { "addr": "上海市 浦东新区 上浦路336弄  " }, "geometry": { "type": "Point", "coordinates": [ 121.5020309093333, 31.151513167663513 ] } },
{ "type": "Feature", "properties": { "addr": "上海市 浦东新区 上浦路510弄  " }, "geometry": { "type": "Point", "coordinates": [ 121.506222941826138, 31.152101739360106 ] } },
{ "type": "Feature", "properties": { "addr": "上海市 浦东新区 沈家弄路901弄  " }, "geometry": { "type": "Point", "coordinates": [ 121.552898267310752, 31.244971955008257 ] } },
{ "type": "Feature", "properties": { "addr": "上海市 浦东新区 沈家弄路936号  " }, "geometry": { "type": "Point", "coordinates": [ 121.553671079540976, 31.246009840667501 ] } },
{ "type": "Feature", "properties": { "addr": "上海市 浦东新区 盛夏路738弄  " }, "geometry": { "type": "Point", "coordinates": [ 121.635609477650306, 31.208769732958224 ] } },
{ "type": "Feature", "properties": { "addr": "上海市 浦东新区 世博家园大道站路94弄  " }, "geometry": { "type": "Point", "coordinates": [ 121.545610314708298, 31.165459346349106 ] } },
{ "type": "Feature", "properties": { "addr": "上海市 浦东新区 寿光路78弄  " }, "geometry": { "type": "Point", "coordinates": [ 121.592102026546655, 31.279390855434528 ] } },
{ "type": "Feature", "properties": { "addr": "上海市 浦东新区 思浦路13弄  " }, "geometry": { "type": "Point", "coordinates": [ 121.50015946946435, 31.164910255877725 ] } },
{ "type": "Feature", "properties": { "addr": "上海市 浦东新区 松林路333弄  " }, "geometry": { "type": "Point", "coordinates": [ 121.540645649646308, 31.232864650767048 ] } },
{ "type": "Feature", "properties": { "addr": "上海市 浦东新区 孙桥路788号工地生活区  " }, "geometry": { "type": "Point", "coordinates": [ 121.637555117554371, 31.176727814519445 ] } },
{ "type": "Feature", "properties": { "addr": "上海市 浦东新区 台儿庄路663弄  " }, "geometry": { "type": "Point", "coordinates": [ 121.60033796095378, 31.264978881782035 ] } },
{ "type": "Feature", "properties": { "addr": "上海市 浦东新区 唐镇虹二村龚家宅  " }, "geometry": { "type": "Point", "coordinates": [ 121.661875481609314, 31.246618581064769 ] } },
{ "type": "Feature", "properties": { "addr": "上海市 浦东新区 唐镇虹四村吴张家宅  " }, "geometry": { "type": "Point", "coordinates": [ 121.658368227406712, 31.246790543527457 ] } },
{ "type": "Feature", "properties": { "addr": "上海市 浦东新区 唐镇民丰村李家宅  " }, "geometry": { "type": "Point", "coordinates": [ 121.64861595329873, 31.214212833818383 ] } },
{ "type": "Feature", "properties": { "addr": "上海市 浦东新区 唐镇唐镇村赵家宅  " }, "geometry": { "type": "Point", "coordinates": [ 121.657245255688679, 31.205158840506879 ] } },
{ "type": "Feature", "properties": { "addr": "上海市 浦东新区 唐镇小湾村北街  " }, "geometry": { "type": "Point", "coordinates": [ 121.697839941294887, 31.239737983696291 ] } },
{ "type": "Feature", "properties": { "addr": "上海市 浦东新区 唐镇小湾村北张家宅  " }, "geometry": { "type": "Point", "coordinates": [ 121.691947606014082, 31.236233793114234 ] } },
{ "type": "Feature", "properties": { "addr": "上海市 浦东新区 唐镇小湾村第二新村  " }, "geometry": { "type": "Point", "coordinates": [ 121.695242321133037, 31.238558759412708 ] } },
{ "type": "Feature", "properties": { "addr": "上海市 浦东新区 唐镇小湾村小湾新村  " }, "geometry": { "type": "Point", "coordinates": [ 121.696664967569191, 31.239619872733037 ] } },
{ "type": "Feature", "properties": { "addr": "上海市 浦东新区 唐镇小湾村张家老宅  " }, "geometry": { "type": "Point", "coordinates": [ 121.699658031697879, 31.23859395766161 ] } },
{ "type": "Feature", "properties": { "addr": "上海市 浦东新区 唐镇新虹村赵家宅  " }, "geometry": { "type": "Point", "coordinates": [ 121.655033627523125, 31.248713367963926 ] } },
{ "type": "Feature", "properties": { "addr": "上海市 浦东新区 唐镇新镇村谢家宅  " }, "geometry": { "type": "Point", "coordinates": [ 121.648514804098312, 31.221847435503069 ] } },
{ "type": "Feature", "properties": { "addr": "上海市 浦东新区 塘桥路551弄  " }, "geometry": { "type": "Point", "coordinates": [ 121.528023738586697, 31.217447845122901 ] } },
{ "type": "Feature", "properties": { "addr": "上海市 浦东新区 听谐路73弄  " }, "geometry": { "type": "Point", "coordinates": [ 121.758974042827248, 31.063625816245775 ] } },
{ "type": "Feature", "properties": { "addr": "上海市 浦东新区 微山二村  " }, "geometry": { "type": "Point", "coordinates": [ 121.519896858468485, 31.214418673428547 ] } },
{ "type": "Feature", "properties": { "addr": "上海市 浦东新区 潍坊路606号  " }, "geometry": { "type": "Point", "coordinates": [ 121.528018797906384, 31.229204895697556 ] } },
{ "type": "Feature", "properties": { "addr": "上海市 浦东新区 五莲路1047弄  " }, "geometry": { "type": "Point", "coordinates": [ 121.601390415689281, 31.277745809783077 ] } },
{ "type": "Feature", "properties": { "addr": "上海市 浦东新区 五莲路108弄  " }, "geometry": { "type": "Point", "coordinates": [ 121.588773624971083, 31.277157873113886 ] } },
{ "type": "Feature", "properties": { "addr": "上海市 浦东新区 五莲路201弄  " }, "geometry": { "type": "Point", "coordinates": [ 121.587086158070576, 31.282666663701544 ] } },
{ "type": "Feature", "properties": { "addr": "上海市 浦东新区 五莲路759弄  " }, "geometry": { "type": "Point", "coordinates": [ 121.597702871570817, 31.276387222961237 ] } },
{ "type": "Feature", "properties": { "addr": "上海市 浦东新区 五星路151弄  " }, "geometry": { "type": "Point", "coordinates": [ 121.536884264814915, 31.189702255537771 ] } },
{ "type": "Feature", "properties": { "addr": "上海市 浦东新区 下南路1071弄  " }, "geometry": { "type": "Point", "coordinates": [ 121.54152697718213, 31.191389935442906 ] } },
{ "type": "Feature", "properties": { "addr": "上海市 浦东新区 下南路225弄  " }, "geometry": { "type": "Point", "coordinates": [ 121.552785889291457, 31.17539958371751 ] } },
{ "type": "Feature", "properties": { "addr": "上海市 浦东新区 下南路309弄  " }, "geometry": { "type": "Point", "coordinates": [ 121.529696185109415, 31.207201251711854 ] } },
{ "type": "Feature", "properties": { "addr": "上海市 浦东新区 下南路320弄  " }, "geometry": { "type": "Point", "coordinates": [ 121.547891741211998, 31.175548813657176 ] } },
{ "type": "Feature", "properties": { "addr": "上海市 浦东新区 下南路500弄  " }, "geometry": { "type": "Point", "coordinates": [ 121.543720818898606, 31.177967587760506 ] } },
{ "type": "Feature", "properties": { "addr": "上海市 浦东新区 下南路501弄  " }, "geometry": { "type": "Point", "coordinates": [ 121.536884264814915, 31.189702255537771 ] } },
{ "type": "Feature", "properties": { "addr": "上海市 浦东新区 新雅路751号  " }, "geometry": { "type": "Point", "coordinates": [ 121.6877924042209, 31.241978478582727 ] } },
{ "type": "Feature", "properties": { "addr": "上海市 浦东新区 新元南路正茂路交界口工地生活区  " }, "geometry": { "type": "Point", "coordinates": [ 121.827883417819848, 30.883671131631182 ] } },
{ "type": "Feature", "properties": { "addr": "上海市 浦东新区 秀康路958弄  " }, "geometry": { "type": "Point", "coordinates": [ 121.584859707864112, 31.120077939878794 ] } },
{ "type": "Feature", "properties": { "addr": "上海市 浦东新区 秀浦路3188号  " }, "geometry": { "type": "Point", "coordinates": [ 121.629644190080768, 31.136153062108015 ] } },
{ "type": "Feature", "properties": { "addr": "上海市 浦东新区 秀沿路2875弄  " }, "geometry": { "type": "Point", "coordinates": [ 121.616066481958541, 31.144930230822322 ] } },
{ "type": "Feature", "properties": { "addr": "上海市 浦东新区 雪野路34弄  " }, "geometry": { "type": "Point", "coordinates": [ 121.503822310181292, 31.186552940240503 ] } },
{ "type": "Feature", "properties": { "addr": "上海市 浦东新区 严桥路240弄  " }, "geometry": { "type": "Point", "coordinates": [ 121.534920658800658, 31.193886685231437 ] } },
{ "type": "Feature", "properties": { "addr": "上海市 浦东新区 杨高中路10弄  " }, "geometry": { "type": "Point", "coordinates": [ 121.606373585844779, 31.263420011224802 ] } },
{ "type": "Feature", "properties": { "addr": "上海市 浦东新区 杨思路1121弄  " }, "geometry": { "type": "Point", "coordinates": [ 121.512446312568727, 31.170793653236089 ] } },
{ "type": "Feature", "properties": { "addr": "上海市 浦东新区 杨新路198弄  " }, "geometry": { "type": "Point", "coordinates": [ 121.498479727991253, 31.16923244104267 ] } },
{ "type": "Feature", "properties": { "addr": "上海市 浦东新区 耀华路550弄  " }, "geometry": { "type": "Point", "coordinates": [ 121.487451231245231, 31.175987696606491 ] } },
{ "type": "Feature", "properties": { "addr": "上海市 浦东新区 银冬路568号生活区  " }, "geometry": { "type": "Point", "coordinates": [ 121.643025528618494, 31.211687980386134 ] } },
{ "type": "Feature", "properties": { "addr": "上海市 浦东新区 樱花路802弄  " }, "geometry": { "type": "Point", "coordinates": [ 121.567473903023995, 31.213807021168357 ] } },
{ "type": "Feature", "properties": { "addr": "上海市 浦东新区 永泰路630弄  " }, "geometry": { "type": "Point", "coordinates": [ 121.524113055379559, 31.145365857319558 ] } },
{ "type": "Feature", "properties": { "addr": "上海市 浦东新区 御青路328弄  " }, "geometry": { "type": "Point", "coordinates": [ 121.584859707864112, 31.120077939878794 ] } },
{ "type": "Feature", "properties": { "addr": "上海市 浦东新区 御水路150弄  " }, "geometry": { "type": "Point", "coordinates": [ 121.578864955873826, 31.167441854466574 ] } },
{ "type": "Feature", "properties": { "addr": "上海市 浦东新区 源深路600弄2支弄  " }, "geometry": { "type": "Point", "coordinates": [ 121.541346866927398, 31.236006465120855 ] } },
{ "type": "Feature", "properties": { "addr": "上海市 浦东新区 源深路600弄3支弄  " }, "geometry": { "type": "Point", "coordinates": [ 121.541346866927398, 31.236006465120855 ] } },
{ "type": "Feature", "properties": { "addr": "上海市 浦东新区 云台路183弄  " }, "geometry": { "type": "Point", "coordinates": [ 121.510618530347571, 31.18339896227592 ] } },
{ "type": "Feature", "properties": { "addr": "上海市 浦东新区 韵涛路36弄  " }, "geometry": { "type": "Point", "coordinates": [ 121.584859707864112, 31.120077939878794 ] } },
{ "type": "Feature", "properties": { "addr": "上海市 浦东新区 枣庄路210弄  " }, "geometry": { "type": "Point", "coordinates": [ 121.577389219582031, 31.264391559266734 ] } },
{ "type": "Feature", "properties": { "addr": "上海市 浦东新区 张江镇韩荡村西丁家宅  " }, "geometry": { "type": "Point", "coordinates": [ 121.669724605663845, 31.2288207632593 ] } },
{ "type": "Feature", "properties": { "addr": "上海市 浦东新区 张江镇环东中心村桥弄严家宅  " }, "geometry": { "type": "Point", "coordinates": [ 121.559597021329196, 31.176807680787 ] } },
{ "type": "Feature", "properties": { "addr": "上海市 浦东新区 张江镇中心村蔡家圈宅  " }, "geometry": { "type": "Point", "coordinates": [ 121.646543023503909, 31.177778892411219 ] } },
{ "type": "Feature", "properties": { "addr": "上海市 浦东新区 张杨北路588弄  " }, "geometry": { "type": "Point", "coordinates": [ 121.595215283952584, 31.275260170384001 ] } },
{ "type": "Feature", "properties": { "addr": "上海市 浦东新区 张杨路1673弄  " }, "geometry": { "type": "Point", "coordinates": [ 121.549771894644365, 31.243332632552367 ] } },
{ "type": "Feature", "properties": { "addr": "上海市 浦东新区 张杨路310弄  " }, "geometry": { "type": "Point", "coordinates": [ 121.51973938551258, 31.230805867990643 ] } },
{ "type": "Feature", "properties": { "addr": "上海市 浦东新区 张杨路98号  " }, "geometry": { "type": "Point", "coordinates": [ 121.58962611690005, 31.28158489894264 ] } },
{ "type": "Feature", "properties": { "addr": "上海市 浦东新区 赵高路610号  " }, "geometry": { "type": "Point", "coordinates": [ 121.633474115622548, 31.321740894877177 ] } },
{ "type": "Feature", "properties": { "addr": "上海市 浦东新区 中大街134弄  " }, "geometry": { "type": "Point", "coordinates": [ 121.583441013972205, 31.123819240464343 ] } },
{ "type": "Feature", "properties": { "addr": "上海市 浦东新区 周东路243弄  " }, "geometry": { "type": "Point", "coordinates": [ 121.592340077506805, 31.122621335648045 ] } },
{ "type": "Feature", "properties": { "addr": "上海市 浦东新区 周东路902弄  " }, "geometry": { "type": "Point", "coordinates": [ 121.590947883627436, 31.133893092899925 ] } },
{ "type": "Feature", "properties": { "addr": "上海市 浦东新区 周浦镇瓦南村陆弄  " }, "geometry": { "type": "Point", "coordinates": [ 121.652206210930458, 31.103491895827599 ] } },
{ "type": "Feature", "properties": { "addr": "上海市 浦东新区 周泰路32弄  " }, "geometry": { "type": "Point", "coordinates": [ 121.607434035499296, 31.107255809071958 ] } },
{ "type": "Feature", "properties": { "addr": "上海市 浦东新区 周园路666弄  " }, "geometry": { "type": "Point", "coordinates": [ 121.599781101368151, 31.123540709636185 ] } },
{ "type": "Feature", "properties": { "addr": "上海市 浦东新区 周祝公路申江南路交界口工地生活区  " }, "geometry": { "type": "Point", "coordinates": [ 121.652970309597251, 31.091725651807941 ] } },
{ "type": "Feature", "properties": { "addr": "上海市 浦东新区 祝桥镇祝东村华星  " }, "geometry": { "type": "Point", "coordinates": [ 121.78051091742897, 31.132837273151448 ] } },
{ "type": "Feature", "properties": { "addr": "上海市 浦东新区 紫叶路115弄  " }, "geometry": { "type": "Point", "coordinates": [ 121.558588044580389, 31.189245596705973 ] } },
{ "type": "Feature", "properties": { "addr": "上海市 浦东新区 紫叶路51弄  " }, "geometry": { "type": "Point", "coordinates": [ 121.557614011915931, 31.190270894229712 ] } },
{ "type": "Feature", "properties": { "addr": "上海市 黄浦区 白河路21弄  " }, "geometry": { "type": "Point", "coordinates": [ 121.478330555741323, 31.241085357958376 ] } },
{ "type": "Feature", "properties": { "addr": "上海市 黄浦区 白漾弄42号  " }, "geometry": { "type": "Point", "coordinates": [ 121.491585592524359, 31.23724715206362 ] } },
{ "type": "Feature", "properties": { "addr": "上海市 黄浦区 半淞园路628号  " }, "geometry": { "type": "Point", "coordinates": [ 121.501542587560309, 31.204294099073216 ] } },
{ "type": "Feature", "properties": { "addr": "上海市 黄浦区 半淞园路650号  " }, "geometry": { "type": "Point", "coordinates": [ 121.501021393601178, 31.204231463270702 ] } },
{ "type": "Feature", "properties": { "addr": "上海市 黄浦区 保屯路135号  " }, "geometry": { "type": "Point", "coordinates": [ 121.497128047690381, 31.21049189214154 ] } },
{ "type": "Feature", "properties": { "addr": "上海市 黄浦区 保屯路211弄  " }, "geometry": { "type": "Point", "coordinates": [ 121.498305816044507, 31.209535149529046 ] } },
{ "type": "Feature", "properties": { "addr": "上海市 黄浦区 保屯路288弄  " }, "geometry": { "type": "Point", "coordinates": [ 121.499779845555821, 31.206782616551425 ] } },
{ "type": "Feature", "properties": { "addr": "上海市 黄浦区 保屯路50弄  " }, "geometry": { "type": "Point", "coordinates": [ 121.496314991373296, 31.211889115666636 ] } },
{ "type": "Feature", "properties": { "addr": "上海市 黄浦区 北京东路265号  " }, "geometry": { "type": "Point", "coordinates": [ 121.491217287265272, 31.246158031924125 ] } },
{ "type": "Feature", "properties": { "addr": "上海市 黄浦区 北京东路288弄  " }, "geometry": { "type": "Point", "coordinates": [ 121.490646324283119, 31.246480269913778 ] } },
{ "type": "Feature", "properties": { "addr": "上海市 黄浦区 北京东路316弄  " }, "geometry": { "type": "Point", "coordinates": [ 121.477099248378821, 31.205400451269838 ] } },
{ "type": "Feature", "properties": { "addr": "上海市 黄浦区 北京东路813号  " }, "geometry": { "type": "Point", "coordinates": [ 121.481559604727508, 31.243860037653132 ] } },
{ "type": "Feature", "properties": { "addr": "上海市 黄浦区 北京西路218弄  " }, "geometry": { "type": "Point", "coordinates": [ 121.476082007219318, 31.242234743581015 ] } },
{ "type": "Feature", "properties": { "addr": "上海市 黄浦区 北京西路240弄  " }, "geometry": { "type": "Point", "coordinates": [ 121.475833086762492, 31.24201761876455 ] } },
{ "type": "Feature", "properties": { "addr": "上海市 黄浦区 北京西路246号  " }, "geometry": { "type": "Point", "coordinates": [ 121.475527932380757, 31.241852825863841 ] } },
{ "type": "Feature", "properties": { "addr": "上海市 黄浦区 北京西路256号  " }, "geometry": { "type": "Point", "coordinates": [ 121.475433161149454, 31.241795244763107 ] } },
{ "type": "Feature", "properties": { "addr": "上海市 黄浦区 北京西路278号  " }, "geometry": { "type": "Point", "coordinates": [ 121.475107255910444, 31.241667269481972 ] } },
{ "type": "Feature", "properties": { "addr": "上海市 黄浦区 曹市弄12号  " }, "geometry": { "type": "Point", "coordinates": [ 121.495654826654018, 31.224911724605651 ] } },
{ "type": "Feature", "properties": { "addr": "上海市 黄浦区 曹市弄15弄  " }, "geometry": { "type": "Point", "coordinates": [ 121.491202555054912, 31.227368364019917 ] } },
{ "type": "Feature", "properties": { "addr": "上海市 黄浦区 曹市弄40号  " }, "geometry": { "type": "Point", "coordinates": [ 121.495654826654018, 31.224911724605651 ] } },
{ "type": "Feature", "properties": { "addr": "上海市 黄浦区 长乐路434弄  " }, "geometry": { "type": "Point", "coordinates": [ 121.465529342901945, 31.226872671844372 ] } },
{ "type": "Feature", "properties": { "addr": "上海市 黄浦区 长乐路81号  " }, "geometry": { "type": "Point", "coordinates": [ 121.47477200829411, 31.228018835393915 ] } },
{ "type": "Feature", "properties": { "addr": "上海市 黄浦区 重庆北路116号  " }, "geometry": { "type": "Point", "coordinates": [ 121.476886349972943, 31.231585539838498 ] } },
{ "type": "Feature", "properties": { "addr": "上海市 黄浦区 重庆北路177弄  " }, "geometry": { "type": "Point", "coordinates": [ 121.476319968348903, 31.232554871312299 ] } },
{ "type": "Feature", "properties": { "addr": "上海市 黄浦区 重庆南路169弄  " }, "geometry": { "type": "Point", "coordinates": [ 121.478156104811291, 31.223155630252226 ] } },
{ "type": "Feature", "properties": { "addr": "上海市 黄浦区 重庆南路18号  " }, "geometry": { "type": "Point", "coordinates": [ 121.477852747040572, 31.226858853258328 ] } },
{ "type": "Feature", "properties": { "addr": "上海市 黄浦区 重庆南路26弄  " }, "geometry": { "type": "Point", "coordinates": [ 121.491585592524359, 31.23724715206362 ] } },
{ "type": "Feature", "properties": { "addr": "上海市 黄浦区 成都北路262弄  " }, "geometry": { "type": "Point", "coordinates": [ 121.474451223396485, 31.234991008544441 ] } },
{ "type": "Feature", "properties": { "addr": "上海市 黄浦区 成都南路112号  " }, "geometry": { "type": "Point", "coordinates": [ 121.474151997831129, 31.227691207130317 ] } },
{ "type": "Feature", "properties": { "addr": "上海市 黄浦区 成都南路99弄  " }, "geometry": { "type": "Point", "coordinates": [ 121.474386096247017, 31.227539744288958 ] } },
{ "type": "Feature", "properties": { "addr": "上海市 黄浦区 打浦路210弄  " }, "geometry": { "type": "Point", "coordinates": [ 121.477370985795588, 31.206885004073083 ] } },
{ "type": "Feature", "properties": { "addr": "上海市 黄浦区 打浦路303弄  " }, "geometry": { "type": "Point", "coordinates": [ 121.478195181100986, 31.205904673705177 ] } },
{ "type": "Feature", "properties": { "addr": "上海市 黄浦区 打浦路339弄  " }, "geometry": { "type": "Point", "coordinates": [ 121.478552257541196, 31.205296749443139 ] } },
{ "type": "Feature", "properties": { "addr": "上海市 黄浦区 打浦路38弄  " }, "geometry": { "type": "Point", "coordinates": [ 121.476392910756317, 31.210670792891353 ] } },
{ "type": "Feature", "properties": { "addr": "上海市 黄浦区 打浦路398弄  " }, "geometry": { "type": "Point", "coordinates": [ 121.478787972907028, 31.203810858761482 ] } },
{ "type": "Feature", "properties": { "addr": "上海市 黄浦区 打浦路457弄  " }, "geometry": { "type": "Point", "coordinates": [ 121.480652855145735, 31.20307504728536 ] } },
{ "type": "Feature", "properties": { "addr": "上海市 黄浦区 打浦路90弄  " }, "geometry": { "type": "Point", "coordinates": [ 121.477225280641861, 31.208560869587441 ] } },
{ "type": "Feature", "properties": { "addr": "上海市 黄浦区 大沽路183弄  " }, "geometry": { "type": "Point", "coordinates": [ 121.477665540172296, 31.231942951592927 ] } },
{ "type": "Feature", "properties": { "addr": "上海市 黄浦区 大沽路186弄  " }, "geometry": { "type": "Point", "coordinates": [ 121.476458846380737, 31.232981908159996 ] } },
{ "type": "Feature", "properties": { "addr": "上海市 黄浦区 大沽路195号  " }, "geometry": { "type": "Point", "coordinates": [ 121.477142995857136, 31.231929905701932 ] } },
{ "type": "Feature", "properties": { "addr": "上海市 黄浦区 大沽路252号  " }, "geometry": { "type": "Point", "coordinates": [ 121.476074820775224, 31.232000152785847 ] } },
{ "type": "Feature", "properties": { "addr": "上海市 黄浦区 大吉路135弄  " }, "geometry": { "type": "Point", "coordinates": [ 121.491322658501602, 31.22025503402778 ] } },
{ "type": "Feature", "properties": { "addr": "上海市 黄浦区 大吉路26弄  " }, "geometry": { "type": "Point", "coordinates": [ 121.449603104854447, 31.229682897526317 ] } },
{ "type": "Feature", "properties": { "addr": "上海市 黄浦区 大吉路44弄  " }, "geometry": { "type": "Point", "coordinates": [ 121.492894333821837, 31.220721578194794 ] } },
{ "type": "Feature", "properties": { "addr": "上海市 黄浦区 大林路190号  " }, "geometry": { "type": "Point", "coordinates": [ 121.491957670666594, 31.218075069221168 ] } },
{ "type": "Feature", "properties": { "addr": "上海市 黄浦区 大林路43弄  " }, "geometry": { "type": "Point", "coordinates": [ 121.493319501819713, 31.219241105018995 ] } },
{ "type": "Feature", "properties": { "addr": "上海市 黄浦区 淡水路208号  " }, "geometry": { "type": "Point", "coordinates": [ 121.479680708922828, 31.223454014985784 ] } },
{ "type": "Feature", "properties": { "addr": "上海市 黄浦区 淡水路214弄  " }, "geometry": { "type": "Point", "coordinates": [ 121.479010483181838, 31.223387544368109 ] } },
{ "type": "Feature", "properties": { "addr": "上海市 黄浦区 淡水路219号  " }, "geometry": { "type": "Point", "coordinates": [ 121.479874383590783, 31.223029250713488 ] } },
{ "type": "Feature", "properties": { "addr": "上海市 黄浦区 淡水路227弄  " }, "geometry": { "type": "Point", "coordinates": [ 121.479884264951394, 31.222721059943833 ] } },
{ "type": "Feature", "properties": { "addr": "上海市 黄浦区 淡水路230号  " }, "geometry": { "type": "Point", "coordinates": [ 121.479610371601396, 31.223048087992154 ] } },
{ "type": "Feature", "properties": { "addr": "上海市 黄浦区 淡水路238号  " }, "geometry": { "type": "Point", "coordinates": [ 121.479695620794303, 31.222859792237028 ] } },
{ "type": "Feature", "properties": { "addr": "上海市 黄浦区 多稼路208号  " }, "geometry": { "type": "Point", "coordinates": [ 121.508549193774783, 31.217548136407576 ] } },
{ "type": "Feature", "properties": { "addr": "上海市 黄浦区 方浜西路63弄  " }, "geometry": { "type": "Point", "coordinates": [ 121.488941789577936, 31.22685144217224 ] } },
{ "type": "Feature", "properties": { "addr": "上海市 黄浦区 方斜路269号  " }, "geometry": { "type": "Point", "coordinates": [ 121.491635897632918, 31.221482959693272 ] } },
{ "type": "Feature", "properties": { "addr": "上海市 黄浦区 方斜路556弄  " }, "geometry": { "type": "Point", "coordinates": [ 121.482430601749982, 31.20848141644904 ] } },
{ "type": "Feature", "properties": { "addr": "上海市 黄浦区 凤阳路228弄  " }, "geometry": { "type": "Point", "coordinates": [ 121.478205960767099, 31.240573683460127 ] } },
{ "type": "Feature", "properties": { "addr": "上海市 黄浦区 凤阳路470号  " }, "geometry": { "type": "Point", "coordinates": [ 121.473705450162115, 31.239238021526596 ] } },
{ "type": "Feature", "properties": { "addr": "上海市 黄浦区 福州路105号  " }, "geometry": { "type": "Point", "coordinates": [ 121.494982804301998, 31.240828710592687 ] } },
{ "type": "Feature", "properties": { "addr": "上海市 黄浦区 福州路614弄  " }, "geometry": { "type": "Point", "coordinates": [ 121.48585503218456, 31.238969867958666 ] } },
{ "type": "Feature", "properties": { "addr": "上海市 黄浦区 复兴东路404弄  " }, "geometry": { "type": "Point", "coordinates": [ 121.503635193143552, 31.226892511933613 ] } },
{ "type": "Feature", "properties": { "addr": "上海市 黄浦区 复兴东路673号  " }, "geometry": { "type": "Point", "coordinates": [ 121.497880827707746, 31.2278543266236 ] } },
{ "type": "Feature", "properties": { "addr": "上海市 黄浦区 复兴东路701弄  " }, "geometry": { "type": "Point", "coordinates": [ 121.496996984916478, 31.22831782220268 ] } },
{ "type": "Feature", "properties": { "addr": "上海市 黄浦区 复兴中路582号  " }, "geometry": { "type": "Point", "coordinates": [ 121.47126879646629, 31.220974574944584 ] } },
{ "type": "Feature", "properties": { "addr": "上海市 黄浦区 高家弄66弄  " }, "geometry": { "type": "Point", "coordinates": [ 121.484578540054883, 31.235498236464565 ] } },
{ "type": "Feature", "properties": { "addr": "上海市 黄浦区 牯岭路145弄  " }, "geometry": { "type": "Point", "coordinates": [ 121.477555497747318, 31.241767920743111 ] } },
{ "type": "Feature", "properties": { "addr": "上海市 黄浦区 光启路111号  " }, "geometry": { "type": "Point", "coordinates": [ 121.500877215566817, 31.229626003702819 ] } },
{ "type": "Feature", "properties": { "addr": "上海市 黄浦区 广东路138号  " }, "geometry": { "type": "Point", "coordinates": [ 121.494688699078026, 31.239072374652263 ] } },
{ "type": "Feature", "properties": { "addr": "上海市 黄浦区 广东路163号  " }, "geometry": { "type": "Point", "coordinates": [ 121.494734243167386, 31.23902938051809 ] } },
{ "type": "Feature", "properties": { "addr": "上海市 黄浦区 广东路51号  " }, "geometry": { "type": "Point", "coordinates": [ 121.496700005114874, 31.239638861048277 ] } },
{ "type": "Feature", "properties": { "addr": "上海市 黄浦区 广东路546号  " }, "geometry": { "type": "Point", "coordinates": [ 121.487329331187524, 31.237794197689329 ] } },
{ "type": "Feature", "properties": { "addr": "上海市 黄浦区 广东路59号  " }, "geometry": { "type": "Point", "coordinates": [ 121.496557983013759, 31.239642874838001 ] } },
{ "type": "Feature", "properties": { "addr": "上海市 黄浦区 广西北路228弄  " }, "geometry": { "type": "Point", "coordinates": [ 121.485099557250678, 31.239119228201453 ] } },
{ "type": "Feature", "properties": { "addr": "上海市 黄浦区 广西北路255弄  " }, "geometry": { "type": "Point", "coordinates": [ 121.483857560052584, 31.239774094791681 ] } },
{ "type": "Feature", "properties": { "addr": "上海市 黄浦区 贵州路68号  " }, "geometry": { "type": "Point", "coordinates": [ 121.482970034208719, 31.24088088918182 ] } },
{ "type": "Feature", "properties": { "addr": "上海市 黄浦区 海潮路93弄  " }, "geometry": { "type": "Point", "coordinates": [ 121.505912038289139, 31.214961528834515 ] } },
{ "type": "Feature", "properties": { "addr": "上海市 黄浦区 汉口路558号  " }, "geometry": { "type": "Point", "coordinates": [ 121.486326103593996, 31.240046414202215 ] } },
{ "type": "Feature", "properties": { "addr": "上海市 黄浦区 汉口路618号  " }, "geometry": { "type": "Point", "coordinates": [ 121.484771046925673, 31.239765526906201 ] } },
{ "type": "Feature", "properties": { "addr": "上海市 黄浦区 汉口路678号  " }, "geometry": { "type": "Point", "coordinates": [ 121.484266828042919, 31.239647583321876 ] } },
{ "type": "Feature", "properties": { "addr": "上海市 黄浦区 和顺街41号  " }, "geometry": { "type": "Point", "coordinates": [ 121.50338806929777, 31.22622466288189 ] } },
{ "type": "Feature", "properties": { "addr": "上海市 黄浦区 河南南路1001弄  " }, "geometry": { "type": "Point", "coordinates": [ 121.499793589630144, 31.219506535756029 ] } },
{ "type": "Feature", "properties": { "addr": "上海市 黄浦区 河南南路368弄  " }, "geometry": { "type": "Point", "coordinates": [ 121.495119526400615, 31.22978456523602 ] } },
{ "type": "Feature", "properties": { "addr": "上海市 黄浦区 河南南路398弄  " }, "geometry": { "type": "Point", "coordinates": [ 121.495698843623998, 31.228571801984344 ] } },
{ "type": "Feature", "properties": { "addr": "上海市 黄浦区 河南南路790弄  " }, "geometry": { "type": "Point", "coordinates": [ 121.498540094121509, 31.222041137489935 ] } },
{ "type": "Feature", "properties": { "addr": "上海市 黄浦区 河南中路154号  " }, "geometry": { "type": "Point", "coordinates": [ 121.492823906669869, 31.239259865896795 ] } },
{ "type": "Feature", "properties": { "addr": "上海市 黄浦区 河南中路541弄  " }, "geometry": { "type": "Point", "coordinates": [ 121.490336768204401, 31.245362813278643 ] } },
{ "type": "Feature", "properties": { "addr": "上海市 黄浦区 湖北路20号  " }, "geometry": { "type": "Point", "coordinates": [ 121.4884643401994, 31.237066372348682 ] } },
{ "type": "Feature", "properties": { "addr": "上海市 黄浦区 淮海中路526弄  " }, "geometry": { "type": "Point", "coordinates": [ 121.475825002012897, 31.227307454470328 ] } },
{ "type": "Feature", "properties": { "addr": "上海市 黄浦区 淮海中路613弄  " }, "geometry": { "type": "Point", "coordinates": [ 121.473823038353359, 31.225783544850167 ] } },
{ "type": "Feature", "properties": { "addr": "上海市 黄浦区 淮海中路670弄  " }, "geometry": { "type": "Point", "coordinates": [ 121.472274179993065, 31.225899035526318 ] } },
{ "type": "Feature", "properties": { "addr": "上海市 黄浦区 淮海中路899弄  " }, "geometry": { "type": "Point", "coordinates": [ 121.466966002904044, 31.223149994515893 ] } },
{ "type": "Feature", "properties": { "addr": "上海市 黄浦区 淮海中路927弄  " }, "geometry": { "type": "Point", "coordinates": [ 121.467196957250678, 31.222619693369211 ] } },
{ "type": "Feature", "properties": { "addr": "上海市 黄浦区 黄陂北路249弄  " }, "geometry": { "type": "Point", "coordinates": [ 121.476281161550872, 31.235480405184227 ] } },
{ "type": "Feature", "properties": { "addr": "上海市 黄浦区 黄陂南路596弄  " }, "geometry": { "type": "Point", "coordinates": [ 121.482998420662838, 31.221857703494099 ] } },
{ "type": "Feature", "properties": { "addr": "上海市 黄浦区 黄陂南路847弄  " }, "geometry": { "type": "Point", "coordinates": [ 121.485153365750719, 31.216905930618072 ] } },
{ "type": "Feature", "properties": { "addr": "上海市 黄浦区 黄陂南路863弄  " }, "geometry": { "type": "Point", "coordinates": [ 121.485455555724272, 31.216713762148075 ] } },
{ "type": "Feature", "properties": { "addr": "上海市 黄浦区 黄河路107弄  " }, "geometry": { "type": "Point", "coordinates": [ 121.476632399005268, 31.240460526525432 ] } },
{ "type": "Feature", "properties": { "addr": "上海市 黄浦区 黄河路125弄  " }, "geometry": { "type": "Point", "coordinates": [ 121.476317992076787, 31.241027544823773 ] } },
{ "type": "Feature", "properties": { "addr": "上海市 黄浦区 黄河路128号  " }, "geometry": { "type": "Point", "coordinates": [ 121.477080383963084, 31.241162004689215 ] } },
{ "type": "Feature", "properties": { "addr": "上海市 黄浦区 黄河路149号  " }, "geometry": { "type": "Point", "coordinates": [ 121.476585956610407, 31.241331352832518 ] } },
{ "type": "Feature", "properties": { "addr": "上海市 黄浦区 黄河路201号  " }, "geometry": { "type": "Point", "coordinates": [ 121.476272178495776, 31.242219229168967 ] } },
{ "type": "Feature", "properties": { "addr": "上海市 黄浦区 黄河路215弄  " }, "geometry": { "type": "Point", "coordinates": [ 121.434456955311802, 31.253372886823801 ] } },
{ "type": "Feature", "properties": { "addr": "上海市 黄浦区 黄河路223弄  " }, "geometry": { "type": "Point", "coordinates": [ 121.476039876690876, 31.242534611188706 ] } },
{ "type": "Feature", "properties": { "addr": "上海市 黄浦区 黄河路281弄  " }, "geometry": { "type": "Point", "coordinates": [ 121.475632764633772, 31.243446480678184 ] } },
{ "type": "Feature", "properties": { "addr": "上海市 黄浦区 黄河路288号  " }, "geometry": { "type": "Point", "coordinates": [ 121.475909263069738, 31.243495416033404 ] } },
{ "type": "Feature", "properties": { "addr": "上海市 黄浦区 黄家路88弄  " }, "geometry": { "type": "Point", "coordinates": [ 121.503590637190257, 31.221234519321271 ] } },
{ "type": "Feature", "properties": { "addr": "上海市 黄浦区 黄家路99弄  " }, "geometry": { "type": "Point", "coordinates": [ 121.5020006364376, 31.222165742701261 ] } },
{ "type": "Feature", "properties": { "addr": "上海市 黄浦区 黄家阙路68弄  " }, "geometry": { "type": "Point", "coordinates": [ 121.493950022457184, 31.220714861457605 ] } },
{ "type": "Feature", "properties": { "addr": "上海市 黄浦区 黄家阙路76弄  " }, "geometry": { "type": "Point", "coordinates": [ 121.49405377674357, 31.220340576306299 ] } },
{ "type": "Feature", "properties": { "addr": "上海市 黄浦区 黄家阙路88弄  " }, "geometry": { "type": "Point", "coordinates": [ 121.49395819703733, 31.219937955604067 ] } },
{ "type": "Feature", "properties": { "addr": "上海市 黄浦区 徽宁路706号  " }, "geometry": { "type": "Point", "coordinates": [ 121.491687370538642, 31.213508991732102 ] } },
{ "type": "Feature", "properties": { "addr": "上海市 黄浦区 徽宁路710号  " }, "geometry": { "type": "Point", "coordinates": [ 121.491566997600302, 31.213404835625095 ] } },
{ "type": "Feature", "properties": { "addr": "上海市 黄浦区 济南路260号  " }, "geometry": { "type": "Point", "coordinates": [ 121.486627215600947, 31.222975440925278 ] } },
{ "type": "Feature", "properties": { "addr": "上海市 黄浦区 济南路260弄  " }, "geometry": { "type": "Point", "coordinates": [ 121.486546188443938, 31.209148542748196 ] } },
{ "type": "Feature", "properties": { "addr": "上海市 黄浦区 建国东路111号  " }, "geometry": { "type": "Point", "coordinates": [ 121.485578893070794, 31.218918155553482 ] } },
{ "type": "Feature", "properties": { "addr": "上海市 黄浦区 建国东路143弄  " }, "geometry": { "type": "Point", "coordinates": [ 121.48532709803635, 31.21823318708983 ] } },
{ "type": "Feature", "properties": { "addr": "上海市 黄浦区 建国东路167号  " }, "geometry": { "type": "Point", "coordinates": [ 121.484788114730364, 31.218578605762552 ] } },
{ "type": "Feature", "properties": { "addr": "上海市 黄浦区 建国东路173号  " }, "geometry": { "type": "Point", "coordinates": [ 121.484537846815272, 31.218591267486733 ] } },
{ "type": "Feature", "properties": { "addr": "上海市 黄浦区 建国东路328弄  " }, "geometry": { "type": "Point", "coordinates": [ 121.482657962874541, 31.218571348432068 ] } },
{ "type": "Feature", "properties": { "addr": "上海市 黄浦区 建国西路188号  " }, "geometry": { "type": "Point", "coordinates": [ 121.468792168175298, 31.212964197647327 ] } },
{ "type": "Feature", "properties": { "addr": "上海市 黄浦区 建国西路190号  " }, "geometry": { "type": "Point", "coordinates": [ 121.46875533764937, 31.212830083311143 ] } },
{ "type": "Feature", "properties": { "addr": "上海市 黄浦区 建国中路135号  " }, "geometry": { "type": "Point", "coordinates": [ 121.475006466032212, 31.215216471362346 ] } },
{ "type": "Feature", "properties": { "addr": "上海市 黄浦区 建国中路61弄  " }, "geometry": { "type": "Point", "coordinates": [ 121.476353924297186, 31.215726045503331 ] } },
{ "type": "Feature", "properties": { "addr": "上海市 黄浦区 江滨路99号  " }, "geometry": { "type": "Point", "coordinates": [ 121.479935019212704, 31.197853855228029 ] } },
{ "type": "Feature", "properties": { "addr": "上海市 黄浦区 江西中路141号  " }, "geometry": { "type": "Point", "coordinates": [ 121.494076234381325, 31.239927776279842 ] } },
{ "type": "Feature", "properties": { "addr": "上海市 黄浦区 江西中路147号  " }, "geometry": { "type": "Point", "coordinates": [ 121.4939873919664, 31.240064476175899 ] } },
{ "type": "Feature", "properties": { "addr": "上海市 黄浦区 江西中路24弄  " }, "geometry": { "type": "Point", "coordinates": [ 121.495056285692726, 31.238351892243578 ] } },
{ "type": "Feature", "properties": { "addr": "上海市 黄浦区 江西中路261号  " }, "geometry": { "type": "Point", "coordinates": [ 121.493232994999119, 31.243067886883228 ] } },
{ "type": "Feature", "properties": { "addr": "上海市 黄浦区 江西中路34弄  " }, "geometry": { "type": "Point", "coordinates": [ 121.494850663561479, 31.238477093249102 ] } },
{ "type": "Feature", "properties": { "addr": "上海市 黄浦区 江西中路412弄  " }, "geometry": { "type": "Point", "coordinates": [ 121.492185570774481, 31.246727331150872 ] } },
{ "type": "Feature", "properties": { "addr": "上海市 黄浦区 江西中路451号  " }, "geometry": { "type": "Point", "coordinates": [ 121.491606253551097, 31.24738391965078 ] } },
{ "type": "Feature", "properties": { "addr": "上海市 黄浦区 江西中路452号  " }, "geometry": { "type": "Point", "coordinates": [ 121.491936021503804, 31.247525857007712 ] } },
{ "type": "Feature", "properties": { "addr": "上海市 黄浦区 江西中路469弄  " }, "geometry": { "type": "Point", "coordinates": [ 121.491462524669501, 31.247800778018277 ] } },
{ "type": "Feature", "properties": { "addr": "上海市 黄浦区 江阴街259号  " }, "geometry": { "type": "Point", "coordinates": [ 121.497514408890211, 31.219585361900346 ] } },
{ "type": "Feature", "properties": { "addr": "上海市 黄浦区 江阴路88弄  " }, "geometry": { "type": "Point", "coordinates": [ 121.475551737476763, 31.235860033180316 ] } },
{ "type": "Feature", "properties": { "addr": "上海市 黄浦区 金陵东路300弄  " }, "geometry": { "type": "Point", "coordinates": [ 121.490272808852097, 31.234667341505293 ] } },
{ "type": "Feature", "properties": { "addr": "上海市 黄浦区 金陵东路531号  " }, "geometry": { "type": "Point", "coordinates": [ 121.488263838409566, 31.233254787699028 ] } },
{ "type": "Feature", "properties": { "addr": "上海市 黄浦区 金陵东路57号  " }, "geometry": { "type": "Point", "coordinates": [ 121.497950536215313, 31.237093157409618 ] } },
{ "type": "Feature", "properties": { "addr": "上海市 黄浦区 金坛路35弄  " }, "geometry": { "type": "Point", "coordinates": [ 121.504583354609338, 31.224726597823398 ] } },
{ "type": "Feature", "properties": { "addr": "上海市 黄浦区 进贤路156弄  " }, "geometry": { "type": "Point", "coordinates": [ 121.465757781993133, 31.227951210049856 ] } },
{ "type": "Feature", "properties": { "addr": "上海市 黄浦区 静修路104弄  " }, "geometry": { "type": "Point", "coordinates": [ 121.493245481445712, 31.225768104909392 ] } },
{ "type": "Feature", "properties": { "addr": "上海市 黄浦区 静修路114弄  " }, "geometry": { "type": "Point", "coordinates": [ 121.493029798292753, 31.225741779804501 ] } },
{ "type": "Feature", "properties": { "addr": "上海市 黄浦区 静修路43号  " }, "geometry": { "type": "Point", "coordinates": [ 121.494470410839114, 31.225862056909556 ] } },
{ "type": "Feature", "properties": { "addr": "上海市 黄浦区 静修路56号  " }, "geometry": { "type": "Point", "coordinates": [ 121.494316351444141, 31.22569561435342 ] } },
{ "type": "Feature", "properties": { "addr": "上海市 黄浦区 静修路79弄  " }, "geometry": { "type": "Point", "coordinates": [ 121.493854846988398, 31.225607490774465 ] } },
{ "type": "Feature", "properties": { "addr": "上海市 黄浦区 九江路202号  " }, "geometry": { "type": "Point", "coordinates": [ 121.492738208324212, 31.242706735533037 ] } },
{ "type": "Feature", "properties": { "addr": "上海市 黄浦区 九江路505号  " }, "geometry": { "type": "Point", "coordinates": [ 121.488310999448842, 31.241369869072095 ] } },
{ "type": "Feature", "properties": { "addr": "上海市 黄浦区 九江路619号  " }, "geometry": { "type": "Point", "coordinates": [ 121.485146628459404, 31.240162350399974 ] } },
{ "type": "Feature", "properties": { "addr": "上海市 黄浦区 局门后路15号  " }, "geometry": { "type": "Point", "coordinates": [ 121.487110953118062, 31.214735230085406 ] } },
{ "type": "Feature", "properties": { "addr": "上海市 黄浦区 局门后路27号  " }, "geometry": { "type": "Point", "coordinates": [ 121.48729411761154, 31.214520898183039 ] } },
{ "type": "Feature", "properties": { "addr": "上海市 黄浦区 局门后路5号  " }, "geometry": { "type": "Point", "coordinates": [ 121.487081219205677, 31.215253685810151 ] } },
{ "type": "Feature", "properties": { "addr": "上海市 黄浦区 局门路573弄  " }, "geometry": { "type": "Point", "coordinates": [ 121.489437564388908, 31.206887629392675 ] } },
{ "type": "Feature", "properties": { "addr": "上海市 黄浦区 巨鹿路1号  " }, "geometry": { "type": "Point", "coordinates": [ 121.47590477154219, 31.229506657795152 ] } },
{ "type": "Feature", "properties": { "addr": "上海市 黄浦区 老重庆中路64弄  " }, "geometry": { "type": "Point", "coordinates": [ 121.476510409117012, 31.227798898450967 ] } },
{ "type": "Feature", "properties": { "addr": "上海市 黄浦区 丽园路17号  " }, "geometry": { "type": "Point", "coordinates": [ 121.496554749113912, 31.216838760486581 ] } },
{ "type": "Feature", "properties": { "addr": "上海市 黄浦区 丽园路31号  " }, "geometry": { "type": "Point", "coordinates": [ 121.496327387989339, 31.2167569209509 ] } },
{ "type": "Feature", "properties": { "addr": "上海市 黄浦区 丽园路333弄  " }, "geometry": { "type": "Point", "coordinates": [ 121.490709205668821, 31.215059429317979 ] } },
{ "type": "Feature", "properties": { "addr": "上海市 黄浦区 丽园路41号  " }, "geometry": { "type": "Point", "coordinates": [ 121.496154374348109, 31.216703802421531 ] } },
{ "type": "Feature", "properties": { "addr": "上海市 黄浦区 丽园路45弄  " }, "geometry": { "type": "Point", "coordinates": [ 121.49574663347714, 31.216842312011984 ] } },
{ "type": "Feature", "properties": { "addr": "上海市 黄浦区 丽园路488弄  " }, "geometry": { "type": "Point", "coordinates": [ 121.489286020249367, 31.213141858311548 ] } },
{ "type": "Feature", "properties": { "addr": "上海市 黄浦区 丽园路502号  " }, "geometry": { "type": "Point", "coordinates": [ 121.488570879232881, 31.213633685510622 ] } },
{ "type": "Feature", "properties": { "addr": "上海市 黄浦区 丽园路866弄  " }, "geometry": { "type": "Point", "coordinates": [ 121.482159493147066, 31.212257643794672 ] } },
{ "type": "Feature", "properties": { "addr": "上海市 黄浦区 丽园路887号  " }, "geometry": { "type": "Point", "coordinates": [ 121.481490614864342, 31.212557993532279 ] } },
{ "type": "Feature", "properties": { "addr": "上海市 黄浦区 龙华东路522号  " }, "geometry": { "type": "Point", "coordinates": [ 121.486585624055834, 31.201217230788437 ] } },
{ "type": "Feature", "properties": { "addr": "上海市 黄浦区 龙华东路888弄  " }, "geometry": { "type": "Point", "coordinates": [ 121.477730128338465, 31.199060607033338 ] } },
{ "type": "Feature", "properties": { "addr": "上海市 黄浦区 鲁班路168弄  " }, "geometry": { "type": "Point", "coordinates": [ 121.480692470418731, 31.210777731674401 ] } },
{ "type": "Feature", "properties": { "addr": "上海市 黄浦区 鲁班路277弄  " }, "geometry": { "type": "Point", "coordinates": [ 121.481803045520707, 31.210402711881802 ] } },
{ "type": "Feature", "properties": { "addr": "上海市 黄浦区 鲁班路388弄  " }, "geometry": { "type": "Point", "coordinates": [ 121.481238999490998, 31.207353004735936 ] } },
{ "type": "Feature", "properties": { "addr": "上海市 黄浦区 鲁班路88弄  " }, "geometry": { "type": "Point", "coordinates": [ 121.479933042940587, 31.212396777648934 ] } },
{ "type": "Feature", "properties": { "addr": "上海市 黄浦区 鲁班路899号  " }, "geometry": { "type": "Point", "coordinates": [ 121.487175720945331, 31.19905558762051 ] } },
{ "type": "Feature", "properties": { "addr": "上海市 黄浦区 陆家浜路1088号  " }, "geometry": { "type": "Point", "coordinates": [ 121.494590244794139, 31.217603647857679 ] } },
{ "type": "Feature", "properties": { "addr": "上海市 黄浦区 陆家浜路1295号  " }, "geometry": { "type": "Point", "coordinates": [ 121.490714415840785, 31.21754288636609 ] } },
{ "type": "Feature", "properties": { "addr": "上海市 黄浦区 陆家浜路1300号  " }, "geometry": { "type": "Point", "coordinates": [ 121.490574010689585, 31.217165886293468 ] } },
{ "type": "Feature", "properties": { "addr": "上海市 黄浦区 陆家浜路388号  " }, "geometry": { "type": "Point", "coordinates": [ 121.506055677340186, 31.216682647649975 ] } },
{ "type": "Feature", "properties": { "addr": "上海市 黄浦区 陆家浜路468弄  " }, "geometry": { "type": "Point", "coordinates": [ 121.504498105416431, 31.216107143381389 ] } },
{ "type": "Feature", "properties": { "addr": "上海市 黄浦区 陆家浜路812号  " }, "geometry": { "type": "Point", "coordinates": [ 121.499546375953798, 31.218148878181378 ] } },
{ "type": "Feature", "properties": { "addr": "上海市 黄浦区 陆家宅路91弄  " }, "geometry": { "type": "Point", "coordinates": [ 121.502350619857523, 31.230108005227802 ] } },
{ "type": "Feature", "properties": { "addr": "上海市 黄浦区 马当路278弄  " }, "geometry": { "type": "Point", "coordinates": [ 121.480389561800749, 31.223680369859316 ] } },
{ "type": "Feature", "properties": { "addr": "上海市 黄浦区 马当路306弄  " }, "geometry": { "type": "Point", "coordinates": [ 121.480125639641912, 31.223088619009204 ] } },
{ "type": "Feature", "properties": { "addr": "上海市 黄浦区 茂名南路169弄  " }, "geometry": { "type": "Point", "coordinates": [ 121.469133524269083, 31.221248493144664 ] } },
{ "type": "Feature", "properties": { "addr": "上海市 黄浦区 蒙自路345弄  " }, "geometry": { "type": "Point", "coordinates": [ 121.485623179532439, 31.210186208109956 ] } },
{ "type": "Feature", "properties": { "addr": "上海市 黄浦区 蒙自路395弄  " }, "geometry": { "type": "Point", "coordinates": [ 121.486172313690687, 31.208556854464472 ] } },
{ "type": "Feature", "properties": { "addr": "上海市 黄浦区 蒙自路490弄  " }, "geometry": { "type": "Point", "coordinates": [ 121.485480618448008, 31.20723285827842 ] } },
{ "type": "Feature", "properties": { "addr": "上海市 黄浦区 蒙自西路72弄  " }, "geometry": { "type": "Point", "coordinates": [ 121.48209804905018, 31.213215980001401 ] } },
{ "type": "Feature", "properties": { "addr": "上海市 黄浦区 梦花街111号  " }, "geometry": { "type": "Point", "coordinates": [ 121.494212866649406, 31.224590493120623 ] } },
{ "type": "Feature", "properties": { "addr": "上海市 黄浦区 梦花街117号  " }, "geometry": { "type": "Point", "coordinates": [ 121.494142619158524, 31.224569262930761 ] } },
{ "type": "Feature", "properties": { "addr": "上海市 黄浦区 梦花街13弄  " }, "geometry": { "type": "Point", "coordinates": [ 121.492488659053549, 31.223664929571559 ] } },
{ "type": "Feature", "properties": { "addr": "上海市 黄浦区 梦花街186号  " }, "geometry": { "type": "Point", "coordinates": [ 121.493327856060972, 31.2241038959592 ] } },
{ "type": "Feature", "properties": { "addr": "上海市 黄浦区 梦花街93弄  " }, "geometry": { "type": "Point", "coordinates": [ 121.494470680330764, 31.224746515568178 ] } },
{ "type": "Feature", "properties": { "addr": "上海市 黄浦区 面筋弄13号  " }, "geometry": { "type": "Point", "coordinates": [ 121.5047955343708, 31.226327415138474 ] } },
{ "type": "Feature", "properties": { "addr": "上海市 黄浦区 面筋弄29号  " }, "geometry": { "type": "Point", "coordinates": [ 121.5047955343708, 31.226327415138474 ] } },
{ "type": "Feature", "properties": { "addr": "上海市 黄浦区 苗江路758号  " }, "geometry": { "type": "Point", "coordinates": [ 121.500508820477179, 31.203620130557301 ] } },
{ "type": "Feature", "properties": { "addr": "上海市 黄浦区 南昌路302号  " }, "geometry": { "type": "Point", "coordinates": [ 121.46867368167851, 31.222944482912592 ] } },
{ "type": "Feature", "properties": { "addr": "上海市 黄浦区 南昌路310号  " }, "geometry": { "type": "Point", "coordinates": [ 121.468518903639165, 31.222789152280377 ] } },
{ "type": "Feature", "properties": { "addr": "上海市 黄浦区 南车站路20弄  " }, "geometry": { "type": "Point", "coordinates": [ 121.496324243920043, 31.217514242752177 ] } },
{ "type": "Feature", "properties": { "addr": "上海市 黄浦区 南车站路30弄  " }, "geometry": { "type": "Point", "coordinates": [ 121.496219681158692, 31.217235681219709 ] } },
{ "type": "Feature", "properties": { "addr": "上海市 黄浦区 南车站路555号  " }, "geometry": { "type": "Point", "coordinates": [ 121.501598644721881, 31.20954456952656 ] } },
{ "type": "Feature", "properties": { "addr": "上海市 黄浦区 南京东路480号  " }, "geometry": { "type": "Point", "coordinates": [ 121.487587414360547, 31.2422645374198 ] } },
{ "type": "Feature", "properties": { "addr": "上海市 黄浦区 南京西路88号  " }, "geometry": { "type": "Point", "coordinates": [ 121.479483261371726, 31.240591668144511 ] } },
{ "type": "Feature", "properties": { "addr": "上海市 黄浦区 宁波路120弄  " }, "geometry": { "type": "Point", "coordinates": [ 121.491211897432208, 31.245492713088552 ] } },
{ "type": "Feature", "properties": { "addr": "上海市 黄浦区 宁波路190号  " }, "geometry": { "type": "Point", "coordinates": [ 121.49003808162233, 31.244968095814983 ] } },
{ "type": "Feature", "properties": { "addr": "上海市 黄浦区 宁波路219号  " }, "geometry": { "type": "Point", "coordinates": [ 121.489700767903329, 31.244703123223573 ] } },
{ "type": "Feature", "properties": { "addr": "上海市 黄浦区 宁波路456弄  " }, "geometry": { "type": "Point", "coordinates": [ 121.48527418784181, 31.243424868841227 ] } },
{ "type": "Feature", "properties": { "addr": "上海市 黄浦区 宁波路51号  " }, "geometry": { "type": "Point", "coordinates": [ 121.492500786177928, 31.24520960382349 ] } },
{ "type": "Feature", "properties": { "addr": "上海市 黄浦区 宁波路540号  " }, "geometry": { "type": "Point", "coordinates": [ 121.483899960072634, 31.242886037820316 ] } },
{ "type": "Feature", "properties": { "addr": "上海市 黄浦区 宁波路542弄  " }, "geometry": { "type": "Point", "coordinates": [ 121.483778778659342, 31.242755902832418 ] } },
{ "type": "Feature", "properties": { "addr": "上海市 黄浦区 宁波路561号  " }, "geometry": { "type": "Point", "coordinates": [ 121.483345975064637, 31.242371903221272 ] } },
{ "type": "Feature", "properties": { "addr": "上海市 黄浦区 宁波路636号  " }, "geometry": { "type": "Point", "coordinates": [ 121.482125986351548, 31.242470855633673 ] } },
{ "type": "Feature", "properties": { "addr": "上海市 黄浦区 牛庄路691号  " }, "geometry": { "type": "Point", "coordinates": [ 121.483457993761732, 31.243424560100664 ] } },
{ "type": "Feature", "properties": { "addr": "上海市 黄浦区 牌楼路25号  " }, "geometry": { "type": "Point", "coordinates": [ 121.492833518538816, 31.219897191608993 ] } },
{ "type": "Feature", "properties": { "addr": "上海市 黄浦区 牌楼路41弄  " }, "geometry": { "type": "Point", "coordinates": [ 121.493170203443967, 31.219408794333081 ] } },
{ "type": "Feature", "properties": { "addr": "上海市 黄浦区 蓬莱路190弄  " }, "geometry": { "type": "Point", "coordinates": [ 121.496810496692603, 31.223366854317213 ] } },
{ "type": "Feature", "properties": { "addr": "上海市 黄浦区 蓬莱路224弄  " }, "geometry": { "type": "Point", "coordinates": [ 121.497096786658631, 31.223356509290035 ] } },
{ "type": "Feature", "properties": { "addr": "上海市 黄浦区 普育东路101弄  " }, "geometry": { "type": "Point", "coordinates": [ 121.502876214818187, 31.215217475071711 ] } },
{ "type": "Feature", "properties": { "addr": "上海市 黄浦区 普育东路200弄  " }, "geometry": { "type": "Point", "coordinates": [ 121.502308755227531, 31.213623648246671 ] } },
{ "type": "Feature", "properties": { "addr": "上海市 黄浦区 普育东路26号  " }, "geometry": { "type": "Point", "coordinates": [ 121.502612651981551, 31.21670040530525 ] } },
{ "type": "Feature", "properties": { "addr": "上海市 黄浦区 普育东路31号  " }, "geometry": { "type": "Point", "coordinates": [ 121.503071955588794, 31.216461834785726 ] } },
{ "type": "Feature", "properties": { "addr": "上海市 黄浦区 普育东路71弄  " }, "geometry": { "type": "Point", "coordinates": [ 121.503539343945647, 31.215349192530727 ] } },
{ "type": "Feature", "properties": { "addr": "上海市 黄浦区 普育西路208号  " }, "geometry": { "type": "Point", "coordinates": [ 121.500317840725756, 31.215137255496789 ] } },
{ "type": "Feature", "properties": { "addr": "上海市 黄浦区 瞿溪路1053弄  " }, "geometry": { "type": "Point", "coordinates": [ 121.482156079586133, 31.205810006729052 ] } },
{ "type": "Feature", "properties": { "addr": "上海市 黄浦区 瞿溪路1072弄  " }, "geometry": { "type": "Point", "coordinates": [ 121.481430608056272, 31.204755922865751 ] } },
{ "type": "Feature", "properties": { "addr": "上海市 黄浦区 瞿溪路1079号  " }, "geometry": { "type": "Point", "coordinates": [ 121.4815101080939, 31.205324701845559 ] } },
{ "type": "Feature", "properties": { "addr": "上海市 黄浦区 瞿溪路110号  " }, "geometry": { "type": "Point", "coordinates": [ 121.502091814446871, 31.212759744627402 ] } },
{ "type": "Feature", "properties": { "addr": "上海市 黄浦区 瞿溪路112号  " }, "geometry": { "type": "Point", "coordinates": [ 121.501975843205528, 31.212742295066512 ] } },
{ "type": "Feature", "properties": { "addr": "上海市 黄浦区 瞿溪路115号  " }, "geometry": { "type": "Point", "coordinates": [ 121.501601788791163, 31.212705234041426 ] } },
{ "type": "Feature", "properties": { "addr": "上海市 黄浦区 瞿溪路119号  " }, "geometry": { "type": "Point", "coordinates": [ 121.501269595413589, 31.212450284675473 ] } },
{ "type": "Feature", "properties": { "addr": "上海市 黄浦区 瞿溪路1200弄  " }, "geometry": { "type": "Point", "coordinates": [ 121.477917514867855, 31.202302396543868 ] } },
{ "type": "Feature", "properties": { "addr": "上海市 黄浦区 瞿溪路120弄  " }, "geometry": { "type": "Point", "coordinates": [ 121.501722161729504, 31.212085926699476 ] } },
{ "type": "Feature", "properties": { "addr": "上海市 黄浦区 瞿溪路123号  " }, "geometry": { "type": "Point", "coordinates": [ 121.500922490164527, 31.212181899916938 ] } },
{ "type": "Feature", "properties": { "addr": "上海市 黄浦区 瞿溪路1240弄  " }, "geometry": { "type": "Point", "coordinates": [ 121.477558192663864, 31.203000917568584 ] } },
{ "type": "Feature", "properties": { "addr": "上海市 黄浦区 瞿溪路1254弄  " }, "geometry": { "type": "Point", "coordinates": [ 121.476834158422818, 31.20249351352583 ] } },
{ "type": "Feature", "properties": { "addr": "上海市 黄浦区 瞿溪路127号  " }, "geometry": { "type": "Point", "coordinates": [ 121.50053235608155, 31.211933434860381 ] } },
{ "type": "Feature", "properties": { "addr": "上海市 黄浦区 瞿溪路128号  " }, "geometry": { "type": "Point", "coordinates": [ 121.500242023740725, 31.211352187740083 ] } },
{ "type": "Feature", "properties": { "addr": "上海市 黄浦区 瞿溪路129号  " }, "geometry": { "type": "Point", "coordinates": [ 121.500388267877739, 31.211821941935789 ] } },
{ "type": "Feature", "properties": { "addr": "上海市 黄浦区 瞿溪路131号  " }, "geometry": { "type": "Point", "coordinates": [ 121.500236544077111, 31.21170705158098 ] } },
{ "type": "Feature", "properties": { "addr": "上海市 黄浦区 瞿溪路291号  " }, "geometry": { "type": "Point", "coordinates": [ 121.498701968774412, 31.210524861791818 ] } },
{ "type": "Feature", "properties": { "addr": "上海市 黄浦区 瞿溪路301弄  " }, "geometry": { "type": "Point", "coordinates": [ 121.498335460126341, 31.210375378694277 ] } },
{ "type": "Feature", "properties": { "addr": "上海市 黄浦区 瞿溪路305号  " }, "geometry": { "type": "Point", "coordinates": [ 121.497776714099146, 31.210322874243882 ] } },
{ "type": "Feature", "properties": { "addr": "上海市 黄浦区 瞿溪路463弄  " }, "geometry": { "type": "Point", "coordinates": [ 121.494508139670529, 31.209311771769467 ] } },
{ "type": "Feature", "properties": { "addr": "上海市 黄浦区 瞿溪路564号  " }, "geometry": { "type": "Point", "coordinates": [ 121.492841872780062, 31.206768486138067 ] } },
{ "type": "Feature", "properties": { "addr": "上海市 黄浦区 瞿溪路601号  " }, "geometry": { "type": "Point", "coordinates": [ 121.491644072213063, 31.208042994517765 ] } },
{ "type": "Feature", "properties": { "addr": "上海市 黄浦区 瞿溪路65号  " }, "geometry": { "type": "Point", "coordinates": [ 121.502438380712618, 31.213095455015441 ] } },
{ "type": "Feature", "properties": { "addr": "上海市 黄浦区 瞿溪路811弄  " }, "geometry": { "type": "Point", "coordinates": [ 121.488115618000421, 31.207111862300717 ] } },
{ "type": "Feature", "properties": { "addr": "上海市 黄浦区 瞿溪路883弄  " }, "geometry": { "type": "Point", "coordinates": [ 121.485768974516702, 31.206342719568301 ] } },
{ "type": "Feature", "properties": { "addr": "上海市 黄浦区 瞿溪路884号  " }, "geometry": { "type": "Point", "coordinates": [ 121.485726125343888, 31.205978646691694 ] } },
{ "type": "Feature", "properties": { "addr": "上海市 黄浦区 瞿溪路886号  " }, "geometry": { "type": "Point", "coordinates": [ 121.485570987982314, 31.205865834003056 ] } },
{ "type": "Feature", "properties": { "addr": "上海市 黄浦区 瞿溪路888号  " }, "geometry": { "type": "Point", "coordinates": [ 121.485457082843638, 31.205837804545993 ] } },
{ "type": "Feature", "properties": { "addr": "上海市 黄浦区 瞿溪路904弄  " }, "geometry": { "type": "Point", "coordinates": [ 121.485646894797895, 31.205807613027769 ] } },
{ "type": "Feature", "properties": { "addr": "上海市 黄浦区 瞿溪路907弄  " }, "geometry": { "type": "Point", "coordinates": [ 121.485194148820867, 31.206016405323048 ] } },
{ "type": "Feature", "properties": { "addr": "上海市 黄浦区 瞿溪路915号  " }, "geometry": { "type": "Point", "coordinates": [ 121.485024458910047, 31.205876875908086 ] } },
{ "type": "Feature", "properties": { "addr": "上海市 黄浦区 瞿溪路937弄  " }, "geometry": { "type": "Point", "coordinates": [ 121.484684090952314, 31.206350981651095 ] } },
{ "type": "Feature", "properties": { "addr": "上海市 黄浦区 汝南街70弄  " }, "geometry": { "type": "Point", "coordinates": [ 121.491384012767924, 31.208191323125448 ] } },
{ "type": "Feature", "properties": { "addr": "上海市 黄浦区 瑞金二路410弄  " }, "geometry": { "type": "Point", "coordinates": [ 121.473398499169349, 31.213301683132133 ] } },
{ "type": "Feature", "properties": { "addr": "上海市 黄浦区 瑞金二路70弄  " }, "geometry": { "type": "Point", "coordinates": [ 121.470872104753084, 31.221357118319393 ] } },
{ "type": "Feature", "properties": { "addr": "上海市 黄浦区 瑞金南路1号  " }, "geometry": { "type": "Point", "coordinates": [ 121.474173108010604, 31.210761362713356 ] } },
{ "type": "Feature", "properties": { "addr": "上海市 黄浦区 瑞金南路271弄  " }, "geometry": { "type": "Point", "coordinates": [ 121.475460918789707, 31.205033286057976 ] } },
{ "type": "Feature", "properties": { "addr": "上海市 黄浦区 瑞金南路345弄  " }, "geometry": { "type": "Point", "coordinates": [ 121.476182976758636, 31.203406854267385 ] } },
{ "type": "Feature", "properties": { "addr": "上海市 黄浦区 桑园街22弄  " }, "geometry": { "type": "Point", "coordinates": [ 121.504322935841984, 31.219279167122629 ] } },
{ "type": "Feature", "properties": { "addr": "上海市 黄浦区 山东中路33号  " }, "geometry": { "type": "Point", "coordinates": [ 121.4914309941461, 31.238021830096553 ] } },
{ "type": "Feature", "properties": { "addr": "上海市 黄浦区 陕西南路271弄  " }, "geometry": { "type": "Point", "coordinates": [ 121.46934498538613, 31.214239857048831 ] } },
{ "type": "Feature", "properties": { "addr": "上海市 黄浦区 陕西南路39弄  " }, "geometry": { "type": "Point", "coordinates": [ 121.464726257776022, 31.225395075166176 ] } },
{ "type": "Feature", "properties": { "addr": "上海市 黄浦区 陕西南路5号  " }, "geometry": { "type": "Point", "coordinates": [ 121.463831545488091, 31.228898346404968 ] } },
{ "type": "Feature", "properties": { "addr": "上海市 黄浦区 尚文路133弄  " }, "geometry": { "type": "Point", "coordinates": [ 121.497992576913177, 31.221508436760633 ] } },
{ "type": "Feature", "properties": { "addr": "上海市 黄浦区 尚文路257弄  " }, "geometry": { "type": "Point", "coordinates": [ 121.495580446957788, 31.22100723208888 ] } },
{ "type": "Feature", "properties": { "addr": "上海市 黄浦区 绍兴路90号  " }, "geometry": { "type": "Point", "coordinates": [ 121.469229193805887, 31.215176091353481 ] } },
{ "type": "Feature", "properties": { "addr": "上海市 黄浦区 顺昌路501号  " }, "geometry": { "type": "Point", "coordinates": [ 121.486043766172202, 31.21876829982897 ] } },
{ "type": "Feature", "properties": { "addr": "上海市 黄浦区 顺昌路507弄  " }, "geometry": { "type": "Point", "coordinates": [ 121.483782731203604, 31.22606872009813 ] } },
{ "type": "Feature", "properties": { "addr": "上海市 黄浦区 顺昌路518号  " }, "geometry": { "type": "Point", "coordinates": [ 121.485901294918335, 31.218418712744594 ] } },
{ "type": "Feature", "properties": { "addr": "上海市 黄浦区 顺昌路584号  " }, "geometry": { "type": "Point", "coordinates": [ 121.486134944181472, 31.217223405345969 ] } },
{ "type": "Feature", "properties": { "addr": "上海市 黄浦区 思南路113号  " }, "geometry": { "type": "Point", "coordinates": [ 121.477442311253071, 31.214830042456292 ] } },
{ "type": "Feature", "properties": { "addr": "上海市 黄浦区 四川中路126弄  " }, "geometry": { "type": "Point", "coordinates": [ 121.49640239649942, 31.240246948227217 ] } },
{ "type": "Feature", "properties": { "addr": "上海市 黄浦区 四川中路540号  " }, "geometry": { "type": "Point", "coordinates": [ 121.493509583265634, 31.246705642889712 ] } },
{ "type": "Feature", "properties": { "addr": "上海市 黄浦区 四川中路627号  " }, "geometry": { "type": "Point", "coordinates": [ 121.492684399824171, 31.248086735146039 ] } },
{ "type": "Feature", "properties": { "addr": "上海市 黄浦区 四川中路629号  " }, "geometry": { "type": "Point", "coordinates": [ 121.492675416769075, 31.248116835845469 ] } },
{ "type": "Feature", "properties": { "addr": "上海市 黄浦区 四牌楼路121弄  " }, "geometry": { "type": "Point", "coordinates": [ 121.501829419407386, 31.229261326596127 ] } },
{ "type": "Feature", "properties": { "addr": "上海市 黄浦区 四牌楼路127号  " }, "geometry": { "type": "Point", "coordinates": [ 121.50210573818228, 31.229064860461591 ] } },
{ "type": "Feature", "properties": { "addr": "上海市 黄浦区 四牌楼路95弄  " }, "geometry": { "type": "Point", "coordinates": [ 121.502076049185163, 31.229580534937064 ] } },
{ "type": "Feature", "properties": { "addr": "上海市 黄浦区 天津路179弄  " }, "geometry": { "type": "Point", "coordinates": [ 121.48962099837405, 31.243313490616583 ] } },
{ "type": "Feature", "properties": { "addr": "上海市 黄浦区 天津路195弄  " }, "geometry": { "type": "Point", "coordinates": [ 121.488944304833382, 31.243440537423524 ] } },
{ "type": "Feature", "properties": { "addr": "上海市 黄浦区 天津路479号  " }, "geometry": { "type": "Point", "coordinates": [ 121.484502453578187, 31.24215493309562 ] } },
{ "type": "Feature", "properties": { "addr": "上海市 黄浦区 文庙路163号  " }, "geometry": { "type": "Point", "coordinates": [ 121.495405726536092, 31.223724220262653 ] } },
{ "type": "Feature", "properties": { "addr": "上海市 黄浦区 文庙路60弄  " }, "geometry": { "type": "Point", "coordinates": [ 121.535203625036303, 31.216555718920326 ] } },
{ "type": "Feature", "properties": { "addr": "上海市 黄浦区 文庙路91号  " }, "geometry": { "type": "Point", "coordinates": [ 121.496427998206457, 31.224248956681809 ] } },
{ "type": "Feature", "properties": { "addr": "上海市 黄浦区 五里桥路262号  " }, "geometry": { "type": "Point", "coordinates": [ 121.486198634042125, 31.209085304938323 ] } },
{ "type": "Feature", "properties": { "addr": "上海市 黄浦区 五里桥路269弄  " }, "geometry": { "type": "Point", "coordinates": [ 121.485939023749737, 31.209584102620525 ] } },
{ "type": "Feature", "properties": { "addr": "上海市 黄浦区 西仓桥街104号  " }, "geometry": { "type": "Point", "coordinates": [ 121.496565977932775, 31.225982874256765 ] } },
{ "type": "Feature", "properties": { "addr": "上海市 黄浦区 西仓桥街112弄  " }, "geometry": { "type": "Point", "coordinates": [ 121.496291276107826, 31.225973533112793 ] } },
{ "type": "Feature", "properties": { "addr": "上海市 黄浦区 西仓桥街159号  " }, "geometry": { "type": "Point", "coordinates": [ 121.495636591052161, 31.225997156169278 ] } },
{ "type": "Feature", "properties": { "addr": "上海市 黄浦区 西藏南路1090弄  " }, "geometry": { "type": "Point", "coordinates": [ 121.492658798117134, 31.216956115167616 ] } },
{ "type": "Feature", "properties": { "addr": "上海市 黄浦区 西藏南路1107号  " }, "geometry": { "type": "Point", "coordinates": [ 121.492999974549832, 31.216927780202184 ] } },
{ "type": "Feature", "properties": { "addr": "上海市 黄浦区 西藏南路1129弄  " }, "geometry": { "type": "Point", "coordinates": [ 121.493503923940921, 31.216566219113734 ] } },
{ "type": "Feature", "properties": { "addr": "上海市 黄浦区 西藏南路1341弄  " }, "geometry": { "type": "Point", "coordinates": [ 121.4946357888835, 31.211611849990653 ] } },
{ "type": "Feature", "properties": { "addr": "上海市 黄浦区 西藏南路1374弄  " }, "geometry": { "type": "Point", "coordinates": [ 121.493515512081999, 31.211693925657812 ] } },
{ "type": "Feature", "properties": { "addr": "上海市 黄浦区 西藏南路1383弄  " }, "geometry": { "type": "Point", "coordinates": [ 121.494786794039726, 31.21117313386863 ] } },
{ "type": "Feature", "properties": { "addr": "上海市 黄浦区 西藏南路1433弄  " }, "geometry": { "type": "Point", "coordinates": [ 121.495532028290796, 31.210358932450475 ] } },
{ "type": "Feature", "properties": { "addr": "上海市 黄浦区 西藏南路1501弄  " }, "geometry": { "type": "Point", "coordinates": [ 121.495667852083898, 31.20879405527981 ] } },
{ "type": "Feature", "properties": { "addr": "上海市 黄浦区 西藏南路1558弄  " }, "geometry": { "type": "Point", "coordinates": [ 121.495110992498283, 31.208737843682584 ] } },
{ "type": "Feature", "properties": { "addr": "上海市 黄浦区 西藏南路1639弄  " }, "geometry": { "type": "Point", "coordinates": [ 121.498251288900065, 31.207076883855571 ] } },
{ "type": "Feature", "properties": { "addr": "上海市 黄浦区 西藏南路1739弄  " }, "geometry": { "type": "Point", "coordinates": [ 121.498159482076943, 31.204502959505437 ] } },
{ "type": "Feature", "properties": { "addr": "上海市 黄浦区 西藏南路298号  " }, "geometry": { "type": "Point", "coordinates": [ 121.48771964493163, 31.228693619397927 ] } },
{ "type": "Feature", "properties": { "addr": "上海市 黄浦区 西藏南路555弄  " }, "geometry": { "type": "Point", "coordinates": [ 121.489053808275045, 31.225934624536166 ] } },
{ "type": "Feature", "properties": { "addr": "上海市 黄浦区 西藏南路831弄  " }, "geometry": { "type": "Point", "coordinates": [ 121.492658169303283, 31.220481937066356 ] } },
{ "type": "Feature", "properties": { "addr": "上海市 黄浦区 西藏南路900弄  " }, "geometry": { "type": "Point", "coordinates": [ 121.4913945229424, 31.218727535324533 ] } },
{ "type": "Feature", "properties": { "addr": "上海市 黄浦区 西凌家宅路111弄  " }, "geometry": { "type": "Point", "coordinates": [ 121.493016593201759, 31.210318627559108 ] } },
{ "type": "Feature", "properties": { "addr": "上海市 黄浦区 西凌家宅路27弄  " }, "geometry": { "type": "Point", "coordinates": [ 121.493752125753318, 31.210565784292413 ] } },
{ "type": "Feature", "properties": { "addr": "上海市 黄浦区 西凌家宅路44号  " }, "geometry": { "type": "Point", "coordinates": [ 121.493855071564781, 31.210126599993604 ] } },
{ "type": "Feature", "properties": { "addr": "上海市 黄浦区 西姚家弄52号  " }, "geometry": { "type": "Point", "coordinates": [ 121.502382775601546, 31.228465732700393 ] } },
{ "type": "Feature", "properties": { "addr": "上海市 黄浦区 西姚家弄55号  " }, "geometry": { "type": "Point", "coordinates": [ 121.502548333307033, 31.22817176421664 ] } },
{ "type": "Feature", "properties": { "addr": "上海市 黄浦区 先棉祠北弄57号  " }, "geometry": { "type": "Point", "coordinates": [ 121.497472637683998, 31.223415182563311 ] } },
{ "type": "Feature", "properties": { "addr": "上海市 黄浦区 先棉祠街32弄  " }, "geometry": { "type": "Point", "coordinates": [ 121.497948290451546, 31.222769002512486 ] } },
{ "type": "Feature", "properties": { "addr": "上海市 黄浦区 斜土东路158弄  " }, "geometry": { "type": "Point", "coordinates": [ 121.495445790961838, 31.213564505577232 ] } },
{ "type": "Feature", "properties": { "addr": "上海市 黄浦区 斜土东路265弄  " }, "geometry": { "type": "Point", "coordinates": [ 121.49341975271463, 31.213289483952547 ] } },
{ "type": "Feature", "properties": { "addr": "上海市 黄浦区 斜土东路350号  " }, "geometry": { "type": "Point", "coordinates": [ 121.491508338250512, 31.212475532569158 ] } },
{ "type": "Feature", "properties": { "addr": "上海市 黄浦区 斜土路12号  " }, "geometry": { "type": "Point", "coordinates": [ 121.490734717545322, 31.212297330164859 ] } },
{ "type": "Feature", "properties": { "addr": "上海市 黄浦区 斜土路22号  " }, "geometry": { "type": "Point", "coordinates": [ 121.49057311238407, 31.212251621347917 ] } },
{ "type": "Feature", "properties": { "addr": "上海市 黄浦区 斜土路251弄  " }, "geometry": { "type": "Point", "coordinates": [ 121.487102598876831, 31.211316361550864 ] } },
{ "type": "Feature", "properties": { "addr": "上海市 黄浦区 斜土路2号  " }, "geometry": { "type": "Point", "coordinates": [ 121.491013821067256, 31.212375467482666 ] } },
{ "type": "Feature", "properties": { "addr": "上海市 黄浦区 斜土路330弄  " }, "geometry": { "type": "Point", "coordinates": [ 121.485718399916507, 31.21017856406608 ] } },
{ "type": "Feature", "properties": { "addr": "上海市 黄浦区 斜土路456号  " }, "geometry": { "type": "Point", "coordinates": [ 121.484234399214003, 31.209617535868617 ] } },
{ "type": "Feature", "properties": { "addr": "上海市 黄浦区 斜土路460弄  " }, "geometry": { "type": "Point", "coordinates": [ 121.483998234695449, 31.208409375790051 ] } },
{ "type": "Feature", "properties": { "addr": "上海市 黄浦区 斜土路486弄  " }, "geometry": { "type": "Point", "coordinates": [ 121.483998234695449, 31.208409375790051 ] } },
{ "type": "Feature", "properties": { "addr": "上海市 黄浦区 斜土路530号  " }, "geometry": { "type": "Point", "coordinates": [ 121.482802230739452, 31.208908177072594 ] } },
{ "type": "Feature", "properties": { "addr": "上海市 黄浦区 斜土路723弄  " }, "geometry": { "type": "Point", "coordinates": [ 121.479371242674645, 31.209265134935279 ] } },
{ "type": "Feature", "properties": { "addr": "上海市 黄浦区 斜土路80弄  " }, "geometry": { "type": "Point", "coordinates": [ 121.490479149627717, 31.21070993944921 ] } },
{ "type": "Feature", "properties": { "addr": "上海市 黄浦区 新昌路284号  " }, "geometry": { "type": "Point", "coordinates": [ 121.474831116796665, 31.241803194970817 ] } },
{ "type": "Feature", "properties": { "addr": "上海市 黄浦区 新昌路290号  " }, "geometry": { "type": "Point", "coordinates": [ 121.474852316806704, 31.241918202754274 ] } },
{ "type": "Feature", "properties": { "addr": "上海市 黄浦区 新昌路477弄  " }, "geometry": { "type": "Point", "coordinates": [ 121.473272736397959, 31.244551687924471 ] } },
{ "type": "Feature", "properties": { "addr": "上海市 黄浦区 新闸路200号  " }, "geometry": { "type": "Point", "coordinates": [ 121.47636703955763, 31.244675877237288 ] } },
{ "type": "Feature", "properties": { "addr": "上海市 黄浦区 兴安路141弄  " }, "geometry": { "type": "Point", "coordinates": [ 121.477259955234544, 31.226603865240154 ] } },
{ "type": "Feature", "properties": { "addr": "上海市 黄浦区 徐家汇路1弄  " }, "geometry": { "type": "Point", "coordinates": [ 121.488376665581626, 31.216576256062218 ] } },
{ "type": "Feature", "properties": { "addr": "上海市 黄浦区 徐家汇路518号  " }, "geometry": { "type": "Point", "coordinates": [ 121.477714318161489, 31.21351076755797 ] } },
{ "type": "Feature", "properties": { "addr": "上海市 黄浦区 学西街19号  " }, "geometry": { "type": "Point", "coordinates": [ 121.493664540966108, 31.223388161981504 ] } },
{ "type": "Feature", "properties": { "addr": "上海市 黄浦区 学西街20弄  " }, "geometry": { "type": "Point", "coordinates": [ 121.493627141513358, 31.223373596597977 ] } },
{ "type": "Feature", "properties": { "addr": "上海市 黄浦区 学西街39弄  " }, "geometry": { "type": "Point", "coordinates": [ 121.493347304375263, 31.223264716424257 ] } },
{ "type": "Feature", "properties": { "addr": "上海市 黄浦区 学院路125号  " }, "geometry": { "type": "Point", "coordinates": [ 121.501312444586404, 31.228927681308956 ] } },
{ "type": "Feature", "properties": { "addr": "上海市 黄浦区 巡道街53弄  " }, "geometry": { "type": "Point", "coordinates": [ 121.50428781209655, 31.225733365033349 ] } },
{ "type": "Feature", "properties": { "addr": "上海市 黄浦区 巡道街8号  " }, "geometry": { "type": "Point", "coordinates": [ 121.504082100134781, 31.226523501025039 ] } },
{ "type": "Feature", "properties": { "addr": "上海市 黄浦区 延安东路158弄  " }, "geometry": { "type": "Point", "coordinates": [ 121.495577662210707, 31.23813329181246 ] } },
{ "type": "Feature", "properties": { "addr": "上海市 黄浦区 延安中路535弄  " }, "geometry": { "type": "Point", "coordinates": [ 121.466308173779083, 31.229614810205653 ] } },
{ "type": "Feature", "properties": { "addr": "上海市 黄浦区 迎勋北路8弄  " }, "geometry": { "type": "Point", "coordinates": [ 121.491585592524359, 31.23724715206362 ] } },
{ "type": "Feature", "properties": { "addr": "上海市 黄浦区 迎勋路100弄  " }, "geometry": { "type": "Point", "coordinates": [ 121.497986558266263, 31.218841953831738 ] } },
{ "type": "Feature", "properties": { "addr": "上海市 黄浦区 永年路74号  " }, "geometry": { "type": "Point", "coordinates": [ 121.48680957161946, 31.218216510608467 ] } },
{ "type": "Feature", "properties": { "addr": "上海市 黄浦区 永年路84号  " }, "geometry": { "type": "Point", "coordinates": [ 121.486623891870551, 31.218323595184749 ] } },
{ "type": "Feature", "properties": { "addr": "上海市 黄浦区 云南南路297号  " }, "geometry": { "type": "Point", "coordinates": [ 121.488943676019517, 31.231416868806317 ] } },
{ "type": "Feature", "properties": { "addr": "上海市 黄浦区 浙江中路128弄  " }, "geometry": { "type": "Point", "coordinates": [ 121.486610237626806, 31.237968878016002 ] } },