{
"type": "FeatureCollection",
"crs": { "type": "name", "properties": { "name": "urn:ogc:def:crs:OGC:1.3:CRS84" } },
"features": [
{ "type": "Feature", "properties": { "addr": "崇明区 骏马村  " }, "geometry": { "type": "Point", "coordinates": [ 121.652405634753677, 31.598662522410077 ] } },
{ "type": "Feature", "properties": { "addr": "崇明区 前卫支路171号  " }, "geometry": { "type": "Point", "coordinates": [ 121.731203017816824, 31.396259927123783 ] } },
{ "type": "Feature", "properties": { "addr": "崇明区 江南大道  " }, "geometry": { "type": "Point", "coordinates": [ 121.765440867837611, 31.358963780322465 ] } },
{ "type": "Feature", "properties": { "addr": "崇明区 长凯路277号  " }, "geometry": { "type": "Point", "coordinates": [ 121.741650221067317, 31.381003128596326 ] } },
{ "type": "Feature", "properties": { "addr": "崇明区 新港村  " }, "geometry": { "type": "Point", "coordinates": [ 121.72151308611123, 31.387065364888386 ] } },
{ "type": "Feature", "properties": { "addr": "崇明区 圆展路120弄  " }, "geometry": { "type": "Point", "coordinates": [ 121.783160289869542, 31.36589152004316 ] } },
{ "type": "Feature", "properties": { "addr": "崇明区 北沿公路1388号  " }, "geometry": { "type": "Point", "coordinates": [ 121.603979332169033, 31.650098576815758 ] } },
{ "type": "Feature", "properties": { "addr": "崇明区 惠中村  " }, "geometry": { "type": "Point", "coordinates": [ 121.677188087162946, 31.615884685889849 ] } },
{ "type": "Feature", "properties": { "addr": "崇明区 六滧村  " }, "geometry": { "type": "Point", "coordinates": [ 121.732044101265814, 31.514200093121321 ] } },
{ "type": "Feature", "properties": { "addr": "崇明区 八滧村  " }, "geometry": { "type": "Point", "coordinates": [ 121.773353758108769, 31.490102224291736 ] } }
]
}
