{
"type": "FeatureCollection",
"crs": { "type": "name", "properties": { "name": "urn:ogc:def:crs:OGC:1.3:CRS84" } },
"features": [
{ "type": "Feature", "properties": { "addr": "奉贤区 嘉园路361弄  " }, "geometry": { "type": "Point", "coordinates": [ 121.500117967749787, 30.965675826217709 ] } },
{ "type": "Feature", "properties": { "addr": "奉贤区 邮电路188号  " }, "geometry": { "type": "Point", "coordinates": [ 121.647345659477068, 30.913169117754325 ] } },
{ "type": "Feature", "properties": { "addr": "奉贤区 光辉村  " }, "geometry": { "type": "Point", "coordinates": [ 121.566696419605108, 30.995599446779515 ] } },
{ "type": "Feature", "properties": { "addr": "奉贤区 汇安村  " }, "geometry": { "type": "Point", "coordinates": [ 121.407059535562993, 30.962106455831396 ] } },
{ "type": "Feature", "properties": { "addr": "奉贤区 育秀十一区  " }, "geometry": { "type": "Point", "coordinates": [ 121.468723627464868, 30.915837144505165 ] } },
{ "type": "Feature", "properties": { "addr": "奉贤区 西闸路75号  " }, "geometry": { "type": "Point", "coordinates": [ 121.499977832090238, 31.010261039967542 ] } },
{ "type": "Feature", "properties": { "addr": "奉贤区 朱店村  " }, "geometry": { "type": "Point", "coordinates": [ 121.553095804692404, 30.932788581800068 ] } },
{ "type": "Feature", "properties": { "addr": "奉贤区 沪杭公路66弄  " }, "geometry": { "type": "Point", "coordinates": [ 121.435779710175254, 30.997105346562432 ] } },
{ "type": "Feature", "properties": { "addr": "奉贤区 灯塔村  " }, "geometry": { "type": "Point", "coordinates": [ 121.431253687693783, 30.99071050479623 ] } },
{ "type": "Feature", "properties": { "addr": "奉贤区 邵平路1号  " }, "geometry": { "type": "Point", "coordinates": [ 121.763916699404234, 30.909692809227806 ] } },
{ "type": "Feature", "properties": { "addr": "奉贤区 新粮路755弄  " }, "geometry": { "type": "Point", "coordinates": [ 121.470898155612886, 30.871721872520766 ] } },
{ "type": "Feature", "properties": { "addr": "奉贤区 解放二村  " }, "geometry": { "type": "Point", "coordinates": [ 121.460157206460636, 30.91911781746558 ] } },
{ "type": "Feature", "properties": { "addr": "奉贤区 贝港南区  " }, "geometry": { "type": "Point", "coordinates": [ 121.452527980839676, 30.914081427872002 ] } },
{ "type": "Feature", "properties": { "addr": "奉贤区 吴塘路527弄  " }, "geometry": { "type": "Point", "coordinates": [ 121.452125816218114, 30.966947179140909 ] } },
{ "type": "Feature", "properties": { "addr": "奉贤区 吴塘村  " }, "geometry": { "type": "Point", "coordinates": [ 121.414182469443247, 30.962207716422824 ] } },
{ "type": "Feature", "properties": { "addr": "奉贤区 国顺路318弄  " }, "geometry": { "type": "Point", "coordinates": [ 121.467579365906275, 30.939538045465643 ] } },
{ "type": "Feature", "properties": { "addr": "奉贤区 海滨二村  " }, "geometry": { "type": "Point", "coordinates": [ 121.576239298698709, 30.864658291345751 ] } },
{ "type": "Feature", "properties": { "addr": "奉贤区 正旭路1058号  " }, "geometry": { "type": "Point", "coordinates": [ 121.755038925710238, 30.887993207614006 ] } },
{ "type": "Feature", "properties": { "addr": "奉贤区 李窑村  " }, "geometry": { "type": "Point", "coordinates": [ 121.59935997574506, 30.92267463657684 ] } },
{ "type": "Feature", "properties": { "addr": "奉贤区 泰青路278号  " }, "geometry": { "type": "Point", "coordinates": [ 121.571056506147201, 30.989239334498766 ] } },
{ "type": "Feature", "properties": { "addr": "奉贤区 扶港路629弄  " }, "geometry": { "type": "Point", "coordinates": [ 121.450976883470844, 30.993820799540817 ] } },
{ "type": "Feature", "properties": { "addr": "奉贤区 光大路12号    " }, "geometry": { "type": "Point", "coordinates": [ 121.596571994764304, 30.918416878164049 ] } },
{ "type": "Feature", "properties": { "addr": "奉贤区 国顺路218弄  " }, "geometry": { "type": "Point", "coordinates": [ 121.471449086382151, 30.941863695689303 ] } },
{ "type": "Feature", "properties": { "addr": "奉贤区 吴塘路799弄  " }, "geometry": { "type": "Point", "coordinates": [ 121.444549507546952, 30.965441263102743 ] } },
{ "type": "Feature", "properties": { "addr": "奉贤区 沪杭公路397弄  " }, "geometry": { "type": "Point", "coordinates": [ 121.440852203603356, 30.991726004327326 ] } },
{ "type": "Feature", "properties": { "addr": "奉贤区 江海村  " }, "geometry": { "type": "Point", "coordinates": [ 121.43911395073664, 30.89622121894309 ] } },
{ "type": "Feature", "properties": { "addr": "奉贤区 新四平公路468弄  " }, "geometry": { "type": "Point", "coordinates": [ 121.746766789591049, 30.898106672029094 ] } },
{ "type": "Feature", "properties": { "addr": "奉贤区 大桥村  " }, "geometry": { "type": "Point", "coordinates": [ 121.718326706636802, 30.961794080158533 ] } },
{ "type": "Feature", "properties": { "addr": "奉贤区 北行路555弄  " }, "geometry": { "type": "Point", "coordinates": [ 121.514728367886264, 30.975867534687428 ] } },
{ "type": "Feature", "properties": { "addr": "奉贤区 发展村  " }, "geometry": { "type": "Point", "coordinates": [ 121.438458726697661, 30.971154141573003 ] } },
{ "type": "Feature", "properties": { "addr": "奉贤区 金碧路1980弄  " }, "geometry": { "type": "Point", "coordinates": [ 121.512796472056522, 30.980284787232577 ] } },
{ "type": "Feature", "properties": { "addr": "奉贤区 万顺路2968弄  " }, "geometry": { "type": "Point", "coordinates": [ 121.523942018010459, 30.975341875008365 ] } },
{ "type": "Feature", "properties": { "addr": "奉贤区 政旭路1058号  " }, "geometry": { "type": "Point", "coordinates": [ 121.480503736431075, 30.923720110285377 ] } },
{ "type": "Feature", "properties": { "addr": "奉贤区 扶兰路9弄  " }, "geometry": { "type": "Point", "coordinates": [ 121.480503736431075, 30.923720110285377 ] } },
{ "type": "Feature", "properties": { "addr": "奉贤区 育秀路209号  " }, "geometry": { "type": "Point", "coordinates": [ 121.472434437696037, 30.914824424740942 ] } },
{ "type": "Feature", "properties": { "addr": "奉贤区 护民村  " }, "geometry": { "type": "Point", "coordinates": [ 121.642179504489192, 30.897583214268263 ] } },
{ "type": "Feature", "properties": { "addr": "奉贤区 永南路1688号  " }, "geometry": { "type": "Point", "coordinates": [ 121.521732006794807, 31.011926873470607 ] } },
{ "type": "Feature", "properties": { "addr": "奉贤区 运河北路1351弄  " }, "geometry": { "type": "Point", "coordinates": [ 121.445689277578026, 30.924687893128159 ] } },
{ "type": "Feature", "properties": { "addr": "奉贤区 六墩村  " }, "geometry": { "type": "Point", "coordinates": [ 121.479480027471908, 30.9042318503855 ] } },
{ "type": "Feature", "properties": { "addr": "奉贤区 育秀六区  " }, "geometry": { "type": "Point", "coordinates": [ 121.470040273850856, 30.912509728838248 ] } },
{ "type": "Feature", "properties": { "addr": "奉贤区 育秀路438弄  " }, "geometry": { "type": "Point", "coordinates": [ 121.469552763450594, 30.914753630770925 ] } },
{ "type": "Feature", "properties": { "addr": "奉贤区 环城南路1065弄  " }, "geometry": { "type": "Point", "coordinates": [ 121.457831403664741, 30.908890017892105 ] } },
{ "type": "Feature", "properties": { "addr": "奉贤区 张翁庙路525号  " }, "geometry": { "type": "Point", "coordinates": [ 121.443529840962583, 30.939092174450447 ] } },
{ "type": "Feature", "properties": { "addr": "奉贤区 金汇东街小区  " }, "geometry": { "type": "Point", "coordinates": [ 121.511848849574037, 30.993667643778398 ] } },
{ "type": "Feature", "properties": { "addr": "奉贤区 益民村（西渡街道）  " }, "geometry": { "type": "Point", "coordinates": [ 121.488831387830771, 30.983855715761091 ] } },
{ "type": "Feature", "properties": { "addr": "奉贤区 海旗路1518弄  " }, "geometry": { "type": "Point", "coordinates": [ 121.744426254584795, 30.900351147429948 ] } },
{ "type": "Feature", "properties": { "addr": "奉贤区 西门港一村  " }, "geometry": { "type": "Point", "coordinates": [ 121.647284215380196, 30.91826313553522 ] } },
{ "type": "Feature", "properties": { "addr": "奉贤区 青伟路111号  " }, "geometry": { "type": "Point", "coordinates": [ 121.61133304073482, 30.940485843493274 ] } },
{ "type": "Feature", "properties": { "addr": "奉贤区 九华路908弄  " }, "geometry": { "type": "Point", "coordinates": [ 121.456474423361371, 30.930496473419581 ] } },
{ "type": "Feature", "properties": { "addr": "奉贤区 沈陆村  " }, "geometry": { "type": "Point", "coordinates": [ 121.459975209764309, 30.900885822545451 ] } },
{ "type": "Feature", "properties": { "addr": "奉贤区 湾张村  " }, "geometry": { "type": "Point", "coordinates": [ 121.536684032516746, 30.926285379228656 ] } },
{ "type": "Feature", "properties": { "addr": "奉贤区 南渡村  " }, "geometry": { "type": "Point", "coordinates": [ 121.457826955507372, 31.005599100715568 ] } },
{ "type": "Feature", "properties": { "addr": "奉贤区 邵靴村  " }, "geometry": { "type": "Point", "coordinates": [ 121.776570051156682, 30.901705181905509 ] } },
{ "type": "Feature", "properties": { "addr": "奉贤区 北虹路67号  " }, "geometry": { "type": "Point", "coordinates": [ 121.45070478673189, 30.969917911963428 ] } },
{ "type": "Feature", "properties": { "addr": "奉贤区 国顺路369弄  " }, "geometry": { "type": "Point", "coordinates": [ 121.464325613518568, 30.937566688087479 ] } },
{ "type": "Feature", "properties": { "addr": "奉贤区 北环路1288号  " }, "geometry": { "type": "Point", "coordinates": [ 121.384033809409019, 30.964891469653018 ] } },
{ "type": "Feature", "properties": { "addr": "奉贤区 灯民村  " }, "geometry": { "type": "Point", "coordinates": [ 121.642409919852511, 30.91229393346585 ] } },
{ "type": "Feature", "properties": { "addr": "奉贤区 南奉公路8889弄  " }, "geometry": { "type": "Point", "coordinates": [ 121.478979761133402, 30.919001562587752 ] } },
{ "type": "Feature", "properties": { "addr": "奉贤区 环城东路885弄  " }, "geometry": { "type": "Point", "coordinates": [ 121.477354906126948, 30.934217346194359 ] } },
{ "type": "Feature", "properties": { "addr": "奉贤区 扶港路388弄  " }, "geometry": { "type": "Point", "coordinates": [ 121.448239477090297, 30.997622295162245 ] } },
{ "type": "Feature", "properties": { "addr": "奉贤区 金齐路348弄  " }, "geometry": { "type": "Point", "coordinates": [ 121.500104493167143, 30.958232847131885 ] } },
{ "type": "Feature", "properties": { "addr": "奉贤区 江海路90弄  " }, "geometry": { "type": "Point", "coordinates": [ 121.465048989002227, 30.910738994251517 ] } },
{ "type": "Feature", "properties": { "addr": "奉贤区 集贤村  " }, "geometry": { "type": "Point", "coordinates": [ 121.70410132024189, 30.921614900614706 ] } },
{ "type": "Feature", "properties": { "addr": "奉贤区 清宁路359弄  " }, "geometry": { "type": "Point", "coordinates": [ 121.520811063985988, 30.947524495510873 ] } },
{ "type": "Feature", "properties": { "addr": "奉贤区 湖堤路199弄  " }, "geometry": { "type": "Point", "coordinates": [ 121.498941007870613, 30.940014810741648 ] } },
{ "type": "Feature", "properties": { "addr": "奉贤区 金港村  " }, "geometry": { "type": "Point", "coordinates": [ 121.4616617783593, 30.986046921646249 ] } },
{ "type": "Feature", "properties": { "addr": "奉贤区 浦秀村  " }, "geometry": { "type": "Point", "coordinates": [ 121.417502067624838, 30.985957915297785 ] } },
{ "type": "Feature", "properties": { "addr": "奉贤区 拾村村  " }, "geometry": { "type": "Point", "coordinates": [ 121.752675394082928, 30.951913805822031 ] } },
{ "type": "Feature", "properties": { "addr": "奉贤区 市场路46弄  " }, "geometry": { "type": "Point", "coordinates": [ 121.734758511025305, 30.947717601573554 ] } },
{ "type": "Feature", "properties": { "addr": "奉贤区 明星村  " }, "geometry": { "type": "Point", "coordinates": [ 121.547546612235067, 30.990383364157328 ] } },
{ "type": "Feature", "properties": { "addr": "奉贤区 振泰路76弄  " }, "geometry": { "type": "Point", "coordinates": [ 121.569958032166028, 30.987097886788316 ] } },
{ "type": "Feature", "properties": { "addr": "奉贤区 航南公路2880号  " }, "geometry": { "type": "Point", "coordinates": [ 121.530789082268612, 30.967720990646772 ] } },
{ "type": "Feature", "properties": { "addr": "奉贤区 陶宅村  " }, "geometry": { "type": "Point", "coordinates": [ 121.558590380174721, 30.954423495460489 ] } },
{ "type": "Feature", "properties": { "addr": "奉贤区 环城东路562号  " }, "geometry": { "type": "Point", "coordinates": [ 121.467211599630474, 30.944466801276619 ] } },
{ "type": "Feature", "properties": { "addr": "奉贤区 曙光村  " }, "geometry": { "type": "Point", "coordinates": [ 121.497491142777506, 30.909940756045394 ] } },
{ "type": "Feature", "properties": { "addr": "奉贤区 周家村  " }, "geometry": { "type": "Point", "coordinates": [ 121.605390749786309, 30.993286107625714 ] } },
{ "type": "Feature", "properties": { "addr": "奉贤区 泰南新村  " }, "geometry": { "type": "Point", "coordinates": [ 121.567322897867768, 30.986358365808943 ] } },
{ "type": "Feature", "properties": { "addr": "奉贤区 清宁路488弄  " }, "geometry": { "type": "Point", "coordinates": [ 121.52805257419358, 30.945685477327388 ] } },
{ "type": "Feature", "properties": { "addr": "奉贤区 申隆一村  " }, "geometry": { "type": "Point", "coordinates": [ 121.583362681731728, 30.89439150805741 ] } },
{ "type": "Feature", "properties": { "addr": "奉贤区 北新村  " }, "geometry": { "type": "Point", "coordinates": [ 121.467999952546037, 31.007937304387589 ] } },
{ "type": "Feature", "properties": { "addr": "奉贤区 泰叶路159弄  " }, "geometry": { "type": "Point", "coordinates": [ 121.567865654056902, 30.982792175839457 ] } },
{ "type": "Feature", "properties": { "addr": "奉贤区 万顺路2088弄  " }, "geometry": { "type": "Point", "coordinates": [ 121.524089879097403, 30.965122318263607 ] } },
{ "type": "Feature", "properties": { "addr": "奉贤区 沪杭公路303弄  " }, "geometry": { "type": "Point", "coordinates": [ 121.421953440918415, 31.008759528445516 ] } },
{ "type": "Feature", "properties": { "addr": "奉贤区 兰博路1801弄  " }, "geometry": { "type": "Point", "coordinates": [ 121.663041122839061, 30.91381417273946 ] } },
{ "type": "Feature", "properties": { "addr": "奉贤区 金海村  " }, "geometry": { "type": "Point", "coordinates": [ 121.507952808746708, 30.877571202482965 ] } },
{ "type": "Feature", "properties": { "addr": "奉贤区 郊南村  " }, "geometry": { "type": "Point", "coordinates": [ 121.477197792493243, 30.840405047260337 ] } },
{ "type": "Feature", "properties": { "addr": "奉贤区 奉浦大道95弄  " }, "geometry": { "type": "Point", "coordinates": [ 121.467578467600745, 30.948958689632065 ] } },
{ "type": "Feature", "properties": { "addr": "奉贤区 百富路388弄  " }, "geometry": { "type": "Point", "coordinates": [ 121.49872658234537, 30.917737775338903 ] } }
]
}
