{
"type": "FeatureCollection",
"crs": { "type": "name", "properties": { "name": "urn:ogc:def:crs:OGC:1.3:CRS84" } },
"features": [
{ "type": "Feature", "properties": { "addr": "奉贤区 西闸路75号  " }, "geometry": { "type": "Point", "coordinates": [ 121.499977832090238, 31.010261039967542 ] } },
{ "type": "Feature", "properties": { "addr": "奉贤区 九华路1338弄  " }, "geometry": { "type": "Point", "coordinates": [ 121.448196999707179, 30.92849795737451 ] } },
{ "type": "Feature", "properties": { "addr": "奉贤区 吴塘路899弄  " }, "geometry": { "type": "Point", "coordinates": [ 121.444549507546952, 30.965441263102743 ] } },
{ "type": "Feature", "properties": { "addr": "奉贤区 洪庙路126弄  " }, "geometry": { "type": "Point", "coordinates": [ 121.694565447931282, 30.932287696039122 ] } },
{ "type": "Feature", "properties": { "addr": "奉贤区 古华路272弄  " }, "geometry": { "type": "Point", "coordinates": [ 121.474195835140009, 30.915384423317708 ] } },
{ "type": "Feature", "properties": { "addr": "奉贤区 邮电路268弄  " }, "geometry": { "type": "Point", "coordinates": [ 121.646909193559907, 30.912243312226085 ] } },
{ "type": "Feature", "properties": { "addr": "奉贤区 新四平公路468弄  " }, "geometry": { "type": "Point", "coordinates": [ 121.746766789591049, 30.898106672029094 ] } },
{ "type": "Feature", "properties": { "addr": "奉贤区 大叶公路6288弄  " }, "geometry": { "type": "Point", "coordinates": [ 121.560759248998025, 30.981951149620905 ] } },
{ "type": "Feature", "properties": { "addr": "奉贤区 沪杭公路66弄  " }, "geometry": { "type": "Point", "coordinates": [ 121.435779710175254, 30.997105346562432 ] } },
{ "type": "Feature", "properties": { "addr": "奉贤区 南行村  " }, "geometry": { "type": "Point", "coordinates": [ 121.516791865473252, 30.979601329438392 ] } },
{ "type": "Feature", "properties": { "addr": "奉贤区 吴塘路799弄  " }, "geometry": { "type": "Point", "coordinates": [ 121.444549507546952, 30.965441263102743 ] } },
{ "type": "Feature", "properties": { "addr": "奉贤区 梁典村  " }, "geometry": { "type": "Point", "coordinates": [ 121.604561613800598, 30.969572972375911 ] } },
{ "type": "Feature", "properties": { "addr": "奉贤区 定康路205弄  " }, "geometry": { "type": "Point", "coordinates": [ 121.511217161139427, 30.928970848528166 ] } },
{ "type": "Feature", "properties": { "addr": "奉贤区 国顺路318弄  " }, "geometry": { "type": "Point", "coordinates": [ 121.467579365906275, 30.939538045465643 ] } },
{ "type": "Feature", "properties": { "addr": "奉贤区 环城南路1065弄  " }, "geometry": { "type": "Point", "coordinates": [ 121.457831403664741, 30.908890017892105 ] } },
{ "type": "Feature", "properties": { "addr": "奉贤区 南奉公路8889弄  " }, "geometry": { "type": "Point", "coordinates": [ 121.478979761133402, 30.919001562587752 ] } },
{ "type": "Feature", "properties": { "addr": "奉贤区 沪杭公路967弄  " }, "geometry": { "type": "Point", "coordinates": [ 121.450178918686333, 30.970242336714971 ] } },
{ "type": "Feature", "properties": { "addr": "奉贤区 大叶公路6720号    " }, "geometry": { "type": "Point", "coordinates": [ 121.573123795529, 30.985255768363487 ] } },
{ "type": "Feature", "properties": { "addr": "奉贤区 航南公路1981弄  " }, "geometry": { "type": "Point", "coordinates": [ 121.561261761100297, 30.990216581588093 ] } },
{ "type": "Feature", "properties": { "addr": "奉贤区 百富路388弄  " }, "geometry": { "type": "Point", "coordinates": [ 121.49872658234537, 30.917737775338903 ] } },
{ "type": "Feature", "properties": { "addr": "奉贤区 南奉公路255号  " }, "geometry": { "type": "Point", "coordinates": [ 121.639602984625469, 30.917785331283778 ] } },
{ "type": "Feature", "properties": { "addr": "奉贤区 金碧路1980弄  " }, "geometry": { "type": "Point", "coordinates": [ 121.512796472056522, 30.980284787232577 ] } },
{ "type": "Feature", "properties": { "addr": "奉贤区 安居路58弄  " }, "geometry": { "type": "Point", "coordinates": [ 121.743066040381592, 30.902357364273275 ] } },
{ "type": "Feature", "properties": { "addr": "奉贤区 南街村  " }, "geometry": { "type": "Point", "coordinates": [ 121.651424685136789, 30.917133100192501 ] } },
{ "type": "Feature", "properties": { "addr": "奉贤区 川南奉公路8029号  " }, "geometry": { "type": "Point", "coordinates": [ 121.722902537282437, 30.943209744910469 ] } },
{ "type": "Feature", "properties": { "addr": "奉贤区 金钱公路399号  " }, "geometry": { "type": "Point", "coordinates": [ 121.505552177101848, 30.994940864425654 ] } },
{ "type": "Feature", "properties": { "addr": "奉贤区 平福路1210弄  " }, "geometry": { "type": "Point", "coordinates": [ 121.735109946106917, 30.903262959961214 ] } },
{ "type": "Feature", "properties": { "addr": "奉贤区 江海二村  " }, "geometry": { "type": "Point", "coordinates": [ 121.462528104193112, 30.906437294858701 ] } },
{ "type": "Feature", "properties": { "addr": "奉贤区 柘林村  " }, "geometry": { "type": "Point", "coordinates": [ 121.492811150731626, 30.845396782560567 ] } },
{ "type": "Feature", "properties": { "addr": "奉贤区 南奉公路142号  " }, "geometry": { "type": "Point", "coordinates": [ 121.642509002950248, 30.91794689739373 ] } },
{ "type": "Feature", "properties": { "addr": "奉贤区 三团港村  " }, "geometry": { "type": "Point", "coordinates": [ 121.727762687374707, 30.89351266409183 ] } },
{ "type": "Feature", "properties": { "addr": "奉贤区 团汇公路258弄  " }, "geometry": { "type": "Point", "coordinates": [ 121.515513037749244, 30.961388880536369 ] } },
{ "type": "Feature", "properties": { "addr": "奉贤区 杨通路424号  " }, "geometry": { "type": "Point", "coordinates": [ 121.497589866553056, 30.900761721171943 ] } },
{ "type": "Feature", "properties": { "addr": "奉贤区 港极路568号  " }, "geometry": { "type": "Point", "coordinates": [ 121.728364821558046, 30.904583380184707 ] } },
{ "type": "Feature", "properties": { "addr": "奉贤区 肖塘路146弄  " }, "geometry": { "type": "Point", "coordinates": [ 121.443720730883456, 30.96905122563496 ] } },
{ "type": "Feature", "properties": { "addr": "奉贤区 万顺路2476弄  " }, "geometry": { "type": "Point", "coordinates": [ 121.522401064738645, 30.971864830812802 ] } },
{ "type": "Feature", "properties": { "addr": "奉贤区 正旭路1058号  " }, "geometry": { "type": "Point", "coordinates": [ 121.755038925710238, 30.887993207614006 ] } },
{ "type": "Feature", "properties": { "addr": "奉贤区 南奉公路999号  " }, "geometry": { "type": "Point", "coordinates": [ 121.626271502043537, 30.919771583911189 ] } },
{ "type": "Feature", "properties": { "addr": "奉贤区 新粮路755弄  " }, "geometry": { "type": "Point", "coordinates": [ 121.470898155612886, 30.871721872520766 ] } },
{ "type": "Feature", "properties": { "addr": "奉贤区 吴塘路457弄  " }, "geometry": { "type": "Point", "coordinates": [ 121.453876344165408, 30.967528080247803 ] } },
{ "type": "Feature", "properties": { "addr": "奉贤区 八字桥路288弄  " }, "geometry": { "type": "Point", "coordinates": [ 121.468520161266866, 30.943778670951339 ] } },
{ "type": "Feature", "properties": { "addr": "奉贤区 明星村  " }, "geometry": { "type": "Point", "coordinates": [ 121.547546612235067, 30.990383364157328 ] } },
{ "type": "Feature", "properties": { "addr": "奉贤区 南胜村  " }, "geometry": { "type": "Point", "coordinates": [ 121.487335978648304, 30.86496130048506 ] } },
{ "type": "Feature", "properties": { "addr": "奉贤区 奉陆路1198号  " }, "geometry": { "type": "Point", "coordinates": [ 121.638658512966174, 30.948877527356863 ] } },
{ "type": "Feature", "properties": { "addr": "奉贤区 陆家桥村  " }, "geometry": { "type": "Point", "coordinates": [ 121.553631284606894, 30.873937681771345 ] } },
{ "type": "Feature", "properties": { "addr": "奉贤区 花厅村  " }, "geometry": { "type": "Point", "coordinates": [ 121.480503736431075, 30.923720110285377 ] } },
{ "type": "Feature", "properties": { "addr": "奉贤区 北宋村  " }, "geometry": { "type": "Point", "coordinates": [ 121.679017935486769, 30.983282500112978 ] } },
{ "type": "Feature", "properties": { "addr": "奉贤区 长堰村  " }, "geometry": { "type": "Point", "coordinates": [ 121.695588348415484, 30.959836966955443 ] } },
{ "type": "Feature", "properties": { "addr": "奉贤区 四团村  " }, "geometry": { "type": "Point", "coordinates": [ 121.718677674599547, 30.947455119700045 ] } },
{ "type": "Feature", "properties": { "addr": "奉贤区 青宁路359弄  " }, "geometry": { "type": "Point", "coordinates": [ 121.556590662278964, 30.922530581957197 ] } },
{ "type": "Feature", "properties": { "addr": "奉贤区 陈桥村  " }, "geometry": { "type": "Point", "coordinates": [ 121.619831010859215, 30.932169598747429 ] } },
{ "type": "Feature", "properties": { "addr": "奉贤区 水闸路14弄  " }, "geometry": { "type": "Point", "coordinates": [ 121.687564144617056, 30.930873306725921 ] } },
{ "type": "Feature", "properties": { "addr": "奉贤区 庙泾新村  " }, "geometry": { "type": "Point", "coordinates": [ 121.496949195063337, 30.923098047461835 ] } },
{ "type": "Feature", "properties": { "addr": "奉贤区 韩村路173弄  " }, "geometry": { "type": "Point", "coordinates": [ 121.468880022454158, 30.946463721417285 ] } },
{ "type": "Feature", "properties": { "addr": "奉贤区 朱家港村  " }, "geometry": { "type": "Point", "coordinates": [ 121.480503736431075, 30.923720110285377 ] } },
{ "type": "Feature", "properties": { "addr": "奉贤区 青村人民路219弄  " }, "geometry": { "type": "Point", "coordinates": [ 121.581168031540315, 30.930466348374111 ] } },
{ "type": "Feature", "properties": { "addr": "奉贤区 航南公路2880号  " }, "geometry": { "type": "Point", "coordinates": [ 121.530789082268612, 30.967720990646772 ] } },
{ "type": "Feature", "properties": { "addr": "奉贤区 姚家村  " }, "geometry": { "type": "Point", "coordinates": [ 121.585977738901832, 30.923133983473207 ] } },
{ "type": "Feature", "properties": { "addr": "奉贤区 新塘路198弄  " }, "geometry": { "type": "Point", "coordinates": [ 121.471896981509417, 30.877180829615902 ] } },
{ "type": "Feature", "properties": { "addr": "奉贤区 民乐路88弄  " }, "geometry": { "type": "Point", "coordinates": [ 121.571271309906322, 30.868165698544846 ] } },
{ "type": "Feature", "properties": { "addr": "奉贤区 朱店村  " }, "geometry": { "type": "Point", "coordinates": [ 121.553095804692404, 30.932788581800068 ] } },
{ "type": "Feature", "properties": { "addr": "奉贤区 张弄村  " }, "geometry": { "type": "Point", "coordinates": [ 121.528976391580045, 30.91331551030121 ] } },
{ "type": "Feature", "properties": { "addr": "奉贤区 金王村  " }, "geometry": { "type": "Point", "coordinates": [ 121.546845754276163, 30.884245803058118 ] } },
{ "type": "Feature", "properties": { "addr": "奉贤区 解放村  " }, "geometry": { "type": "Point", "coordinates": [ 121.459841991057175, 30.918963843619391 ] } },
{ "type": "Feature", "properties": { "addr": "奉贤区 运河北路1351弄  " }, "geometry": { "type": "Point", "coordinates": [ 121.445689277578026, 30.924687893128159 ] } },
{ "type": "Feature", "properties": { "addr": "奉贤区 光明村  " }, "geometry": { "type": "Point", "coordinates": [ 121.511688861362714, 30.922035605516211 ] } },
{ "type": "Feature", "properties": { "addr": "奉贤区 环城南路1309弄  " }, "geometry": { "type": "Point", "coordinates": [ 121.456668367520976, 30.907300759137485 ] } },
{ "type": "Feature", "properties": { "addr": "奉贤区 申隆一村  " }, "geometry": { "type": "Point", "coordinates": [ 121.583362681731728, 30.89439150805741 ] } },
{ "type": "Feature", "properties": { "addr": "奉贤区 金齐路188弄  " }, "geometry": { "type": "Point", "coordinates": [ 121.506698414932586, 30.961184189811107 ] } },
{ "type": "Feature", "properties": { "addr": "奉贤区 六墩村  " }, "geometry": { "type": "Point", "coordinates": [ 121.479480027471908, 30.9042318503855 ] } },
{ "type": "Feature", "properties": { "addr": "奉贤区 瓦洪公路3396号  " }, "geometry": { "type": "Point", "coordinates": [ 121.698267724260091, 30.935925330225118 ] } },
{ "type": "Feature", "properties": { "addr": "奉贤区 运河北路1358弄  " }, "geometry": { "type": "Point", "coordinates": [ 121.445185238356359, 30.926782656816044 ] } },
{ "type": "Feature", "properties": { "addr": "奉贤区 西吴村  " }, "geometry": { "type": "Point", "coordinates": [ 121.587532975231241, 30.946815636476845 ] } },
{ "type": "Feature", "properties": { "addr": "奉贤区 吴塘路529弄（北区）  " }, "geometry": { "type": "Point", "coordinates": [ 121.451461519293488, 30.967372249850776 ] } },
{ "type": "Feature", "properties": { "addr": "奉贤区 金港村  " }, "geometry": { "type": "Point", "coordinates": [ 121.4616617783593, 30.986046921646249 ] } },
{ "type": "Feature", "properties": { "addr": "奉贤区 蔡家桥村  " }, "geometry": { "type": "Point", "coordinates": [ 121.648020556406735, 30.980413583255384 ] } },
{ "type": "Feature", "properties": { "addr": "奉贤区 福光路160弄  " }, "geometry": { "type": "Point", "coordinates": [ 121.524164079132532, 30.918415716381897 ] } },
{ "type": "Feature", "properties": { "addr": "奉贤区 护民村  " }, "geometry": { "type": "Point", "coordinates": [ 121.642179504489192, 30.897583214268263 ] } },
{ "type": "Feature", "properties": { "addr": "奉贤区 朱墩村  " }, "geometry": { "type": "Point", "coordinates": [ 121.603614530301428, 30.903935163797737 ] } },
{ "type": "Feature", "properties": { "addr": "奉贤区 湾张村  " }, "geometry": { "type": "Point", "coordinates": [ 121.536684032516746, 30.926285379228656 ] } },
{ "type": "Feature", "properties": { "addr": "奉贤区 岳和村  " }, "geometry": { "type": "Point", "coordinates": [ 121.576400275046097, 30.937368760237554 ] } },
{ "type": "Feature", "properties": { "addr": "奉贤区 金海公路2898弄  " }, "geometry": { "type": "Point", "coordinates": [ 121.50719562703236, 30.905433615224908 ] } },
{ "type": "Feature", "properties": { "addr": "奉贤区 青伟路111号  " }, "geometry": { "type": "Point", "coordinates": [ 121.61133304073482, 30.940485843493274 ] } },
{ "type": "Feature", "properties": { "addr": "奉贤区 拾村村  " }, "geometry": { "type": "Point", "coordinates": [ 121.752675394082928, 30.951913805822031 ] } },
{ "type": "Feature", "properties": { "addr": "奉贤区 梅园村  " }, "geometry": { "type": "Point", "coordinates": [ 121.603550750610225, 30.996276133429198 ] } },
{ "type": "Feature", "properties": { "addr": "奉贤区 国顺路369弄  " }, "geometry": { "type": "Point", "coordinates": [ 121.464325613518568, 30.937566688087479 ] } },
{ "type": "Feature", "properties": { "addr": "奉贤区 平海村  " }, "geometry": { "type": "Point", "coordinates": [ 121.746596021713586, 30.889908264998759 ] } },
{ "type": "Feature", "properties": { "addr": "奉贤区 正博路1881号  " }, "geometry": { "type": "Point", "coordinates": [ 121.75755903198791, 30.883340676550919 ] } },
{ "type": "Feature", "properties": { "addr": "奉贤区 南渡村  " }, "geometry": { "type": "Point", "coordinates": [ 121.457826955507372, 31.005599100715568 ] } },
{ "type": "Feature", "properties": { "addr": "奉贤区 金齐路348弄  " }, "geometry": { "type": "Point", "coordinates": [ 121.500104493167143, 30.958232847131885 ] } },
{ "type": "Feature", "properties": { "addr": "奉贤区 泰青公路619弄  " }, "geometry": { "type": "Point", "coordinates": [ 121.573767972269707, 30.983230855921263 ] } },
{ "type": "Feature", "properties": { "addr": "奉贤区 西校村  " }, "geometry": { "type": "Point", "coordinates": [ 121.409551435047675, 30.941525158164154 ] } },
{ "type": "Feature", "properties": { "addr": "奉贤区 灯民村  " }, "geometry": { "type": "Point", "coordinates": [ 121.642409919852511, 30.91229393346585 ] } },
{ "type": "Feature", "properties": { "addr": "奉贤区 高桥村  " }, "geometry": { "type": "Point", "coordinates": [ 121.638074787291899, 30.920796797717358 ] } },
{ "type": "Feature", "properties": { "addr": "奉贤区 北虹路67号  " }, "geometry": { "type": "Point", "coordinates": [ 121.45070478673189, 30.969917911963428 ] } },
{ "type": "Feature", "properties": { "addr": "奉贤区 团南村  " }, "geometry": { "type": "Point", "coordinates": [ 121.723588082008732, 30.946526593906807 ] } },
{ "type": "Feature", "properties": { "addr": "奉贤区 振泰路76弄  " }, "geometry": { "type": "Point", "coordinates": [ 121.569958032166028, 30.987097886788316 ] } },
{ "type": "Feature", "properties": { "addr": "奉贤区 光辉村  " }, "geometry": { "type": "Point", "coordinates": [ 121.566696419605108, 30.995599446779515 ] } },
{ "type": "Feature", "properties": { "addr": "奉贤区 龙尖村  " }, "geometry": { "type": "Point", "coordinates": [ 121.73750211571388, 30.904997343970525 ] } },
{ "type": "Feature", "properties": { "addr": "奉贤区 冯家一支路18号  " }, "geometry": { "type": "Point", "coordinates": [ 121.648849602561882, 30.958013284984965 ] } },
{ "type": "Feature", "properties": { "addr": "奉贤区 泰叶路159弄  " }, "geometry": { "type": "Point", "coordinates": [ 121.567865654056902, 30.982792175839457 ] } },
{ "type": "Feature", "properties": { "addr": "奉贤区 东新市村  " }, "geometry": { "type": "Point", "coordinates": [ 121.658072774724474, 30.983281571324341 ] } },
{ "type": "Feature", "properties": { "addr": "奉贤区 运河北路353号  " }, "geometry": { "type": "Point", "coordinates": [ 121.451904880562978, 30.925808967969637 ] } },
{ "type": "Feature", "properties": { "addr": "奉贤区 三桥村  " }, "geometry": { "type": "Point", "coordinates": [ 121.446066296400559, 30.862760781173673 ] } },
{ "type": "Feature", "properties": { "addr": "奉贤区 泽丰路88弄  " }, "geometry": { "type": "Point", "coordinates": [ 121.496344994777331, 30.936681197796187 ] } },
{ "type": "Feature", "properties": { "addr": "奉贤区 泽丰路262弄  " }, "geometry": { "type": "Point", "coordinates": [ 121.492899723654915, 30.93474764848861 ] } },
{ "type": "Feature", "properties": { "addr": "奉贤区 金海村  " }, "geometry": { "type": "Point", "coordinates": [ 121.507952808746708, 30.877571202482965 ] } },
{ "type": "Feature", "properties": { "addr": "奉贤区 南宋村  " }, "geometry": { "type": "Point", "coordinates": [ 121.670059314296864, 30.96833114847438 ] } },
{ "type": "Feature", "properties": { "addr": "奉贤区 金海公路99弄  " }, "geometry": { "type": "Point", "coordinates": [ 121.519496696628039, 30.855841906998446 ] } },
{ "type": "Feature", "properties": { "addr": "奉贤区 灯塔村  " }, "geometry": { "type": "Point", "coordinates": [ 121.431253687693783, 30.99071050479623 ] } },
{ "type": "Feature", "properties": { "addr": "奉贤区 幸福村  " }, "geometry": { "type": "Point", "coordinates": [ 121.65985546200902, 30.939681377296157 ] } },
{ "type": "Feature", "properties": { "addr": "奉贤区 大宅小区  " }, "geometry": { "type": "Point", "coordinates": [ 121.650780600086136, 30.956563743958007 ] } },
{ "type": "Feature", "properties": { "addr": "奉贤区 肖南路68弄  " }, "geometry": { "type": "Point", "coordinates": [ 121.444243993843017, 30.96523487804571 ] } },
{ "type": "Feature", "properties": { "addr": "奉贤区 奉浦大道95弄  " }, "geometry": { "type": "Point", "coordinates": [ 121.467578467600745, 30.948958689632065 ] } },
{ "type": "Feature", "properties": { "addr": "" }, "geometry": { "type": "Point", "coordinates": [ 121.480538860176509, 31.235929042252014 ] } }
]
}
